[{"category": "anti-social-behaviour", "location_type": "Force", "location": {"latitude": "53.417375", "street": {"id": 1715294, "name": "On or near Raisen Hall Road"}, "longitude": "-1.474602"}, "context": "", "outcome_status": null, "persistent_id": "", "id": 113997217, "location_subtype": "", "month": "2023-10"}, {"category": "anti-social-behaviour", "location_type": "Force", "location": {"latitude": "53.382856", "street": {"id": 1715710, "name": "On or near St James' Street"}, "longitude": "-1.470020"}, "context": "", "outcome_status": null, "persistent_id": "", "id": 114005109, "location_subtype": "", "month": "2023-10"}, {"category": "anti-social-behaviour", "location_type": "Force", "location": {"latitude": "53.373780", "street": {"id": 1718463, "name": "On or near Beaumont Mews"}, "longitude": "-1.422110"}, "context": "", "outcome_status": null, "persistent_id": "", "id": 113996198, "location_subtype": "", "month": "2023-10"}, {"category": "anti-social-behaviour", "location_type": "Force", "location": {"latitude": "53.337961", "street": {"id": 1722218, "name": "On or near Hartland Court"}, "longitude": "-1.335939"}, "context": "", "outcome_status": null, "persistent_id": "", "id": 114001682, "location_subtype": "", "month": "2023-10"}, {"category": "anti-social-behaviour", "location_type": "Force", "location": {"latitude": "53.417931", "street": {"id": 1715483, "name": "On or near Crowder Close"}, "longitude": "-1.472278"}, "context": "", "outcome_status": null, "persistent_id": "", "id": 114002708, "location_subtype": "", "month": "2023-10"}, {"category": "anti-social-behaviour", "location_type": "Force", "location": {"latitude": "53.410452", "street": {"id": 1720716, "name": "On or near Fortway Road"}, "longitude": "-1.368494"}, "context": "", "outcome_status": null, "persistent_id": "", "id": 114004043, "location_subtype": "", "month": "2023-10"}, {"category": "anti-social-behaviour", "location_type": "Force", "location": {"latitude": "53.410452", "street": {"id": 1720716, "name": "On or near Fortway Road"}, "longitude": "-1.368494"}, "context": "", "outcome_status": null, "persistent_id": "", "id": 114004044, "location_subtype": "", "month": "2023-10"}, {"category": "anti-social-behaviour", "location_type": "Force", "location": {"latitude": "53.433379", "street": {"id": 1722897, "name": "On or near Ridgeway"}, "longitude": "-1.315669"}, "context": "", "outcome_status": null, "persistent_id": "", "id": 114004048, "location_subtype": "", "month": "2023-10"}, {"category": "anti-social-behaviour", "location_type": "Force", "location": {"latitude": "53.429317", "street": {"id": 1714452, "name": "On or near Petrol Station"}, "longitude": "-1.484147"}, "context": "", "outcome_status": null, "persistent_id": "", "id": 113995728, "location_subtype": "", "month": "2023-10"}, {"category": "anti-social-behaviour", "location_type": "Force", "location": {"latitude": "53.408075", "street": {"id": 1712249, "name": "On or near Ben Lane"}, "longitude": "-1.520311"}, "context": "", "outcome_status": null, "persistent_id": "", "id": 113993638, "location_subtype": "", "month": "2023-10"}, {"category": "anti-social-behaviour", "location_type": "Force", "location": {"latitude": "53.328165", "street": {"id": 1712319, "name": "On or near Dore And Totley"}, "longitude": "-1.515727"}, "context": "", "outcome_status": null, "persistent_id": "", "id": 113993639, "location_subtype": "", "month": "2023-10"}, {"category": "anti-social-behaviour", "location_type": "Force", "location": {"latitude": "53.351045", "street": {"id": 1719455, "name": "On or near Alport Avenue"}, "longitude": "-1.397990"}, "context": "", "outcome_status": null, "persistent_id": "", "id": 113996199, "location_subtype": "", "month": "2023-10"}, {"category": "anti-social-behaviour", "location_type": "Force", "location": {"latitude": "53.432418", "street": {"id": 1714298, "name": "On or near B6087"}, "longitude": "-1.486081"}, "context": "", "outcome_status": null, "persistent_id": "", "id": 113995727, "location_subtype": "", "month": "2023-10"}, {"category": "anti-social-behaviour", "location_type": "Force", "location": {"latitude": "53.351594", "street": {"id": 1712526, "name": "On or near Silverdale Croft"}, "longitude": "-1.514695"}, "context": "", "outcome_status": null, "persistent_id": "", "id": 113993640, "location_subtype": "", "month": "2023-10"}, {"category": "anti-social-behaviour", "location_type": "Force", "location": {"latitude": "53.418754", "street": {"id": 1714777, "name": "On or near Supermarket"}, "longitude": "-1.479776"}, "context": "", "outcome_status": null, "persistent_id": "", "id": 114006547, "location_subtype": "", "month": "2023-10"}, {"category": "anti-social-behaviour", "location_type": "Force", "location": {"latitude": "53.367933", "street": {"id": 1715019, "name": "On or near Hobart Street"}, "longitude": "-1.477750"}, "context": "", "outcome_status": null, "persistent_id": "", "id": 114006548, "location_subtype": "", "month": "2023-10"}, {"category": "anti-social-behaviour", "location_type": "Force", "location": {"latitude": "53.378924", "street": {"id": 1712672, "name": "On or near Ryegate Road"}, "longitude": "-1.511409"}, "context": "", "outcome_status": null, "persistent_id": "", "id": 113993641, "location_subtype": "", "month": "2023-10"}, {"category": "anti-social-behaviour", "location_type": "Force", "location": {"latitude": "53.380750", "street": {"id": 1714830, "name": "On or near Pitt Street"}, "longitude": "-1.479608"}, "context": "", "outcome_status": null, "persistent_id": "", "id": 114006549, "location_subtype": "", "month": "2023-10"}, {"category": "anti-social-behaviour", "location_type": "Force", "location": {"latitude": "53.366962", "street": {"id": 1718916, "name": "On or near Castlebeck Drive"}, "longitude": "-1.413906"}, "context": "", "outcome_status": null, "persistent_id": "", "id": 114006570, "location_subtype": "", "month": "2023-10"}, {"category": "anti-social-behaviour", "location_type": "Force", "location": {"latitude": "53.418080", "street": {"id": 1713744, "name": "On or near Binsted Crescent"}, "longitude": "-1.494424"}, "context": "", "outcome_status": null, "persistent_id": "", "id": 113993647, "location_subtype": "", "month": "2023-10"}, {"category": "anti-social-behaviour", "location_type": "Force", "location": {"latitude": "53.477375", "street": {"id": 1713930, "name": "On or near Dowland Court"}, "longitude": "-1.491490"}, "context": "", "outcome_status": null, "persistent_id": "", "id": 113993648, "location_subtype": "", "month": "2023-10"}, {"category": "anti-social-behaviour", "location_type": "Force", "location": {"latitude": "53.450076", "street": {"id": 1719789, "name": "On or near Roughwood Road"}, "longitude": "-1.389725"}, "context": "", "outcome_status": null, "persistent_id": "", "id": 114006573, "location_subtype": "", "month": "2023-10"}, {"category": "anti-social-behaviour", "location_type": "Force", "location": {"latitude": "53.379899", "street": {"id": 1714975, "name": "On or near Parking Area"}, "longitude": "-1.478325"}, "context": "", "outcome_status": null, "persistent_id": "", "id": 114003997, "location_subtype": "", "month": "2023-10"}, {"category": "anti-social-behaviour", "location_type": "Force", "location": {"latitude": "53.378406", "street": {"id": 1715329, "name": "On or near Parking Area"}, "longitude": "-1.473954"}, "context": "", "outcome_status": null, "persistent_id": "", "id": 114001648, "location_subtype": "", "month": "2023-10"}, {"category": "anti-social-behaviour", "location_type": "Force", "location": {"latitude": "53.368613", "street": {"id": 1719652, "name": "On or near Richmond Avenue"}, "longitude": "-1.393384"}, "context": "", "outcome_status": null, "persistent_id": "", "id": 114006574, "location_subtype": "", "month": "2023-10"}, {"category": "anti-social-behaviour", "location_type": "Force", "location": {"latitude": "53.382133", "street": {"id": 1715928, "name": "On or near George Street"}, "longitude": "-1.467068"}, "context": "", "outcome_status": null, "persistent_id": "", "id": 114002713, "location_subtype": "", "month": "2023-10"}, {"category": "anti-social-behaviour", "location_type": "Force", "location": {"latitude": "53.356839", "street": {"id": 1717121, "name": "On or near Newfield Green Road"}, "longitude": "-1.449308"}, "context": "", "outcome_status": null, "persistent_id": "", "id": 113993672, "location_subtype": "", "month": "2023-10"}, {"category": "anti-social-behaviour", "location_type": "Force", "location": {"latitude": "53.369757", "street": {"id": 1719854, "name": "On or near Bramley Drive"}, "longitude": "-1.388709"}, "context": "", "outcome_status": null, "persistent_id": "", "id": 114006575, "location_subtype": "", "month": "2023-10"}, {"category": "anti-social-behaviour", "location_type": "Force", "location": {"latitude": "53.418908", "street": {"id": 1717214, "name": "On or near Shopping Area"}, "longitude": "-1.448670"}, "context": "", "outcome_status": null, "persistent_id": "", "id": 113993673, "location_subtype": "", "month": "2023-10"}, {"category": "anti-social-behaviour", "location_type": "Force", "location": {"latitude": "53.344363", "street": {"id": 1719828, "name": "On or near Occupation Lane"}, "longitude": "-1.388606"}, "context": "", "outcome_status": null, "persistent_id": "", "id": 114006576, "location_subtype": "", "month": "2023-10"}, {"category": "anti-social-behaviour", "location_type": "Force", "location": {"latitude": "53.431910", "street": {"id": 1721188, "name": "On or near Bridgegate"}, "longitude": "-1.357098"}, "context": "", "outcome_status": null, "persistent_id": "", "id": 114006582, "location_subtype": "", "month": "2023-10"}, {"category": "anti-social-behaviour", "location_type": "Force", "location": {"latitude": "53.378498", "street": {"id": 1717093, "name": "On or near Sports/recreation Area"}, "longitude": "-1.448139"}, "context": "", "outcome_status": null, "persistent_id": "", "id": 113993674, "location_subtype": "", "month": "2023-10"}, {"category": "anti-social-behaviour", "location_type": "Force", "location": {"latitude": "53.351588", "street": {"id": 1717496, "name": "On or near Middle Hay Close"}, "longitude": "-1.443172"}, "context": "", "outcome_status": null, "persistent_id": "", "id": 113993675, "location_subtype": "", "month": "2023-10"}, {"category": "anti-social-behaviour", "location_type": "Force", "location": {"latitude": "53.358391", "street": {"id": 1717580, "name": "On or near Arbourthorne Road"}, "longitude": "-1.442843"}, "context": "", "outcome_status": null, "persistent_id": "", "id": 113993676, "location_subtype": "", "month": "2023-10"}, {"category": "anti-social-behaviour", "location_type": "Force", "location": {"latitude": "53.428552", "street": {"id": 1713915, "name": "On or near Chaucer Close"}, "longitude": "-1.490236"}, "context": "", "outcome_status": null, "persistent_id": "", "id": 113995726, "location_subtype": "", "month": "2023-10"}, {"category": "anti-social-behaviour", "location_type": "Force", "location": {"latitude": "53.428035", "street": {"id": 1720890, "name": "On or near Parking Area"}, "longitude": "-1.358632"}, "context": "", "outcome_status": null, "persistent_id": "", "id": 114006583, "location_subtype": "", "month": "2023-10"}, {"category": "anti-social-behaviour", "location_type": "Force", "location": {"latitude": "53.418989", "street": {"id": 1717693, "name": "On or near Bracken Road"}, "longitude": "-1.440125"}, "context": "", "outcome_status": null, "persistent_id": "", "id": 113993677, "location_subtype": "", "month": "2023-10"}, {"category": "anti-social-behaviour", "location_type": "Force", "location": {"latitude": "53.423725", "street": {"id": 1721246, "name": "On or near Mountenoy Road"}, "longitude": "-1.354393"}, "context": "", "outcome_status": null, "persistent_id": "", "id": 114006585, "location_subtype": "", "month": "2023-10"}, {"category": "anti-social-behaviour", "location_type": "Force", "location": {"latitude": "53.382912", "street": {"id": 1716031, "name": "On or near High Street"}, "longitude": "-1.466381"}, "context": "", "outcome_status": null, "persistent_id": "", "id": 114002712, "location_subtype": "", "month": "2023-10"}, {"category": "anti-social-behaviour", "location_type": "Force", "location": {"latitude": "53.399992", "street": {"id": 1718032, "name": "On or near Don Road"}, "longitude": "-1.431756"}, "context": "", "outcome_status": null, "persistent_id": "", "id": 113993679, "location_subtype": "", "month": "2023-10"}, {"category": "anti-social-behaviour", "location_type": "Force", "location": {"latitude": "53.364283", "street": {"id": 1718219, "name": "On or near Fairleigh"}, "longitude": "-1.426716"}, "context": "", "outcome_status": null, "persistent_id": "", "id": 113993680, "location_subtype": "", "month": "2023-10"}, {"category": "anti-social-behaviour", "location_type": "Force", "location": {"latitude": "53.412829", "street": {"id": 1718350, "name": "On or near Stupton Road"}, "longitude": "-1.424560"}, "context": "", "outcome_status": null, "persistent_id": "", "id": 113993681, "location_subtype": "", "month": "2023-10"}, {"category": "anti-social-behaviour", "location_type": "Force", "location": {"latitude": "53.455322", "street": {"id": 1721821, "name": "On or near Bear Tree Close"}, "longitude": "-1.344833"}, "context": "", "outcome_status": null, "persistent_id": "", "id": 114006586, "location_subtype": "", "month": "2023-10"}, {"category": "anti-social-behaviour", "location_type": "Force", "location": {"latitude": "53.320133", "street": {"id": 1714008, "name": "On or near Gresley Road"}, "longitude": "-1.488661"}, "context": "", "outcome_status": null, "persistent_id": "", "id": 114007919, "location_subtype": "", "month": "2023-10"}, {"category": "anti-social-behaviour", "location_type": "Force", "location": {"latitude": "53.453421", "street": {"id": 1721855, "name": "On or near Bear Tree Street"}, "longitude": "-1.344004"}, "context": "", "outcome_status": null, "persistent_id": "", "id": 114006587, "location_subtype": "", "month": "2023-10"}, {"category": "anti-social-behaviour", "location_type": "Force", "location": {"latitude": "53.427754", "street": {"id": 1713862, "name": "On or near Halifax Road"}, "longitude": "-1.492789"}, "context": "", "outcome_status": null, "persistent_id": "", "id": 114007916, "location_subtype": "", "month": "2023-10"}, {"category": "anti-social-behaviour", "location_type": "Force", "location": {"latitude": "53.465039", "street": {"id": 1713965, "name": "On or near Hollow Gate"}, "longitude": "-1.490809"}, "context": "", "outcome_status": null, "persistent_id": "", "id": 113995725, "location_subtype": "", "month": "2023-10"}, {"category": "anti-social-behaviour", "location_type": "Force", "location": {"latitude": "53.389717", "street": {"id": 1718542, "name": "On or near Kashmir Gardens"}, "longitude": "-1.420406"}, "context": "", "outcome_status": null, "persistent_id": "", "id": 113993682, "location_subtype": "", "month": "2023-10"}, {"category": "anti-social-behaviour", "location_type": "Force", "location": {"latitude": "53.346177", "street": {"id": 1713594, "name": "On or near Marriott Lane"}, "longitude": "-1.495816"}, "context": "", "outcome_status": null, "persistent_id": "", "id": 114007914, "location_subtype": "", "month": "2023-10"}, {"category": "anti-social-behaviour", "location_type": "Force", "location": {"latitude": "53.371887", "street": {"id": 1718725, "name": "On or near Supermarket"}, "longitude": "-1.417401"}, "context": "", "outcome_status": null, "persistent_id": "", "id": 113993683, "location_subtype": "", "month": "2023-10"}, {"category": "anti-social-behaviour", "location_type": "Force", "location": {"latitude": "53.417203", "street": {"id": 1713269, "name": "On or near Petrol Station"}, "longitude": "-1.501657"}, "context": "", "outcome_status": null, "persistent_id": "", "id": 113995724, "location_subtype": "", "month": "2023-10"}, {"category": "anti-social-behaviour", "location_type": "Force", "location": {"latitude": "53.471442", "street": {"id": 1721916, "name": "On or near Homestead Drive"}, "longitude": "-1.342189"}, "context": "", "outcome_status": null, "persistent_id": "", "id": 114006588, "location_subtype": "", "month": "2023-10"}, {"category": "anti-social-behaviour", "location_type": "Force", "location": {"latitude": "53.381140", "street": {"id": 1713104, "name": "On or near Weston View"}, "longitude": "-1.503716"}, "context": "", "outcome_status": null, "persistent_id": "", "id": 113995723, "location_subtype": "", "month": "2023-10"}, {"category": "anti-social-behaviour", "location_type": "Force", "location": {"latitude": "53.321107", "street": {"id": 1712205, "name": "On or near West View Lane"}, "longitude": "-1.522127"}, "context": "", "outcome_status": null, "persistent_id": "", "id": 114007910, "location_subtype": "", "month": "2023-10"}, {"category": "anti-social-behaviour", "location_type": "Force", "location": {"latitude": "53.357148", "street": {"id": 1718755, "name": "On or near Mansfield Road"}, "longitude": "-1.416024"}, "context": "", "outcome_status": null, "persistent_id": "", "id": 113993684, "location_subtype": "", "month": "2023-10"}, {"category": "anti-social-behaviour", "location_type": "Force", "location": {"latitude": "53.377639", "street": {"id": 1719043, "name": "On or near Bowden Wood Crescent"}, "longitude": "-1.409806"}, "context": "", "outcome_status": null, "persistent_id": "", "id": 113993686, "location_subtype": "", "month": "2023-10"}, {"category": "anti-social-behaviour", "location_type": "Force", "location": {"latitude": "53.431584", "street": {"id": 1719496, "name": "On or near Roman Court"}, "longitude": "-1.397967"}, "context": "", "outcome_status": null, "persistent_id": "", "id": 113993687, "location_subtype": "", "month": "2023-10"}, {"category": "anti-social-behaviour", "location_type": "Force", "location": {"latitude": "53.363247", "street": {"id": 1719556, "name": "On or near Smelter Wood Road"}, "longitude": "-1.395279"}, "context": "", "outcome_status": null, "persistent_id": "", "id": 113993689, "location_subtype": "", "month": "2023-10"}, {"category": "anti-social-behaviour", "location_type": "Force", "location": {"latitude": "53.365582", "street": {"id": 1712845, "name": "On or near Onslow Road"}, "longitude": "-1.508345"}, "context": "", "outcome_status": null, "persistent_id": "", "id": 113995722, "location_subtype": "", "month": "2023-10"}, {"category": "anti-social-behaviour", "location_type": "Force", "location": {"latitude": "53.475775", "street": {"id": 1711142, "name": "On or near Beauchief Close"}, "longitude": "-1.569344"}, "context": "", "outcome_status": null, "persistent_id": "", "id": 114007908, "location_subtype": "", "month": "2023-10"}, {"category": "anti-social-behaviour", "location_type": "Force", "location": {"latitude": "53.476176", "street": {"id": 1710874, "name": "On or near Cedar Close"}, "longitude": "-1.599398"}, "context": "", "outcome_status": null, "persistent_id": "", "id": 114007907, "location_subtype": "", "month": "2023-10"}, {"category": "anti-social-behaviour", "location_type": "Force", "location": {"latitude": "53.476682", "street": {"id": 1710942, "name": "On or near Glebelands Road"}, "longitude": "-1.592342"}, "context": "", "outcome_status": null, "persistent_id": "", "id": 113996169, "location_subtype": "", "month": "2023-10"}, {"category": "anti-social-behaviour", "location_type": "Force", "location": {"latitude": "53.352376", "street": {"id": 1719571, "name": "On or near Alport Drive"}, "longitude": "-1.396454"}, "context": "", "outcome_status": null, "persistent_id": "", "id": 113996200, "location_subtype": "", "month": "2023-10"}, {"category": "anti-social-behaviour", "location_type": "Force", "location": {"latitude": "53.360426", "street": {"id": 1722550, "name": "On or near Knaresborough Close"}, "longitude": "-1.325192"}, "context": "", "outcome_status": null, "persistent_id": "", "id": 114006590, "location_subtype": "", "month": "2023-10"}, {"category": "anti-social-behaviour", "location_type": "Force", "location": {"latitude": "53.405973", "street": {"id": 1716824, "name": "On or near Cannon Hall Road"}, "longitude": "-1.455669"}, "context": "", "outcome_status": null, "persistent_id": "", "id": 113993669, "location_subtype": "", "month": "2023-10"}, {"category": "anti-social-behaviour", "location_type": "Force", "location": {"latitude": "53.388957", "street": {"id": 1718272, "name": "On or near Ouseburn Street"}, "longitude": "-1.426776"}, "context": "", "outcome_status": null, "persistent_id": "", "id": 113993678, "location_subtype": "", "month": "2023-10"}, {"category": "anti-social-behaviour", "location_type": "Force", "location": {"latitude": "53.346548", "street": {"id": 1720208, "name": "On or near Cotleigh Road"}, "longitude": "-1.379938"}, "context": "", "outcome_status": null, "persistent_id": "", "id": 113993691, "location_subtype": "", "month": "2023-10"}, {"category": "anti-social-behaviour", "location_type": "Force", "location": {"latitude": "53.476611", "street": {"id": 1711036, "name": "On or near Moxon Close"}, "longitude": "-1.579596"}, "context": "", "outcome_status": null, "persistent_id": "", "id": 113995720, "location_subtype": "", "month": "2023-10"}, {"category": "anti-social-behaviour", "location_type": "Force", "location": {"latitude": "53.362183", "street": {"id": 1722597, "name": "On or near Bedale Close"}, "longitude": "-1.324308"}, "context": "", "outcome_status": null, "persistent_id": "", "id": 114006591, "location_subtype": "", "month": "2023-10"}, {"category": "anti-social-behaviour", "location_type": "Force", "location": {"latitude": "53.476682", "street": {"id": 1710942, "name": "On or near Glebelands Road"}, "longitude": "-1.592342"}, "context": "", "outcome_status": null, "persistent_id": "", "id": 113995719, "location_subtype": "", "month": "2023-10"}, {"category": "anti-social-behaviour", "location_type": "Force", "location": {"latitude": "53.473864", "street": {"id": 1721836, "name": "On or near Kempwell Drive"}, "longitude": "-1.342905"}, "context": "", "outcome_status": null, "persistent_id": "", "id": 114001681, "location_subtype": "", "month": "2023-10"}, {"category": "anti-social-behaviour", "location_type": "Force", "location": {"latitude": "53.380878", "street": {"id": 1715356, "name": "On or near Parking Area"}, "longitude": "-1.474059"}, "context": "", "outcome_status": null, "persistent_id": "", "id": 114006981, "location_subtype": "", "month": "2023-10"}, {"category": "anti-social-behaviour", "location_type": "Force", "location": {"latitude": "53.380641", "street": {"id": 1715304, "name": "On or near Nightclub"}, "longitude": "-1.474268"}, "context": "", "outcome_status": null, "persistent_id": "", "id": 114006982, "location_subtype": "", "month": "2023-10"}, {"category": "anti-social-behaviour", "location_type": "Force", "location": {"latitude": "53.452526", "street": {"id": 1722019, "name": "On or near Craven Street"}, "longitude": "-1.339921"}, "context": "", "outcome_status": null, "persistent_id": "", "id": 114001680, "location_subtype": "", "month": "2023-10"}, {"category": "anti-social-behaviour", "location_type": "Force", "location": {"latitude": "53.451293", "street": {"id": 1722075, "name": "On or near Aldwarke Road"}, "longitude": "-1.339594"}, "context": "", "outcome_status": null, "persistent_id": "", "id": 113997266, "location_subtype": "", "month": "2023-10"}, {"category": "anti-social-behaviour", "location_type": "Force", "location": {"latitude": "53.337568", "street": {"id": 1722049, "name": "On or near Willingham Gardens"}, "longitude": "-1.339625"}, "context": "", "outcome_status": null, "persistent_id": "", "id": 113997265, "location_subtype": "", "month": "2023-10"}, {"category": "anti-social-behaviour", "location_type": "Force", "location": {"latitude": "53.385058", "street": {"id": 1721794, "name": "On or near Shorland Drive"}, "longitude": "-1.345055"}, "context": "", "outcome_status": null, "persistent_id": "", "id": 113997264, "location_subtype": "", "month": "2023-10"}, {"category": "anti-social-behaviour", "location_type": "Force", "location": {"latitude": "53.451113", "street": {"id": 1721811, "name": "On or near Broad Street"}, "longitude": "-1.344355"}, "context": "", "outcome_status": null, "persistent_id": "", "id": 113997263, "location_subtype": "", "month": "2023-10"}, {"category": "anti-social-behaviour", "location_type": "Force", "location": {"latitude": "53.380686", "street": {"id": 1713909, "name": "On or near Damer Street"}, "longitude": "-1.491875"}, "context": "", "outcome_status": null, "persistent_id": "", "id": 113994159, "location_subtype": "", "month": "2023-10"}, {"category": "anti-social-behaviour", "location_type": "Force", "location": {"latitude": "53.424776", "street": {"id": 1721626, "name": "On or near Nabeel Court"}, "longitude": "-1.349260"}, "context": "", "outcome_status": null, "persistent_id": "", "id": 113997262, "location_subtype": "", "month": "2023-10"}, {"category": "anti-social-behaviour", "location_type": "Force", "location": {"latitude": "53.370193", "street": {"id": 1719055, "name": "On or near Danebrook Close"}, "longitude": "-1.411112"}, "context": "", "outcome_status": null, "persistent_id": "", "id": 113997245, "location_subtype": "", "month": "2023-10"}, {"category": "anti-social-behaviour", "location_type": "Force", "location": {"latitude": "53.323728", "street": {"id": 1713826, "name": "On or near Reney Crescent"}, "longitude": "-1.492897"}, "context": "", "outcome_status": null, "persistent_id": "", "id": 113994160, "location_subtype": "", "month": "2023-10"}, {"category": "anti-social-behaviour", "location_type": "Force", "location": {"latitude": "53.398246", "street": {"id": 1717498, "name": "On or near Atlas Way"}, "longitude": "-1.442758"}, "context": "", "outcome_status": null, "persistent_id": "", "id": 113997241, "location_subtype": "", "month": "2023-10"}, {"category": "anti-social-behaviour", "location_type": "Force", "location": {"latitude": "53.344265", "street": {"id": 1714170, "name": "On or near Periwood Lane"}, "longitude": "-1.488163"}, "context": "", "outcome_status": null, "persistent_id": "", "id": 113994161, "location_subtype": "", "month": "2023-10"}, {"category": "anti-social-behaviour", "location_type": "Force", "location": {"latitude": "53.371467", "street": {"id": 1714252, "name": "On or near Pomona Street"}, "longitude": "-1.486484"}, "context": "", "outcome_status": null, "persistent_id": "", "id": 113994162, "location_subtype": "", "month": "2023-10"}, {"category": "anti-social-behaviour", "location_type": "Force", "location": {"latitude": "53.369790", "street": {"id": 1717564, "name": "On or near St Aidan's Rise"}, "longitude": "-1.443160"}, "context": "", "outcome_status": null, "persistent_id": "", "id": 113997240, "location_subtype": "", "month": "2023-10"}, {"category": "anti-social-behaviour", "location_type": "Force", "location": {"latitude": "53.419188", "street": {"id": 1714348, "name": "On or near Dryden Way"}, "longitude": "-1.484390"}, "context": "", "outcome_status": null, "persistent_id": "", "id": 113994163, "location_subtype": "", "month": "2023-10"}, {"category": "anti-social-behaviour", "location_type": "Force", "location": {"latitude": "53.412957", "street": {"id": 1715501, "name": "On or near Parking Area"}, "longitude": "-1.471542"}, "context": "", "outcome_status": null, "persistent_id": "", "id": 114006983, "location_subtype": "", "month": "2023-10"}, {"category": "anti-social-behaviour", "location_type": "Force", "location": {"latitude": "53.321504", "street": {"id": 1715389, "name": "On or near Chesterfield Road South"}, "longitude": "-1.473212"}, "context": "", "outcome_status": null, "persistent_id": "", "id": 114006984, "location_subtype": "", "month": "2023-10"}, {"category": "anti-social-behaviour", "location_type": "Force", "location": {"latitude": "53.361793", "street": {"id": 1717573, "name": "On or near Algar Drive"}, "longitude": "-1.441942"}, "context": "", "outcome_status": null, "persistent_id": "", "id": 113997239, "location_subtype": "", "month": "2023-10"}, {"category": "anti-social-behaviour", "location_type": "Force", "location": {"latitude": "53.384976", "street": {"id": 1714827, "name": "On or near Upper Allen Street"}, "longitude": "-1.480082"}, "context": "", "outcome_status": null, "persistent_id": "", "id": 113994165, "location_subtype": "", "month": "2023-10"}, {"category": "anti-social-behaviour", "location_type": "Force", "location": {"latitude": "53.357235", "street": {"id": 1717392, "name": "On or near Daresbury View"}, "longitude": "-1.445547"}, "context": "", "outcome_status": null, "persistent_id": "", "id": 113997238, "location_subtype": "", "month": "2023-10"}, {"category": "anti-social-behaviour", "location_type": "Force", "location": {"latitude": "53.399806", "street": {"id": 1717096, "name": "On or near Carwood Close"}, "longitude": "-1.449656"}, "context": "", "outcome_status": null, "persistent_id": "", "id": 113997237, "location_subtype": "", "month": "2023-10"}, {"category": "anti-social-behaviour", "location_type": "Force", "location": {"latitude": "53.320749", "street": {"id": 1715635, "name": "On or near Batemoor Close"}, "longitude": "-1.471180"}, "context": "", "outcome_status": null, "persistent_id": "", "id": 114006985, "location_subtype": "", "month": "2023-10"}, {"category": "anti-social-behaviour", "location_type": "Force", "location": {"latitude": "53.391977", "street": {"id": 1713435, "name": "On or near Parking Area"}, "longitude": "-1.498673"}, "context": "", "outcome_status": null, "persistent_id": "", "id": 114007379, "location_subtype": "", "month": "2023-10"}, {"category": "anti-social-behaviour", "location_type": "Force", "location": {"latitude": "53.447442", "street": {"id": 1719692, "name": "On or near Crane Road"}, "longitude": "-1.393045"}, "context": "", "outcome_status": null, "persistent_id": "", "id": 114006998, "location_subtype": "", "month": "2023-10"}, {"category": "anti-social-behaviour", "location_type": "Force", "location": {"latitude": "53.372121", "street": {"id": 1715035, "name": "On or near Petrol Station"}, "longitude": "-1.478077"}, "context": "", "outcome_status": null, "persistent_id": "", "id": 113994166, "location_subtype": "", "month": "2023-10"}, {"category": "anti-social-behaviour", "location_type": "Force", "location": {"latitude": "53.339564", "street": {"id": 1717125, "name": "On or near Blackstock Drive"}, "longitude": "-1.449621"}, "context": "", "outcome_status": null, "persistent_id": "", "id": 113997236, "location_subtype": "", "month": "2023-10"}, {"category": "anti-social-behaviour", "location_type": "Force", "location": {"latitude": "53.411735", "street": {"id": 1717136, "name": "On or near Lindley Road"}, "longitude": "-1.449758"}, "context": "", "outcome_status": null, "persistent_id": "", "id": 113997234, "location_subtype": "", "month": "2023-10"}, {"category": "anti-social-behaviour", "location_type": "Force", "location": {"latitude": "53.436852", "street": {"id": 1717488, "name": "On or near Paper Mill Road"}, "longitude": "-1.442615"}, "context": "", "outcome_status": null, "persistent_id": "", "id": 114001658, "location_subtype": "", "month": "2023-10"}, {"category": "anti-social-behaviour", "location_type": "Force", "location": {"latitude": "53.406812", "street": {"id": 1717027, "name": "On or near Skinnerthorpe Road"}, "longitude": "-1.452424"}, "context": "", "outcome_status": null, "persistent_id": "", "id": 113997233, "location_subtype": "", "month": "2023-10"}, {"category": "anti-social-behaviour", "location_type": "Force", "location": {"latitude": "53.405627", "street": {"id": 1718720, "name": "On or near Park/open Space"}, "longitude": "-1.409314"}, "context": "", "outcome_status": null, "persistent_id": "", "id": 114005619, "location_subtype": "", "month": "2023-10"}, {"category": "anti-social-behaviour", "location_type": "Force", "location": {"latitude": "53.371189", "street": {"id": 1715541, "name": "On or near Petrol Station"}, "longitude": "-1.472149"}, "context": "", "outcome_status": null, "persistent_id": "", "id": 113994167, "location_subtype": "", "month": "2023-10"}, {"category": "anti-social-behaviour", "location_type": "Force", "location": {"latitude": "53.362042", "street": {"id": 1715862, "name": "On or near Parking Area"}, "longitude": "-1.468806"}, "context": "", "outcome_status": null, "persistent_id": "", "id": 113994168, "location_subtype": "", "month": "2023-10"}, {"category": "anti-social-behaviour", "location_type": "Force", "location": {"latitude": "53.323353", "street": {"id": 1716040, "name": "On or near Dyche Close"}, "longitude": "-1.464647"}, "context": "", "outcome_status": null, "persistent_id": "", "id": 113994172, "location_subtype": "", "month": "2023-10"}, {"category": "anti-social-behaviour", "location_type": "Force", "location": {"latitude": "53.414328", "street": {"id": 1718454, "name": "On or near Castledine Gardens"}, "longitude": "-1.422162"}, "context": "", "outcome_status": null, "persistent_id": "", "id": 113994180, "location_subtype": "", "month": "2023-10"}, {"category": "anti-social-behaviour", "location_type": "Force", "location": {"latitude": "53.348587", "street": {"id": 1718930, "name": "On or near Quarry Vale Grove"}, "longitude": "-1.413407"}, "context": "", "outcome_status": null, "persistent_id": "", "id": 113994183, "location_subtype": "", "month": "2023-10"}, {"category": "anti-social-behaviour", "location_type": "Force", "location": {"latitude": "53.418850", "street": {"id": 1721974, "name": "On or near Brunswick Road"}, "longitude": "-1.340759"}, "context": "", "outcome_status": null, "persistent_id": "", "id": 113994193, "location_subtype": "", "month": "2023-10"}, {"category": "anti-social-behaviour", "location_type": "Force", "location": {"latitude": "53.435099", "street": {"id": 1722582, "name": "On or near South Crescent"}, "longitude": "-1.324115"}, "context": "", "outcome_status": null, "persistent_id": "", "id": 113994194, "location_subtype": "", "month": "2023-10"}, {"category": "anti-social-behaviour", "location_type": "Force", "location": {"latitude": "53.414806", "street": {"id": 1716838, "name": "On or near Horninglow Close"}, "longitude": "-1.455060"}, "context": "", "outcome_status": null, "persistent_id": "", "id": 113997232, "location_subtype": "", "month": "2023-10"}, {"category": "anti-social-behaviour", "location_type": "Force", "location": {"latitude": "53.443226", "street": {"id": 1722686, "name": "On or near Petrol Station"}, "longitude": "-1.321261"}, "context": "", "outcome_status": null, "persistent_id": "", "id": 113994195, "location_subtype": "", "month": "2023-10"}, {"category": "anti-social-behaviour", "location_type": "Force", "location": {"latitude": "53.349344", "street": {"id": 1722061, "name": "On or near Elm Road"}, "longitude": "-1.338241"}, "context": "", "outcome_status": null, "persistent_id": "", "id": 113995753, "location_subtype": "", "month": "2023-10"}, {"category": "anti-social-behaviour", "location_type": "Force", "location": {"latitude": "53.419139", "street": {"id": 1715411, "name": "On or near Southey Hall Road"}, "longitude": "-1.473211"}, "context": "", "outcome_status": null, "persistent_id": "", "id": 113997221, "location_subtype": "", "month": "2023-10"}, {"category": "anti-social-behaviour", "location_type": "Force", "location": {"latitude": "53.427917", "street": {"id": 1722043, "name": "On or near Granville Terrace"}, "longitude": "-1.340137"}, "context": "", "outcome_status": null, "persistent_id": "", "id": 113995752, "location_subtype": "", "month": "2023-10"}, {"category": "anti-social-behaviour", "location_type": "Force", "location": {"latitude": "53.428656", "street": {"id": 1721414, "name": "On or near Wellgate Terrace"}, "longitude": "-1.352030"}, "context": "", "outcome_status": null, "persistent_id": "", "id": 113995751, "location_subtype": "", "month": "2023-10"}, {"category": "anti-social-behaviour", "location_type": "Force", "location": {"latitude": "53.380913", "street": {"id": 1715181, "name": "On or near West Street"}, "longitude": "-1.475847"}, "context": "", "outcome_status": null, "persistent_id": "", "id": 114007392, "location_subtype": "", "month": "2023-10"}, {"category": "anti-social-behaviour", "location_type": "Force", "location": {"latitude": "53.412324", "street": {"id": 1718474, "name": "On or near Lincoln Street"}, "longitude": "-1.422159"}, "context": "", "outcome_status": null, "persistent_id": "", "id": 113995742, "location_subtype": "", "month": "2023-10"}, {"category": "anti-social-behaviour", "location_type": "Force", "location": {"latitude": "53.448754", "street": {"id": 1718596, "name": "On or near Keppel Drive"}, "longitude": "-1.418413"}, "context": "", "outcome_status": null, "persistent_id": "", "id": 113995741, "location_subtype": "", "month": "2023-10"}, {"category": "anti-social-behaviour", "location_type": "Force", "location": {"latitude": "53.419655", "street": {"id": 1718235, "name": "On or near Newman Drive"}, "longitude": "-1.426980"}, "context": "", "outcome_status": null, "persistent_id": "", "id": 113995740, "location_subtype": "", "month": "2023-10"}, {"category": "anti-social-behaviour", "location_type": "Force", "location": {"latitude": "53.378234", "street": {"id": 1715232, "name": "On or near Trafalgar Street"}, "longitude": "-1.475820"}, "context": "", "outcome_status": null, "persistent_id": "", "id": 114007391, "location_subtype": "", "month": "2023-10"}, {"category": "anti-social-behaviour", "location_type": "Force", "location": {"latitude": "53.361934", "street": {"id": 1717315, "name": "On or near Framlingham Road"}, "longitude": "-1.447079"}, "context": "", "outcome_status": null, "persistent_id": "", "id": 114001657, "location_subtype": "", "month": "2023-10"}, {"category": "anti-social-behaviour", "location_type": "Force", "location": {"latitude": "53.380631", "street": {"id": 1714174, "name": "On or near Further/higher Educational Building"}, "longitude": "-1.487396"}, "context": "", "outcome_status": null, "persistent_id": "", "id": 114007385, "location_subtype": "", "month": "2023-10"}, {"category": "anti-social-behaviour", "location_type": "Force", "location": {"latitude": "53.411011", "street": {"id": 1717433, "name": "On or near Hinde House Lane"}, "longitude": "-1.444969"}, "context": "", "outcome_status": null, "persistent_id": "", "id": 114001656, "location_subtype": "", "month": "2023-10"}, {"category": "anti-social-behaviour", "location_type": "Force", "location": {"latitude": "53.391251", "street": {"id": 1715185, "name": "On or near Lancaster Street"}, "longitude": "-1.475976"}, "context": "", "outcome_status": null, "persistent_id": "", "id": 113997220, "location_subtype": "", "month": "2023-10"}, {"category": "anti-social-behaviour", "location_type": "Force", "location": {"latitude": "53.366391", "street": {"id": 1715268, "name": "On or near London Road"}, "longitude": "-1.474748"}, "context": "", "outcome_status": null, "persistent_id": "", "id": 113997219, "location_subtype": "", "month": "2023-10"}, {"category": "anti-social-behaviour", "location_type": "Force", "location": {"latitude": "53.325821", "street": {"id": 1714136, "name": "On or near Reney Road"}, "longitude": "-1.488203"}, "context": "", "outcome_status": null, "persistent_id": "", "id": 114007383, "location_subtype": "", "month": "2023-10"}, {"category": "anti-social-behaviour", "location_type": "Force", "location": {"latitude": "53.433054", "street": {"id": 1721368, "name": "On or near Henry Street"}, "longitude": "-1.354146"}, "context": "", "outcome_status": null, "persistent_id": "", "id": 113995265, "location_subtype": "", "month": "2023-10"}, {"category": "anti-social-behaviour", "location_type": "Force", "location": {"latitude": "53.413328", "street": {"id": 1713914, "name": "On or near Scraith Wood Drive"}, "longitude": "-1.488779"}, "context": "", "outcome_status": null, "persistent_id": "", "id": 114007382, "location_subtype": "", "month": "2023-10"}, {"category": "anti-social-behaviour", "location_type": "Force", "location": {"latitude": "53.477375", "street": {"id": 1713930, "name": "On or near Dowland Court"}, "longitude": "-1.491490"}, "context": "", "outcome_status": null, "persistent_id": "", "id": 114007381, "location_subtype": "", "month": "2023-10"}, {"category": "anti-social-behaviour", "location_type": "Force", "location": {"latitude": "53.374667", "street": {"id": 1715088, "name": "On or near Bishop Street"}, "longitude": "-1.476044"}, "context": "", "outcome_status": null, "persistent_id": "", "id": 113997218, "location_subtype": "", "month": "2023-10"}, {"category": "anti-social-behaviour", "location_type": "Force", "location": {"latitude": "53.391368", "street": {"id": 1720914, "name": "On or near Railway Avenue"}, "longitude": "-1.364852"}, "context": "", "outcome_status": null, "persistent_id": "", "id": 113995263, "location_subtype": "", "month": "2023-10"}, {"category": "anti-social-behaviour", "location_type": "Force", "location": {"latitude": "53.429090", "street": {"id": 1720796, "name": "On or near Providence Street"}, "longitude": "-1.367601"}, "context": "", "outcome_status": null, "persistent_id": "", "id": 113995262, "location_subtype": "", "month": "2023-10"}, {"category": "anti-social-behaviour", "location_type": "Force", "location": {"latitude": "53.384922", "street": {"id": 1715057, "name": "On or near Brocco Lane"}, "longitude": "-1.477798"}, "context": "", "outcome_status": null, "persistent_id": "", "id": 113997215, "location_subtype": "", "month": "2023-10"}, {"category": "anti-social-behaviour", "location_type": "Force", "location": {"latitude": "53.470662", "street": {"id": 1714805, "name": "On or near Mortomley Croft"}, "longitude": "-1.479413"}, "context": "", "outcome_status": null, "persistent_id": "", "id": 113995236, "location_subtype": "", "month": "2023-10"}, {"category": "anti-social-behaviour", "location_type": "Force", "location": {"latitude": "53.380086", "street": {"id": 1714605, "name": "On or near Victoria Street"}, "longitude": "-1.482111"}, "context": "", "outcome_status": null, "persistent_id": "", "id": 113995235, "location_subtype": "", "month": "2023-10"}, {"category": "anti-social-behaviour", "location_type": "Force", "location": {"latitude": "53.385221", "street": {"id": 1713718, "name": "On or near Ivy Drive"}, "longitude": "-1.495144"}, "context": "", "outcome_status": null, "persistent_id": "", "id": 114007380, "location_subtype": "", "month": "2023-10"}, {"category": "anti-social-behaviour", "location_type": "Force", "location": {"latitude": "53.410113", "street": {"id": 1712201, "name": "On or near Luke Lane"}, "longitude": "-1.522033"}, "context": "", "outcome_status": null, "persistent_id": "", "id": 114007377, "location_subtype": "", "month": "2023-10"}, {"category": "anti-social-behaviour", "location_type": "Force", "location": {"latitude": "53.471905", "street": {"id": 1714602, "name": "On or near Mortomley Close"}, "longitude": "-1.481974"}, "context": "", "outcome_status": null, "persistent_id": "", "id": 113995233, "location_subtype": "", "month": "2023-10"}, {"category": "anti-social-behaviour", "location_type": "Force", "location": {"latitude": "53.350509", "street": {"id": 1714321, "name": "On or near Woodseats Mews"}, "longitude": "-1.485159"}, "context": "", "outcome_status": null, "persistent_id": "", "id": 113995232, "location_subtype": "", "month": "2023-10"}, {"category": "anti-social-behaviour", "location_type": "Force", "location": {"latitude": "53.349594", "street": {"id": 1711214, "name": "On or near Ringinglow Road"}, "longitude": "-1.564727"}, "context": "", "outcome_status": null, "persistent_id": "", "id": 114007376, "location_subtype": "", "month": "2023-10"}, {"category": "anti-social-behaviour", "location_type": "Force", "location": {"latitude": "53.422423", "street": {"id": 1723174, "name": "On or near Belcourt Road"}, "longitude": "-1.309660"}, "context": "", "outcome_status": null, "persistent_id": "", "id": 114002737, "location_subtype": "", "month": "2023-10"}, {"category": "anti-social-behaviour", "location_type": "Force", "location": {"latitude": "53.442759", "street": {"id": 1713176, "name": "On or near Norfolk Hill Croft"}, "longitude": "-1.502005"}, "context": "", "outcome_status": null, "persistent_id": "", "id": 113995230, "location_subtype": "", "month": "2023-10"}, {"category": "anti-social-behaviour", "location_type": "Force", "location": {"latitude": "53.438797", "street": {"id": 1722801, "name": "On or near Fretwell Road"}, "longitude": "-1.318532"}, "context": "", "outcome_status": null, "persistent_id": "", "id": 114002736, "location_subtype": "", "month": "2023-10"}, {"category": "anti-social-behaviour", "location_type": "Force", "location": {"latitude": "53.380400", "street": {"id": 1713118, "name": "On or near Hawthorne Mews"}, "longitude": "-1.503093"}, "context": "", "outcome_status": null, "persistent_id": "", "id": 113995229, "location_subtype": "", "month": "2023-10"}, {"category": "anti-social-behaviour", "location_type": "Force", "location": {"latitude": "53.465307", "street": {"id": 1722076, "name": "On or near Bus/coach Station"}, "longitude": "-1.338466"}, "context": "", "outcome_status": null, "persistent_id": "", "id": 114002733, "location_subtype": "", "month": "2023-10"}, {"category": "anti-social-behaviour", "location_type": "Force", "location": {"latitude": "53.482171", "street": {"id": 1710964, "name": "On or near Shopping Area"}, "longitude": "-1.587946"}, "context": "", "outcome_status": null, "persistent_id": "", "id": 114007375, "location_subtype": "", "month": "2023-10"}, {"category": "anti-social-behaviour", "location_type": "Force", "location": {"latitude": "53.364667", "street": {"id": 1722712, "name": "On or near Rose Mead"}, "longitude": "-1.320121"}, "context": "", "outcome_status": null, "persistent_id": "", "id": 114004047, "location_subtype": "", "month": "2023-10"}, {"category": "anti-social-behaviour", "location_type": "Force", "location": {"latitude": "53.363450", "street": {"id": 1718996, "name": "On or near Fishponds Road West"}, "longitude": "-1.410679"}, "context": "", "outcome_status": null, "persistent_id": "", "id": 113994731, "location_subtype": "", "month": "2023-10"}, {"category": "anti-social-behaviour", "location_type": "Force", "location": {"latitude": "53.426713", "street": {"id": 1719420, "name": "On or near Thornton Terrace"}, "longitude": "-1.398111"}, "context": "", "outcome_status": null, "persistent_id": "", "id": 113994733, "location_subtype": "", "month": "2023-10"}, {"category": "anti-social-behaviour", "location_type": "Force", "location": {"latitude": "53.447991", "street": {"id": 1721756, "name": "On or near Rail Mill Way"}, "longitude": "-1.343831"}, "context": "", "outcome_status": null, "persistent_id": "", "id": 114002732, "location_subtype": "", "month": "2023-10"}, {"category": "anti-social-behaviour", "location_type": "Force", "location": {"latitude": "53.381140", "street": {"id": 1713104, "name": "On or near Weston View"}, "longitude": "-1.503716"}, "context": "", "outcome_status": null, "persistent_id": "", "id": 113995228, "location_subtype": "", "month": "2023-10"}, {"category": "anti-social-behaviour", "location_type": "Force", "location": {"latitude": "53.332644", "street": {"id": 1722063, "name": "On or near Holbrook Green"}, "longitude": "-1.338424"}, "context": "", "outcome_status": null, "persistent_id": "", "id": 114004045, "location_subtype": "", "month": "2023-10"}, {"category": "anti-social-behaviour", "location_type": "Force", "location": {"latitude": "53.443541", "street": {"id": 1722743, "name": "On or near Supermarket"}, "longitude": "-1.319167"}, "context": "", "outcome_status": null, "persistent_id": "", "id": 114007420, "location_subtype": "", "month": "2023-10"}, {"category": "anti-social-behaviour", "location_type": "Force", "location": {"latitude": "53.434671", "street": {"id": 1720322, "name": "On or near Oates Close"}, "longitude": "-1.377799"}, "context": "", "outcome_status": null, "persistent_id": "", "id": 113994735, "location_subtype": "", "month": "2023-10"}, {"category": "anti-social-behaviour", "location_type": "Force", "location": {"latitude": "53.370853", "street": {"id": 1720506, "name": "On or near Malon Way"}, "longitude": "-1.374716"}, "context": "", "outcome_status": null, "persistent_id": "", "id": 113994737, "location_subtype": "", "month": "2023-10"}, {"category": "anti-social-behaviour", "location_type": "Force", "location": {"latitude": "53.320790", "street": {"id": 1721828, "name": "On or near Deepwell Bank"}, "longitude": "-1.343757"}, "context": "", "outcome_status": null, "persistent_id": "", "id": 113994743, "location_subtype": "", "month": "2023-10"}, {"category": "anti-social-behaviour", "location_type": "Force", "location": {"latitude": "53.351211", "street": {"id": 1717745, "name": "On or near Sands Close"}, "longitude": "-1.439586"}, "context": "", "outcome_status": null, "persistent_id": "", "id": 114001167, "location_subtype": "", "month": "2023-10"}, {"category": "anti-social-behaviour", "location_type": "Force", "location": {"latitude": "53.443721", "street": {"id": 1719675, "name": "On or near Bower Close"}, "longitude": "-1.393098"}, "context": "", "outcome_status": null, "persistent_id": "", "id": 113996201, "location_subtype": "", "month": "2023-10"}, {"category": "anti-social-behaviour", "location_type": "Force", "location": {"latitude": "53.450924", "street": {"id": 1719855, "name": "On or near Teesdale Road"}, "longitude": "-1.388403"}, "context": "", "outcome_status": null, "persistent_id": "", "id": 113996202, "location_subtype": "", "month": "2023-10"}, {"category": "anti-social-behaviour", "location_type": "Force", "location": {"latitude": "53.427168", "street": {"id": 1721838, "name": "On or near Old Clifton Lane"}, "longitude": "-1.344648"}, "context": "", "outcome_status": null, "persistent_id": "", "id": 114007416, "location_subtype": "", "month": "2023-10"}, {"category": "anti-social-behaviour", "location_type": "Force", "location": {"latitude": "53.389639", "street": {"id": 1716737, "name": "On or near Supermarket"}, "longitude": "-1.457193"}, "context": "", "outcome_status": null, "persistent_id": "", "id": 114004016, "location_subtype": "", "month": "2023-10"}, {"category": "anti-social-behaviour", "location_type": "Force", "location": {"latitude": "53.341144", "street": {"id": 1721291, "name": "On or near Purbeck Court"}, "longitude": "-1.355910"}, "context": "", "outcome_status": null, "persistent_id": "", "id": 114007413, "location_subtype": "", "month": "2023-10"}, {"category": "anti-social-behaviour", "location_type": "Force", "location": {"latitude": "53.344307", "street": {"id": 1721226, "name": "On or near Shopping Area"}, "longitude": "-1.357183"}, "context": "", "outcome_status": null, "persistent_id": "", "id": 114007412, "location_subtype": "", "month": "2023-10"}, {"category": "anti-social-behaviour", "location_type": "Force", "location": {"latitude": "53.473415", "street": {"id": 1720999, "name": "On or near Durnan Grove"}, "longitude": "-1.363040"}, "context": "", "outcome_status": null, "persistent_id": "", "id": 114007411, "location_subtype": "", "month": "2023-10"}, {"category": "anti-social-behaviour", "location_type": "Force", "location": {"latitude": "53.409463", "street": {"id": 1722220, "name": "On or near Whiston Grange"}, "longitude": "-1.335398"}, "context": "", "outcome_status": null, "persistent_id": "", "id": 113994744, "location_subtype": "", "month": "2023-10"}, {"category": "anti-social-behaviour", "location_type": "Force", "location": {"latitude": "53.439521", "street": {"id": 1722261, "name": "On or near Bus/coach Station"}, "longitude": "-1.332051"}, "context": "", "outcome_status": null, "persistent_id": "", "id": 113994745, "location_subtype": "", "month": "2023-10"}, {"category": "anti-social-behaviour", "location_type": "Force", "location": {"latitude": "53.440177", "street": {"id": 1722410, "name": "On or near Oak Meadows"}, "longitude": "-1.327196"}, "context": "", "outcome_status": null, "persistent_id": "", "id": 113994746, "location_subtype": "", "month": "2023-10"}, {"category": "anti-social-behaviour", "location_type": "Force", "location": {"latitude": "53.386771", "street": {"id": 1718619, "name": "On or near Locke Drive"}, "longitude": "-1.418972"}, "context": "", "outcome_status": null, "persistent_id": "", "id": 114007405, "location_subtype": "", "month": "2023-10"}, {"category": "anti-social-behaviour", "location_type": "Force", "location": {"latitude": "53.412526", "street": {"id": 1716980, "name": "On or near Mortlake Road"}, "longitude": "-1.451719"}, "context": "", "outcome_status": null, "persistent_id": "", "id": 114004017, "location_subtype": "", "month": "2023-10"}, {"category": "anti-social-behaviour", "location_type": "Force", "location": {"latitude": "53.389272", "street": {"id": 1718346, "name": "On or near Garth Close"}, "longitude": "-1.424983"}, "context": "", "outcome_status": null, "persistent_id": "", "id": 114007404, "location_subtype": "", "month": "2023-10"}, {"category": "anti-social-behaviour", "location_type": "Force", "location": {"latitude": "53.351211", "street": {"id": 1717745, "name": "On or near Sands Close"}, "longitude": "-1.439586"}, "context": "", "outcome_status": null, "persistent_id": "", "id": 114007402, "location_subtype": "", "month": "2023-10"}, {"category": "anti-social-behaviour", "location_type": "Force", "location": {"latitude": "53.419362", "street": {"id": 1718118, "name": "On or near Jepson Road"}, "longitude": "-1.429693"}, "context": "", "outcome_status": null, "persistent_id": "", "id": 114002720, "location_subtype": "", "month": "2023-10"}, {"category": "anti-social-behaviour", "location_type": "Force", "location": {"latitude": "53.423116", "street": {"id": 1722502, "name": "On or near Beaumont Drive"}, "longitude": "-1.327180"}, "context": "", "outcome_status": null, "persistent_id": "", "id": 114007005, "location_subtype": "", "month": "2023-10"}, {"category": "anti-social-behaviour", "location_type": "Force", "location": {"latitude": "53.429232", "street": {"id": 1721762, "name": "On or near Parkfield Road"}, "longitude": "-1.344015"}, "context": "", "outcome_status": null, "persistent_id": "", "id": 114007004, "location_subtype": "", "month": "2023-10"}, {"category": "anti-social-behaviour", "location_type": "Force", "location": {"latitude": "53.436614", "street": {"id": 1720345, "name": "On or near Copley Place"}, "longitude": "-1.378071"}, "context": "", "outcome_status": null, "persistent_id": "", "id": 114007003, "location_subtype": "", "month": "2023-10"}, {"category": "anti-social-behaviour", "location_type": "Force", "location": {"latitude": "53.385970", "street": {"id": 1716859, "name": "On or near Cutlers Gate"}, "longitude": "-1.454841"}, "context": "", "outcome_status": null, "persistent_id": "", "id": 114004018, "location_subtype": "", "month": "2023-10"}, {"category": "anti-social-behaviour", "location_type": "Force", "location": {"latitude": "53.412957", "street": {"id": 1715501, "name": "On or near Parking Area"}, "longitude": "-1.471542"}, "context": "", "outcome_status": null, "persistent_id": "", "id": 114004575, "location_subtype": "", "month": "2023-10"}, {"category": "anti-social-behaviour", "location_type": "Force", "location": {"latitude": "53.406812", "street": {"id": 1717027, "name": "On or near Skinnerthorpe Road"}, "longitude": "-1.452424"}, "context": "", "outcome_status": null, "persistent_id": "", "id": 114004019, "location_subtype": "", "month": "2023-10"}, {"category": "anti-social-behaviour", "location_type": "Force", "location": {"latitude": "53.350975", "street": {"id": 1717459, "name": "On or near Spotswood Close"}, "longitude": "-1.444847"}, "context": "", "outcome_status": null, "persistent_id": "", "id": 114001166, "location_subtype": "", "month": "2023-10"}, {"category": "anti-social-behaviour", "location_type": "Force", "location": {"latitude": "53.346548", "street": {"id": 1720208, "name": "On or near Cotleigh Road"}, "longitude": "-1.379938"}, "context": "", "outcome_status": null, "persistent_id": "", "id": 114007002, "location_subtype": "", "month": "2023-10"}, {"category": "anti-social-behaviour", "location_type": "Force", "location": {"latitude": "53.348396", "street": {"id": 1720010, "name": "On or near Dyke Vale Way"}, "longitude": "-1.384373"}, "context": "", "outcome_status": null, "persistent_id": "", "id": 113996203, "location_subtype": "", "month": "2023-10"}, {"category": "anti-social-behaviour", "location_type": "Force", "location": {"latitude": "53.407898", "street": {"id": 1719952, "name": "On or near Ackworth Drive"}, "longitude": "-1.385560"}, "context": "", "outcome_status": null, "persistent_id": "", "id": 114007000, "location_subtype": "", "month": "2023-10"}, {"category": "anti-social-behaviour", "location_type": "Force", "location": {"latitude": "53.386174", "street": {"id": 1713696, "name": "On or near Barber Road"}, "longitude": "-1.495268"}, "context": "", "outcome_status": null, "persistent_id": "", "id": 114006977, "location_subtype": "", "month": "2023-10"}, {"category": "anti-social-behaviour", "location_type": "Force", "location": {"latitude": "53.380892", "street": {"id": 1713349, "name": "On or near Embankment Road"}, "longitude": "-1.500337"}, "context": "", "outcome_status": null, "persistent_id": "", "id": 114006976, "location_subtype": "", "month": "2023-10"}, {"category": "anti-social-behaviour", "location_type": "Force", "location": {"latitude": "53.430916", "street": {"id": 1713168, "name": "On or near Edge Lane"}, "longitude": "-1.502896"}, "context": "", "outcome_status": null, "persistent_id": "", "id": 114006975, "location_subtype": "", "month": "2023-10"}, {"category": "anti-social-behaviour", "location_type": "Force", "location": {"latitude": "53.411050", "street": {"id": 1717186, "name": "On or near Bolsover Road"}, "longitude": "-1.449346"}, "context": "", "outcome_status": null, "persistent_id": "", "id": 114001160, "location_subtype": "", "month": "2023-10"}, {"category": "anti-social-behaviour", "location_type": "Force", "location": {"latitude": "53.371932", "street": {"id": 1719003, "name": "On or near Saxonlea Court"}, "longitude": "-1.411884"}, "context": "", "outcome_status": null, "persistent_id": "", "id": 114004032, "location_subtype": "", "month": "2023-10"}, {"category": "anti-social-behaviour", "location_type": "Force", "location": {"latitude": "53.409279", "street": {"id": 1713026, "name": "On or near Shepperson Road"}, "longitude": "-1.504833"}, "context": "", "outcome_status": null, "persistent_id": "", "id": 114006974, "location_subtype": "", "month": "2023-10"}, {"category": "anti-social-behaviour", "location_type": "Force", "location": {"latitude": "53.368026", "street": {"id": 1718936, "name": "On or near Angleton Gardens"}, "longitude": "-1.412795"}, "context": "", "outcome_status": null, "persistent_id": "", "id": 114004033, "location_subtype": "", "month": "2023-10"}, {"category": "anti-social-behaviour", "location_type": "Force", "location": {"latitude": "53.420312", "street": {"id": 1714920, "name": "On or near Northlands Road"}, "longitude": "-1.478267"}, "context": "", "outcome_status": null, "persistent_id": "", "id": 114002189, "location_subtype": "", "month": "2023-10"}, {"category": "anti-social-behaviour", "location_type": "Force", "location": {"latitude": "53.405171", "street": {"id": 1711615, "name": "On or near The Chase"}, "longitude": "-1.538484"}, "context": "", "outcome_status": null, "persistent_id": "", "id": 113996657, "location_subtype": "", "month": "2023-10"}, {"category": "anti-social-behaviour", "location_type": "Force", "location": {"latitude": "53.321107", "street": {"id": 1712205, "name": "On or near West View Lane"}, "longitude": "-1.522127"}, "context": "", "outcome_status": null, "persistent_id": "", "id": 113996658, "location_subtype": "", "month": "2023-10"}, {"category": "anti-social-behaviour", "location_type": "Force", "location": {"latitude": "53.324609", "street": {"id": 1711494, "name": "On or near Overdale Rise"}, "longitude": "-1.544203"}, "context": "", "outcome_status": null, "persistent_id": "", "id": 113997202, "location_subtype": "", "month": "2023-10"}, {"category": "anti-social-behaviour", "location_type": "Force", "location": {"latitude": "53.372528", "street": {"id": 1711307, "name": "On or near Westminster Crescent"}, "longitude": "-1.553641"}, "context": "", "outcome_status": null, "persistent_id": "", "id": 113997200, "location_subtype": "", "month": "2023-10"}, {"category": "anti-social-behaviour", "location_type": "Force", "location": {"latitude": "53.380743", "street": {"id": 1712825, "name": "On or near Nairn Street"}, "longitude": "-1.507795"}, "context": "", "outcome_status": null, "persistent_id": "", "id": 113996659, "location_subtype": "", "month": "2023-10"}, {"category": "anti-social-behaviour", "location_type": "Force", "location": {"latitude": "53.380410", "street": {"id": 1714786, "name": "On or near Charlotte Lane"}, "longitude": "-1.480093"}, "context": "", "outcome_status": null, "persistent_id": "", "id": 114003994, "location_subtype": "", "month": "2023-10"}, {"category": "anti-social-behaviour", "location_type": "Force", "location": {"latitude": "53.351261", "street": {"id": 1719213, "name": "On or near Longstone Crescent"}, "longitude": "-1.407001"}, "context": "", "outcome_status": null, "persistent_id": "", "id": 114004593, "location_subtype": "", "month": "2023-10"}, {"category": "anti-social-behaviour", "location_type": "Force", "location": {"latitude": "53.351850", "street": {"id": 1713134, "name": "On or near Springfield Avenue"}, "longitude": "-1.502479"}, "context": "", "outcome_status": null, "persistent_id": "", "id": 113996660, "location_subtype": "", "month": "2023-10"}, {"category": "anti-social-behaviour", "location_type": "Force", "location": {"latitude": "53.383967", "street": {"id": 1714316, "name": "On or near Weston Street"}, "longitude": "-1.485793"}, "context": "", "outcome_status": null, "persistent_id": "", "id": 114003991, "location_subtype": "", "month": "2023-10"}, {"category": "anti-social-behaviour", "location_type": "Force", "location": {"latitude": "53.428522", "street": {"id": 1713229, "name": "On or near Sports/recreation Area"}, "longitude": "-1.500754"}, "context": "", "outcome_status": null, "persistent_id": "", "id": 113996661, "location_subtype": "", "month": "2023-10"}, {"category": "anti-social-behaviour", "location_type": "Force", "location": {"latitude": "53.423900", "street": {"id": 1713363, "name": "On or near Winsford Road"}, "longitude": "-1.499562"}, "context": "", "outcome_status": null, "persistent_id": "", "id": 114003990, "location_subtype": "", "month": "2023-10"}, {"category": "anti-social-behaviour", "location_type": "Force", "location": {"latitude": "53.401411", "street": {"id": 1713310, "name": "On or near Forbes Road"}, "longitude": "-1.499705"}, "context": "", "outcome_status": null, "persistent_id": "", "id": 113996662, "location_subtype": "", "month": "2023-10"}, {"category": "anti-social-behaviour", "location_type": "Force", "location": {"latitude": "53.417540", "street": {"id": 1722919, "name": "On or near Sitwell Park Road"}, "longitude": "-1.315486"}, "context": "", "outcome_status": null, "persistent_id": "", "id": 113996715, "location_subtype": "", "month": "2023-10"}, {"category": "anti-social-behaviour", "location_type": "Force", "location": {"latitude": "53.435327", "street": {"id": 1721773, "name": "On or near Cottenham Road"}, "longitude": "-1.344071"}, "context": "", "outcome_status": null, "persistent_id": "", "id": 113996710, "location_subtype": "", "month": "2023-10"}, {"category": "anti-social-behaviour", "location_type": "Force", "location": {"latitude": "53.436565", "street": {"id": 1721739, "name": "On or near Petrol Station"}, "longitude": "-1.346852"}, "context": "", "outcome_status": null, "persistent_id": "", "id": 113996708, "location_subtype": "", "month": "2023-10"}, {"category": "anti-social-behaviour", "location_type": "Force", "location": {"latitude": "53.436626", "street": {"id": 1721578, "name": "On or near Lindley Street"}, "longitude": "-1.349817"}, "context": "", "outcome_status": null, "persistent_id": "", "id": 113996707, "location_subtype": "", "month": "2023-10"}, {"category": "anti-social-behaviour", "location_type": "Force", "location": {"latitude": "53.333467", "street": {"id": 1721322, "name": "On or near Westland Close"}, "longitude": "-1.354149"}, "context": "", "outcome_status": null, "persistent_id": "", "id": 113996706, "location_subtype": "", "month": "2023-10"}, {"category": "anti-social-behaviour", "location_type": "Force", "location": {"latitude": "53.344307", "street": {"id": 1721226, "name": "On or near Shopping Area"}, "longitude": "-1.357183"}, "context": "", "outcome_status": null, "persistent_id": "", "id": 113996704, "location_subtype": "", "month": "2023-10"}, {"category": "anti-social-behaviour", "location_type": "Force", "location": {"latitude": "53.328163", "street": {"id": 1720899, "name": "On or near High Street Mews"}, "longitude": "-1.365715"}, "context": "", "outcome_status": null, "persistent_id": "", "id": 113996703, "location_subtype": "", "month": "2023-10"}, {"category": "anti-social-behaviour", "location_type": "Force", "location": {"latitude": "53.430066", "street": {"id": 1720224, "name": "On or near Ferham Road"}, "longitude": "-1.378844"}, "context": "", "outcome_status": null, "persistent_id": "", "id": 113996700, "location_subtype": "", "month": "2023-10"}, {"category": "anti-social-behaviour", "location_type": "Force", "location": {"latitude": "53.467644", "street": {"id": 1713784, "name": "On or near Smithey Close"}, "longitude": "-1.492420"}, "context": "", "outcome_status": null, "persistent_id": "", "id": 113996664, "location_subtype": "", "month": "2023-10"}, {"category": "anti-social-behaviour", "location_type": "Force", "location": {"latitude": "53.415556", "street": {"id": 1716704, "name": "On or near Barnsley Road"}, "longitude": "-1.455968"}, "context": "", "outcome_status": null, "persistent_id": "", "id": 113996682, "location_subtype": "", "month": "2023-10"}, {"category": "anti-social-behaviour", "location_type": "Force", "location": {"latitude": "53.363263", "street": {"id": 1712789, "name": "On or near Petrol Station"}, "longitude": "-1.508477"}, "context": "", "outcome_status": null, "persistent_id": "", "id": 114003985, "location_subtype": "", "month": "2023-10"}, {"category": "anti-social-behaviour", "location_type": "Force", "location": {"latitude": "53.411735", "street": {"id": 1717136, "name": "On or near Lindley Road"}, "longitude": "-1.449758"}, "context": "", "outcome_status": null, "persistent_id": "", "id": 113996683, "location_subtype": "", "month": "2023-10"}, {"category": "anti-social-behaviour", "location_type": "Force", "location": {"latitude": "53.457510", "street": {"id": 1717252, "name": "On or near Hesley Bar"}, "longitude": "-1.443158"}, "context": "", "outcome_status": null, "persistent_id": "", "id": 113996687, "location_subtype": "", "month": "2023-10"}, {"category": "anti-social-behaviour", "location_type": "Force", "location": {"latitude": "53.389544", "street": {"id": 1718540, "name": "On or near Flaxby Road"}, "longitude": "-1.419836"}, "context": "", "outcome_status": null, "persistent_id": "", "id": 113996688, "location_subtype": "", "month": "2023-10"}, {"category": "anti-social-behaviour", "location_type": "Force", "location": {"latitude": "53.329471", "street": {"id": 1712214, "name": "On or near Ryecroft Glen Road"}, "longitude": "-1.520982"}, "context": "", "outcome_status": null, "persistent_id": "", "id": 113996170, "location_subtype": "", "month": "2023-10"}, {"category": "anti-social-behaviour", "location_type": "Force", "location": {"latitude": "53.418565", "street": {"id": 1715783, "name": "On or near Piper Crescent"}, "longitude": "-1.469351"}, "context": "", "outcome_status": null, "persistent_id": "", "id": 114002193, "location_subtype": "", "month": "2023-10"}, {"category": "anti-social-behaviour", "location_type": "Force", "location": {"latitude": "53.417054", "street": {"id": 1715610, "name": "On or near Southey Avenue"}, "longitude": "-1.471190"}, "context": "", "outcome_status": null, "persistent_id": "", "id": 114002192, "location_subtype": "", "month": "2023-10"}, {"category": "anti-social-behaviour", "location_type": "Force", "location": {"latitude": "53.366391", "street": {"id": 1715268, "name": "On or near London Road"}, "longitude": "-1.474748"}, "context": "", "outcome_status": null, "persistent_id": "", "id": 114002191, "location_subtype": "", "month": "2023-10"}, {"category": "anti-social-behaviour", "location_type": "Force", "location": {"latitude": "53.355020", "street": {"id": 1716996, "name": "On or near Callow Mount"}, "longitude": "-1.452682"}, "context": "", "outcome_status": null, "persistent_id": "", "id": 114003132, "location_subtype": "", "month": "2023-10"}, {"category": "anti-social-behaviour", "location_type": "Force", "location": {"latitude": "53.408120", "street": {"id": 1716566, "name": "On or near Smilter Lane"}, "longitude": "-1.457356"}, "context": "", "outcome_status": null, "persistent_id": "", "id": 114005609, "location_subtype": "", "month": "2023-10"}, {"category": "anti-social-behaviour", "location_type": "Force", "location": {"latitude": "53.416771", "street": {"id": 1717189, "name": "On or near Parking Area"}, "longitude": "-1.448429"}, "context": "", "outcome_status": null, "persistent_id": "", "id": 114005610, "location_subtype": "", "month": "2023-10"}, {"category": "anti-social-behaviour", "location_type": "Force", "location": {"latitude": "53.410032", "street": {"id": 1717426, "name": "On or near Lauder Street"}, "longitude": "-1.444951"}, "context": "", "outcome_status": null, "persistent_id": "", "id": 114005611, "location_subtype": "", "month": "2023-10"}, {"category": "anti-social-behaviour", "location_type": "Force", "location": {"latitude": "53.368807", "street": {"id": 1717555, "name": "On or near St Aidan's Way"}, "longitude": "-1.442496"}, "context": "", "outcome_status": null, "persistent_id": "", "id": 114005612, "location_subtype": "", "month": "2023-10"}, {"category": "anti-social-behaviour", "location_type": "Force", "location": {"latitude": "53.313735", "street": {"id": 2221211, "name": "On or near Mossbrook Court"}, "longitude": "-1.348893"}, "context": "", "outcome_status": null, "persistent_id": "", "id": 113786839, "location_subtype": "", "month": "2023-10"}, {"category": "anti-social-behaviour", "location_type": "Force", "location": {"latitude": "53.359395", "street": {"id": 1717670, "name": "On or near Errington Crescent"}, "longitude": "-1.440440"}, "context": "", "outcome_status": null, "persistent_id": "", "id": 114005613, "location_subtype": "", "month": "2023-10"}, {"category": "anti-social-behaviour", "location_type": "Force", "location": {"latitude": "53.480984", "street": {"id": 1718113, "name": "On or near Barrow Hill"}, "longitude": "-1.428867"}, "context": "", "outcome_status": null, "persistent_id": "", "id": 114005614, "location_subtype": "", "month": "2023-10"}, {"category": "anti-social-behaviour", "location_type": "Force", "location": {"latitude": "53.313735", "street": {"id": 2221211, "name": "On or near Mossbrook Court"}, "longitude": "-1.348893"}, "context": "", "outcome_status": null, "persistent_id": "", "id": 113786793, "location_subtype": "", "month": "2023-10"}, {"category": "anti-social-behaviour", "location_type": "Force", "location": {"latitude": "53.361726", "street": {"id": 1717969, "name": "On or near Dagnam Road"}, "longitude": "-1.433347"}, "context": "", "outcome_status": null, "persistent_id": "", "id": 114005615, "location_subtype": "", "month": "2023-10"}, {"category": "anti-social-behaviour", "location_type": "Force", "location": {"latitude": "53.366072", "street": {"id": 1718446, "name": "On or near Queen Mary Road"}, "longitude": "-1.423026"}, "context": "", "outcome_status": null, "persistent_id": "", "id": 114005616, "location_subtype": "", "month": "2023-10"}, {"category": "anti-social-behaviour", "location_type": "Force", "location": {"latitude": "53.374266", "street": {"id": 1718777, "name": "On or near Sheffield Parkway Services"}, "longitude": "-1.414888"}, "context": "", "outcome_status": null, "persistent_id": "", "id": 114005617, "location_subtype": "", "month": "2023-10"}, {"category": "anti-social-behaviour", "location_type": "Force", "location": {"latitude": "53.353676", "street": {"id": 1718744, "name": "On or near Alnwick Drive"}, "longitude": "-1.415546"}, "context": "", "outcome_status": null, "persistent_id": "", "id": 114005618, "location_subtype": "", "month": "2023-10"}, {"category": "anti-social-behaviour", "location_type": "Force", "location": {"latitude": "53.383871", "street": {"id": 1719359, "name": "On or near High Hazels Mead"}, "longitude": "-1.401316"}, "context": "", "outcome_status": null, "persistent_id": "", "id": 114005622, "location_subtype": "", "month": "2023-10"}, {"category": "anti-social-behaviour", "location_type": "Force", "location": {"latitude": "53.362896", "street": {"id": 1714676, "name": "On or near Steade Road"}, "longitude": "-1.481102"}, "context": "", "outcome_status": null, "persistent_id": "", "id": 114003120, "location_subtype": "", "month": "2023-10"}, {"category": "anti-social-behaviour", "location_type": "Force", "location": {"latitude": "53.453640", "street": {"id": 1719676, "name": "On or near Town Lane"}, "longitude": "-1.392385"}, "context": "", "outcome_status": null, "persistent_id": "", "id": 114005623, "location_subtype": "", "month": "2023-10"}, {"category": "anti-social-behaviour", "location_type": "Force", "location": {"latitude": "53.308804", "street": {"id": 2219357, "name": "On or near Ford Road"}, "longitude": "-1.392161"}, "context": "", "outcome_status": null, "persistent_id": "", "id": 113787177, "location_subtype": "", "month": "2023-10"}, {"category": "anti-social-behaviour", "location_type": "Force", "location": {"latitude": "53.348396", "street": {"id": 1720010, "name": "On or near Dyke Vale Way"}, "longitude": "-1.384373"}, "context": "", "outcome_status": null, "persistent_id": "", "id": 114005624, "location_subtype": "", "month": "2023-10"}, {"category": "anti-social-behaviour", "location_type": "Force", "location": {"latitude": "53.310136", "street": {"id": 2220474, "name": "On or near Springfield Close"}, "longitude": "-1.369990"}, "context": "", "outcome_status": null, "persistent_id": "", "id": 113787224, "location_subtype": "", "month": "2023-10"}, {"category": "anti-social-behaviour", "location_type": "Force", "location": {"latitude": "53.416522", "street": {"id": 1718912, "name": "On or near Meadowhall Interchange"}, "longitude": "-1.413015"}, "context": "", "outcome_status": null, "persistent_id": "", "id": 114003536, "location_subtype": "", "month": "2023-10"}, {"category": "anti-social-behaviour", "location_type": "Force", "location": {"latitude": "53.367155", "street": {"id": 1712669, "name": "On or near Stainton Road"}, "longitude": "-1.510671"}, "context": "", "outcome_status": null, "persistent_id": "", "id": 113996172, "location_subtype": "", "month": "2023-10"}, {"category": "anti-social-behaviour", "location_type": "Force", "location": {"latitude": "53.416269", "street": {"id": 1718005, "name": "On or near Orchid Crescent"}, "longitude": "-1.433300"}, "context": "", "outcome_status": null, "persistent_id": "", "id": 114004028, "location_subtype": "", "month": "2023-10"}, {"category": "anti-social-behaviour", "location_type": "Force", "location": {"latitude": "53.401613", "street": {"id": 1712902, "name": "On or near Wood Road"}, "longitude": "-1.507344"}, "context": "", "outcome_status": null, "persistent_id": "", "id": 113996173, "location_subtype": "", "month": "2023-10"}, {"category": "anti-social-behaviour", "location_type": "Force", "location": {"latitude": "53.356009", "street": {"id": 1712542, "name": "On or near Weetwood Drive"}, "longitude": "-1.512812"}, "context": "", "outcome_status": null, "persistent_id": "", "id": 113996171, "location_subtype": "", "month": "2023-10"}, {"category": "anti-social-behaviour", "location_type": "Force", "location": {"latitude": "53.322555", "street": {"id": 1715316, "name": "On or near Chesterfield Road South"}, "longitude": "-1.473049"}, "context": "", "outcome_status": null, "persistent_id": "", "id": 114006111, "location_subtype": "", "month": "2023-10"}, {"category": "anti-social-behaviour", "location_type": "Force", "location": {"latitude": "53.401758", "street": {"id": 1715766, "name": "On or near High View"}, "longitude": "-1.469680"}, "context": "", "outcome_status": null, "persistent_id": "", "id": 114006112, "location_subtype": "", "month": "2023-10"}, {"category": "anti-social-behaviour", "location_type": "Force", "location": {"latitude": "53.357462", "street": {"id": 1713459, "name": "On or near Brentwood Road"}, "longitude": "-1.496960"}, "context": "", "outcome_status": null, "persistent_id": "", "id": 113993646, "location_subtype": "", "month": "2023-10"}, {"category": "anti-social-behaviour", "location_type": "Force", "location": {"latitude": "53.393784", "street": {"id": 1715932, "name": "On or near Gray Street"}, "longitude": "-1.467434"}, "context": "", "outcome_status": null, "persistent_id": "", "id": 114006113, "location_subtype": "", "month": "2023-10"}, {"category": "anti-social-behaviour", "location_type": "Force", "location": {"latitude": "53.344775", "street": {"id": 1718233, "name": "On or near Herdings Road"}, "longitude": "-1.428060"}, "context": "", "outcome_status": null, "persistent_id": "", "id": 114004029, "location_subtype": "", "month": "2023-10"}, {"category": "anti-social-behaviour", "location_type": "Force", "location": {"latitude": "53.309478", "street": {"id": 2221025, "name": "On or near Supermarket"}, "longitude": "-1.357835"}, "context": "", "outcome_status": null, "persistent_id": "", "id": 113787225, "location_subtype": "", "month": "2023-10"}, {"category": "anti-social-behaviour", "location_type": "Force", "location": {"latitude": "53.382912", "street": {"id": 1716031, "name": "On or near High Street"}, "longitude": "-1.466381"}, "context": "", "outcome_status": null, "persistent_id": "", "id": 114006114, "location_subtype": "", "month": "2023-10"}, {"category": "anti-social-behaviour", "location_type": "Force", "location": {"latitude": "53.422755", "street": {"id": 1718564, "name": "On or near Elmview Road"}, "longitude": "-1.419309"}, "context": "", "outcome_status": null, "persistent_id": "", "id": 114004030, "location_subtype": "", "month": "2023-10"}, {"category": "anti-social-behaviour", "location_type": "Force", "location": {"latitude": "53.312056", "street": {"id": 2220975, "name": "On or near Camms Close"}, "longitude": "-1.357534"}, "context": "", "outcome_status": null, "persistent_id": "", "id": 113787458, "location_subtype": "", "month": "2023-10"}, {"category": "anti-social-behaviour", "location_type": "Force", "location": {"latitude": "53.349276", "street": {"id": 1719303, "name": "On or near Brushfield Grove"}, "longitude": "-1.405601"}, "context": "", "outcome_status": null, "persistent_id": "", "id": 114004036, "location_subtype": "", "month": "2023-10"}, {"category": "anti-social-behaviour", "location_type": "Force", "location": {"latitude": "53.398915", "street": {"id": 1716126, "name": "On or near Burngrove Place"}, "longitude": "-1.465264"}, "context": "", "outcome_status": null, "persistent_id": "", "id": 114006115, "location_subtype": "", "month": "2023-10"}, {"category": "anti-social-behaviour", "location_type": "Force", "location": {"latitude": "53.402244", "street": {"id": 1716171, "name": "On or near Orphanage Road"}, "longitude": "-1.463793"}, "context": "", "outcome_status": null, "persistent_id": "", "id": 114006116, "location_subtype": "", "month": "2023-10"}, {"category": "anti-social-behaviour", "location_type": "Force", "location": {"latitude": "53.383533", "street": {"id": 1716196, "name": "On or near King Street"}, "longitude": "-1.464585"}, "context": "", "outcome_status": null, "persistent_id": "", "id": 114006117, "location_subtype": "", "month": "2023-10"}, {"category": "anti-social-behaviour", "location_type": "Force", "location": {"latitude": "53.319721", "street": {"id": 1721014, "name": "On or near Gashouse Lane"}, "longitude": "-1.361982"}, "context": "", "outcome_status": null, "persistent_id": "", "id": 113787858, "location_subtype": "", "month": "2023-10"}, {"category": "anti-social-behaviour", "location_type": "Force", "location": {"latitude": "53.381892", "street": {"id": 1716577, "name": "On or near Anson Street"}, "longitude": "-1.459464"}, "context": "", "outcome_status": null, "persistent_id": "", "id": 114006118, "location_subtype": "", "month": "2023-10"}, {"category": "anti-social-behaviour", "location_type": "Force", "location": {"latitude": "53.348665", "street": {"id": 1719412, "name": "On or near Heathfield Road"}, "longitude": "-1.401990"}, "context": "", "outcome_status": null, "persistent_id": "", "id": 114004037, "location_subtype": "", "month": "2023-10"}, {"category": "anti-social-behaviour", "location_type": "Force", "location": {"latitude": "53.381140", "street": {"id": 1713104, "name": "On or near Weston View"}, "longitude": "-1.503716"}, "context": "", "outcome_status": null, "persistent_id": "", "id": 113996174, "location_subtype": "", "month": "2023-10"}, {"category": "anti-social-behaviour", "location_type": "Force", "location": {"latitude": "53.377279", "street": {"id": 1716573, "name": "On or near Claywood Drive"}, "longitude": "-1.459101"}, "context": "", "outcome_status": null, "persistent_id": "", "id": 114006119, "location_subtype": "", "month": "2023-10"}, {"category": "anti-social-behaviour", "location_type": "Force", "location": {"latitude": "53.431487", "street": {"id": 1716563, "name": "On or near High Greave"}, "longitude": "-1.458654"}, "context": "", "outcome_status": null, "persistent_id": "", "id": 114006120, "location_subtype": "", "month": "2023-10"}, {"category": "anti-social-behaviour", "location_type": "Force", "location": {"latitude": "53.400139", "street": {"id": 1720429, "name": "On or near Brinsworth Hall Grove"}, "longitude": "-1.374723"}, "context": "", "outcome_status": null, "persistent_id": "", "id": 114004042, "location_subtype": "", "month": "2023-10"}, {"category": "anti-social-behaviour", "location_type": "Force", "location": {"latitude": "53.394162", "street": {"id": 1712985, "name": "On or near Parking Area"}, "longitude": "-1.505279"}, "context": "", "outcome_status": null, "persistent_id": "", "id": 113996175, "location_subtype": "", "month": "2023-10"}, {"category": "anti-social-behaviour", "location_type": "Force", "location": {"latitude": "53.339443", "street": {"id": 1716808, "name": "On or near Backmoor Road"}, "longitude": "-1.452686"}, "context": "", "outcome_status": null, "persistent_id": "", "id": 114006121, "location_subtype": "", "month": "2023-10"}, {"category": "anti-social-behaviour", "location_type": "Force", "location": {"latitude": "53.411735", "street": {"id": 1717136, "name": "On or near Lindley Road"}, "longitude": "-1.449758"}, "context": "", "outcome_status": null, "persistent_id": "", "id": 114006122, "location_subtype": "", "month": "2023-10"}, {"category": "anti-social-behaviour", "location_type": "Force", "location": {"latitude": "53.337414", "street": {"id": 1717024, "name": "On or near Sports/recreation Area"}, "longitude": "-1.450898"}, "context": "", "outcome_status": null, "persistent_id": "", "id": 114006123, "location_subtype": "", "month": "2023-10"}, {"category": "anti-social-behaviour", "location_type": "Force", "location": {"latitude": "53.433892", "street": {"id": 1717718, "name": "On or near Woolley Wood Road"}, "longitude": "-1.438259"}, "context": "", "outcome_status": null, "persistent_id": "", "id": 114006124, "location_subtype": "", "month": "2023-10"}, {"category": "anti-social-behaviour", "location_type": "Force", "location": {"latitude": "53.423900", "street": {"id": 1713363, "name": "On or near Winsford Road"}, "longitude": "-1.499562"}, "context": "", "outcome_status": null, "persistent_id": "", "id": 113996176, "location_subtype": "", "month": "2023-10"}, {"category": "anti-social-behaviour", "location_type": "Force", "location": {"latitude": "53.430797", "street": {"id": 1713714, "name": "On or near Cowper Drive"}, "longitude": "-1.494017"}, "context": "", "outcome_status": null, "persistent_id": "", "id": 113996177, "location_subtype": "", "month": "2023-10"}, {"category": "anti-social-behaviour", "location_type": "Force", "location": {"latitude": "53.410936", "street": {"id": 1715570, "name": "On or near Busk Park"}, "longitude": "-1.471868"}, "context": "", "outcome_status": null, "persistent_id": "", "id": 114005108, "location_subtype": "", "month": "2023-10"}, {"category": "anti-social-behaviour", "location_type": "Force", "location": {"latitude": "53.388957", "street": {"id": 1718272, "name": "On or near Ouseburn Street"}, "longitude": "-1.426776"}, "context": "", "outcome_status": null, "persistent_id": "", "id": 113996197, "location_subtype": "", "month": "2023-10"}, {"category": "anti-social-behaviour", "location_type": "Force", "location": {"latitude": "53.426751", "street": {"id": 1722441, "name": "On or near Longfellow Fold"}, "longitude": "-1.329319"}, "context": "", "outcome_status": null, "persistent_id": "", "id": 114001683, "location_subtype": "", "month": "2023-10"}, {"category": "anti-social-behaviour", "location_type": "Force", "location": {"latitude": "53.366844", "street": {"id": 1715215, "name": "On or near Sitwell Place"}, "longitude": "-1.475479"}, "context": "", "outcome_status": null, "persistent_id": "", "id": 114004000, "location_subtype": "", "month": "2023-10"}, {"category": "anti-social-behaviour", "location_type": "Force", "location": {"latitude": "53.413121", "street": {"id": 1717592, "name": "On or near Hindewood Close"}, "longitude": "-1.442354"}, "context": "", "outcome_status": null, "persistent_id": "", "id": 114004025, "location_subtype": "", "month": "2023-10"}, {"category": "anti-social-behaviour", "location_type": "Force", "location": {"latitude": "53.434546", "street": {"id": 1717008, "name": "On or near Perkyn Terrace"}, "longitude": "-1.451330"}, "context": "", "outcome_status": null, "persistent_id": "", "id": 114004023, "location_subtype": "", "month": "2023-10"}, {"category": "anti-social-behaviour", "location_type": "Force", "location": {"latitude": "53.337414", "street": {"id": 1717024, "name": "On or near Sports/recreation Area"}, "longitude": "-1.450898"}, "context": "", "outcome_status": null, "persistent_id": "", "id": 114004022, "location_subtype": "", "month": "2023-10"}, {"category": "anti-social-behaviour", "location_type": "Force", "location": {"latitude": "53.411735", "street": {"id": 1717136, "name": "On or near Lindley Road"}, "longitude": "-1.449758"}, "context": "", "outcome_status": null, "persistent_id": "", "id": 114004020, "location_subtype": "", "month": "2023-10"}, {"category": "anti-social-behaviour", "location_type": "Force", "location": {"latitude": "53.380414", "street": {"id": 1716005, "name": "On or near Theatre/concert Hall"}, "longitude": "-1.466623"}, "context": "", "outcome_status": null, "persistent_id": "", "id": 114004010, "location_subtype": "", "month": "2023-10"}, {"category": "anti-social-behaviour", "location_type": "Force", "location": {"latitude": "53.369028", "street": {"id": 1715747, "name": "On or near Cherry Street"}, "longitude": "-1.469380"}, "context": "", "outcome_status": null, "persistent_id": "", "id": 114004009, "location_subtype": "", "month": "2023-10"}, {"category": "anti-social-behaviour", "location_type": "Force", "location": {"latitude": "53.382036", "street": {"id": 1715584, "name": "On or near Leopold Street"}, "longitude": "-1.471519"}, "context": "", "outcome_status": null, "persistent_id": "", "id": 114004006, "location_subtype": "", "month": "2023-10"}, {"category": "anti-social-behaviour", "location_type": "Force", "location": {"latitude": "53.339451", "street": {"id": 1715331, "name": "On or near Bole Hill"}, "longitude": "-1.472466"}, "context": "", "outcome_status": null, "persistent_id": "", "id": 114004005, "location_subtype": "", "month": "2023-10"}, {"category": "anti-social-behaviour", "location_type": "Force", "location": {"latitude": "53.416701", "street": {"id": 1715620, "name": "On or near Southey Drive"}, "longitude": "-1.470743"}, "context": "", "outcome_status": null, "persistent_id": "", "id": 114004004, "location_subtype": "", "month": "2023-10"}, {"category": "anti-social-behaviour", "location_type": "Force", "location": {"latitude": "53.437817", "street": {"id": 1715506, "name": "On or near Brailsford Avenue"}, "longitude": "-1.471083"}, "context": "", "outcome_status": null, "persistent_id": "", "id": 114004003, "location_subtype": "", "month": "2023-10"}, {"category": "anti-social-behaviour", "location_type": "Force", "location": {"latitude": "53.381592", "street": {"id": 1715222, "name": "On or near Penton Street"}, "longitude": "-1.474982"}, "context": "", "outcome_status": null, "persistent_id": "", "id": 114004001, "location_subtype": "", "month": "2023-10"}, {"category": "anti-social-behaviour", "location_type": "Force", "location": {"latitude": "53.364046", "street": {"id": 1711466, "name": "On or near Supermarket"}, "longitude": "-1.545715"}, "context": "", "outcome_status": null, "persistent_id": "", "id": 114003984, "location_subtype": "", "month": "2023-10"}, {"category": "anti-social-behaviour", "location_type": "Force", "location": {"latitude": "53.431910", "street": {"id": 1721188, "name": "On or near Bridgegate"}, "longitude": "-1.357098"}, "context": "", "outcome_status": null, "persistent_id": "", "id": 113994188, "location_subtype": "", "month": "2023-10"}, {"category": "anti-social-behaviour", "location_type": "Force", "location": {"latitude": "53.370258", "street": {"id": 1711340, "name": "On or near Barncliffe Road"}, "longitude": "-1.552433"}, "context": "", "outcome_status": null, "persistent_id": "", "id": 114005091, "location_subtype": "", "month": "2023-10"}, {"category": "anti-social-behaviour", "location_type": "Force", "location": {"latitude": "53.437625", "street": {"id": 1721488, "name": "On or near Russell Street"}, "longitude": "-1.350088"}, "context": "", "outcome_status": null, "persistent_id": "", "id": 113994190, "location_subtype": "", "month": "2023-10"}, {"category": "anti-social-behaviour", "location_type": "Force", "location": {"latitude": "53.479974", "street": {"id": 1710835, "name": "On or near Alpine Close"}, "longitude": "-1.603521"}, "context": "", "outcome_status": null, "persistent_id": "", "id": 114002695, "location_subtype": "", "month": "2023-10"}, {"category": "anti-social-behaviour", "location_type": "Force", "location": {"latitude": "53.351993", "street": {"id": 1712081, "name": "On or near Bents Road"}, "longitude": "-1.524486"}, "context": "", "outcome_status": null, "persistent_id": "", "id": 114002696, "location_subtype": "", "month": "2023-10"}, {"category": "anti-social-behaviour", "location_type": "Force", "location": {"latitude": "53.463338", "street": {"id": 1721839, "name": "On or near Jockell Drive"}, "longitude": "-1.344453"}, "context": "", "outcome_status": null, "persistent_id": "", "id": 113994191, "location_subtype": "", "month": "2023-10"}, {"category": "anti-social-behaviour", "location_type": "Force", "location": {"latitude": "53.316720", "street": {"id": 1712263, "name": "On or near Longford Crescent"}, "longitude": "-1.519564"}, "context": "", "outcome_status": null, "persistent_id": "", "id": 114002697, "location_subtype": "", "month": "2023-10"}, {"category": "anti-social-behaviour", "location_type": "Force", "location": {"latitude": "53.443574", "street": {"id": 1722493, "name": "On or near Aldwarke Lane"}, "longitude": "-1.322295"}, "context": "", "outcome_status": null, "persistent_id": "", "id": 114004604, "location_subtype": "", "month": "2023-10"}, {"category": "anti-social-behaviour", "location_type": "Force", "location": {"latitude": "53.420905", "street": {"id": 1722363, "name": "On or near Durham Place"}, "longitude": "-1.330390"}, "context": "", "outcome_status": null, "persistent_id": "", "id": 114004603, "location_subtype": "", "month": "2023-10"}, {"category": "anti-social-behaviour", "location_type": "Force", "location": {"latitude": "53.385396", "street": {"id": 1721143, "name": "On or near Mill Lane"}, "longitude": "-1.357528"}, "context": "", "outcome_status": null, "persistent_id": "", "id": 114004602, "location_subtype": "", "month": "2023-10"}, {"category": "anti-social-behaviour", "location_type": "Force", "location": {"latitude": "53.400622", "street": {"id": 1720964, "name": "On or near Whitehill Drive"}, "longitude": "-1.362503"}, "context": "", "outcome_status": null, "persistent_id": "", "id": 114004601, "location_subtype": "", "month": "2023-10"}, {"category": "anti-social-behaviour", "location_type": "Force", "location": {"latitude": "53.343854", "street": {"id": 1719713, "name": "On or near Weakland Way"}, "longitude": "-1.390972"}, "context": "", "outcome_status": null, "persistent_id": "", "id": 114004598, "location_subtype": "", "month": "2023-10"}, {"category": "anti-social-behaviour", "location_type": "Force", "location": {"latitude": "53.365671", "street": {"id": 1719605, "name": "On or near Ravenscroft Place"}, "longitude": "-1.394749"}, "context": "", "outcome_status": null, "persistent_id": "", "id": 114004597, "location_subtype": "", "month": "2023-10"}, {"category": "anti-social-behaviour", "location_type": "Force", "location": {"latitude": "53.352579", "street": {"id": 1719445, "name": "On or near Portway Close"}, "longitude": "-1.397443"}, "context": "", "outcome_status": null, "persistent_id": "", "id": 114004596, "location_subtype": "", "month": "2023-10"}, {"category": "anti-social-behaviour", "location_type": "Force", "location": {"latitude": "53.367301", "street": {"id": 1718039, "name": "On or near Cary Grove"}, "longitude": "-1.431816"}, "context": "", "outcome_status": null, "persistent_id": "", "id": 114004589, "location_subtype": "", "month": "2023-10"}, {"category": "anti-social-behaviour", "location_type": "Force", "location": {"latitude": "53.417019", "street": {"id": 1717899, "name": "On or near Bluebell Road"}, "longitude": "-1.436028"}, "context": "", "outcome_status": null, "persistent_id": "", "id": 114004588, "location_subtype": "", "month": "2023-10"}, {"category": "anti-social-behaviour", "location_type": "Force", "location": {"latitude": "53.359395", "street": {"id": 1717670, "name": "On or near Errington Crescent"}, "longitude": "-1.440440"}, "context": "", "outcome_status": null, "persistent_id": "", "id": 114004587, "location_subtype": "", "month": "2023-10"}, {"category": "anti-social-behaviour", "location_type": "Force", "location": {"latitude": "53.372092", "street": {"id": 1713768, "name": "On or near Eastgrove Road"}, "longitude": "-1.493901"}, "context": "", "outcome_status": null, "persistent_id": "", "id": 114004568, "location_subtype": "", "month": "2023-10"}, {"category": "anti-social-behaviour", "location_type": "Force", "location": {"latitude": "53.385221", "street": {"id": 1713718, "name": "On or near Ivy Drive"}, "longitude": "-1.495144"}, "context": "", "outcome_status": null, "persistent_id": "", "id": 114004567, "location_subtype": "", "month": "2023-10"}, {"category": "anti-social-behaviour", "location_type": "Force", "location": {"latitude": "53.426105", "street": {"id": 1713341, "name": "On or near Fox Hill Road"}, "longitude": "-1.500273"}, "context": "", "outcome_status": null, "persistent_id": "", "id": 114004566, "location_subtype": "", "month": "2023-10"}, {"category": "anti-social-behaviour", "location_type": "Force", "location": {"latitude": "53.391209", "street": {"id": 1712838, "name": "On or near Moorsyde Avenue"}, "longitude": "-1.506366"}, "context": "", "outcome_status": null, "persistent_id": "", "id": 114004565, "location_subtype": "", "month": "2023-10"}, {"category": "anti-social-behaviour", "location_type": "Force", "location": {"latitude": "53.385339", "street": {"id": 1712824, "name": "On or near Supermarket"}, "longitude": "-1.507955"}, "context": "", "outcome_status": null, "persistent_id": "", "id": 114004564, "location_subtype": "", "month": "2023-10"}, {"category": "anti-social-behaviour", "location_type": "Force", "location": {"latitude": "53.335199", "street": {"id": 1712693, "name": "On or near Beauchief Grove"}, "longitude": "-1.510421"}, "context": "", "outcome_status": null, "persistent_id": "", "id": 114004563, "location_subtype": "", "month": "2023-10"}, {"category": "anti-social-behaviour", "location_type": "Force", "location": {"latitude": "53.470212", "street": {"id": 1713089, "name": "On or near Oak Lodge Road"}, "longitude": "-1.502482"}, "context": "", "outcome_status": null, "persistent_id": "", "id": 114004562, "location_subtype": "", "month": "2023-10"}, {"category": "anti-social-behaviour", "location_type": "Force", "location": {"latitude": "53.362183", "street": {"id": 1722597, "name": "On or near Bedale Close"}, "longitude": "-1.324308"}, "context": "", "outcome_status": null, "persistent_id": "", "id": 114003551, "location_subtype": "", "month": "2023-10"}, {"category": "anti-social-behaviour", "location_type": "Force", "location": {"latitude": "53.429057", "street": {"id": 1722188, "name": "On or near Badsley Moor Lane"}, "longitude": "-1.335093"}, "context": "", "outcome_status": null, "persistent_id": "", "id": 114003550, "location_subtype": "", "month": "2023-10"}, {"category": "anti-social-behaviour", "location_type": "Force", "location": {"latitude": "53.351796", "street": {"id": 1721992, "name": "On or near Chestnut Avenue"}, "longitude": "-1.341102"}, "context": "", "outcome_status": null, "persistent_id": "", "id": 114003549, "location_subtype": "", "month": "2023-10"}, {"category": "anti-social-behaviour", "location_type": "Force", "location": {"latitude": "53.451113", "street": {"id": 1721811, "name": "On or near Broad Street"}, "longitude": "-1.344355"}, "context": "", "outcome_status": null, "persistent_id": "", "id": 114003548, "location_subtype": "", "month": "2023-10"}, {"category": "anti-social-behaviour", "location_type": "Force", "location": {"latitude": "53.461430", "street": {"id": 1721941, "name": "On or near Hawley Street"}, "longitude": "-1.342510"}, "context": "", "outcome_status": null, "persistent_id": "", "id": 114003547, "location_subtype": "", "month": "2023-10"}, {"category": "anti-social-behaviour", "location_type": "Force", "location": {"latitude": "53.459599", "street": {"id": 1721818, "name": "On or near High Street"}, "longitude": "-1.344541"}, "context": "", "outcome_status": null, "persistent_id": "", "id": 114003546, "location_subtype": "", "month": "2023-10"}, {"category": "anti-social-behaviour", "location_type": "Force", "location": {"latitude": "53.319440", "street": {"id": 1721298, "name": "On or near Auckland Drive"}, "longitude": "-1.354916"},