[{"category": "anti-social-behaviour", "location_type": "Force", "location": {"latitude": "53.433197", "street": {"id": 1722533, "name": "On or near The Lanes"}, "longitude": "-1.324793"}, "context": "", "outcome_status": null, "persistent_id": "", "id": 126232264, "location_subtype": "", "month": "2025-02"}, {"category": "anti-social-behaviour", "location_type": "Force", "location": {"latitude": "53.365822", "street": {"id": 1721424, "name": "On or near Hudson Road"}, "longitude": "-1.353164"}, "context": "", "outcome_status": null, "persistent_id": "", "id": 126231292, "location_subtype": "", "month": "2025-02"}, {"category": "anti-social-behaviour", "location_type": "Force", "location": {"latitude": "53.383115", "street": {"id": 1716720, "name": "On or near Bard Street"}, "longitude": "-1.457569"}, "context": "", "outcome_status": null, "persistent_id": "", "id": 126233989, "location_subtype": "", "month": "2025-02"}, {"category": "anti-social-behaviour", "location_type": "Force", "location": {"latitude": "53.347671", "street": {"id": 1722192, "name": "On or near Ivy Lane"}, "longitude": "-1.336359"}, "context": "", "outcome_status": null, "persistent_id": "", "id": 126226995, "location_subtype": "", "month": "2025-02"}, {"category": "anti-social-behaviour", "location_type": "Force", "location": {"latitude": "53.416638", "street": {"id": 1722588, "name": "On or near Stag Lane"}, "longitude": "-1.324408"}, "context": "", "outcome_status": null, "persistent_id": "", "id": 126226996, "location_subtype": "", "month": "2025-02"}, {"category": "anti-social-behaviour", "location_type": "Force", "location": {"latitude": "53.378618", "street": {"id": 1715762, "name": "On or near Parking Area"}, "longitude": "-1.469066"}, "context": "", "outcome_status": null, "persistent_id": "", "id": 126228662, "location_subtype": "", "month": "2025-02"}, {"category": "anti-social-behaviour", "location_type": "Force", "location": {"latitude": "53.341161", "street": {"id": 1716003, "name": "On or near Shibden Close"}, "longitude": "-1.466842"}, "context": "", "outcome_status": null, "persistent_id": "", "id": 126228663, "location_subtype": "", "month": "2025-02"}, {"category": "anti-social-behaviour", "location_type": "Force", "location": {"latitude": "53.382295", "street": {"id": 1716136, "name": "On or near Esperanto Place"}, "longitude": "-1.465186"}, "context": "", "outcome_status": null, "persistent_id": "", "id": 126228664, "location_subtype": "", "month": "2025-02"}, {"category": "anti-social-behaviour", "location_type": "Force", "location": {"latitude": "53.355815", "street": {"id": 1715303, "name": "On or near Meersbrook Park Road"}, "longitude": "-1.473361"}, "context": "", "outcome_status": null, "persistent_id": "", "id": 126227833, "location_subtype": "", "month": "2025-02"}, {"category": "anti-social-behaviour", "location_type": "Force", "location": {"latitude": "53.371175", "street": {"id": 1715376, "name": "On or near Unstone Street"}, "longitude": "-1.473036"}, "context": "", "outcome_status": null, "persistent_id": "", "id": 126227834, "location_subtype": "", "month": "2025-02"}, {"category": "anti-social-behaviour", "location_type": "Force", "location": {"latitude": "53.396207", "street": {"id": 1715847, "name": "On or near Pitsmoor Road"}, "longitude": "-1.468606"}, "context": "", "outcome_status": null, "persistent_id": "", "id": 126227835, "location_subtype": "", "month": "2025-02"}, {"category": "anti-social-behaviour", "location_type": "Force", "location": {"latitude": "53.327724", "street": {"id": 1715868, "name": "On or near Shopping Area"}, "longitude": "-1.467567"}, "context": "", "outcome_status": null, "persistent_id": "", "id": 126227836, "location_subtype": "", "month": "2025-02"}, {"category": "anti-social-behaviour", "location_type": "Force", "location": {"latitude": "53.382869", "street": {"id": 1716184, "name": "On or near Fitzalan Square"}, "longitude": "-1.464879"}, "context": "", "outcome_status": null, "persistent_id": "", "id": 126227838, "location_subtype": "", "month": "2025-02"}, {"category": "anti-social-behaviour", "location_type": "Force", "location": {"latitude": "53.326066", "street": {"id": 1716464, "name": "On or near Hazlebarrow Grove"}, "longitude": "-1.460274"}, "context": "", "outcome_status": null, "persistent_id": "", "id": 126227840, "location_subtype": "", "month": "2025-02"}, {"category": "anti-social-behaviour", "location_type": "Force", "location": {"latitude": "53.384492", "street": {"id": 1716617, "name": "On or near Wharf Street"}, "longitude": "-1.458033"}, "context": "", "outcome_status": null, "persistent_id": "", "id": 126227841, "location_subtype": "", "month": "2025-02"}, {"category": "anti-social-behaviour", "location_type": "Force", "location": {"latitude": "53.389476", "street": {"id": 1716663, "name": "On or near Savile Street"}, "longitude": "-1.457082"}, "context": "", "outcome_status": null, "persistent_id": "", "id": 126227842, "location_subtype": "", "month": "2025-02"}, {"category": "anti-social-behaviour", "location_type": "Force", "location": {"latitude": "53.355163", "street": {"id": 1720624, "name": "On or near Skelton Close"}, "longitude": "-1.370408"}, "context": "", "outcome_status": null, "persistent_id": "", "id": 126227850, "location_subtype": "", "month": "2025-02"}, {"category": "anti-social-behaviour", "location_type": "Force", "location": {"latitude": "53.430929", "street": {"id": 1721272, "name": "On or near Vicarage Lane"}, "longitude": "-1.355277"}, "context": "", "outcome_status": null, "persistent_id": "", "id": 126227851, "location_subtype": "", "month": "2025-02"}, {"category": "anti-social-behaviour", "location_type": "Force", "location": {"latitude": "53.433833", "street": {"id": 1721396, "name": "On or near Supermarket"}, "longitude": "-1.353592"}, "context": "", "outcome_status": null, "persistent_id": "", "id": 126227852, "location_subtype": "", "month": "2025-02"}, {"category": "anti-social-behaviour", "location_type": "Force", "location": {"latitude": "53.341144", "street": {"id": 1721291, "name": "On or near Purbeck Court"}, "longitude": "-1.355910"}, "context": "", "outcome_status": null, "persistent_id": "", "id": 126227853, "location_subtype": "", "month": "2025-02"}, {"category": "anti-social-behaviour", "location_type": "Force", "location": {"latitude": "53.393111", "street": {"id": 1711953, "name": "On or near Deer Park View"}, "longitude": "-1.529938"}, "context": "", "outcome_status": null, "persistent_id": "", "id": 126233555, "location_subtype": "", "month": "2025-02"}, {"category": "anti-social-behaviour", "location_type": "Force", "location": {"latitude": "53.437479", "street": {"id": 1721763, "name": "On or near Grosvenor Road"}, "longitude": "-1.346341"}, "context": "", "outcome_status": null, "persistent_id": "", "id": 126227854, "location_subtype": "", "month": "2025-02"}, {"category": "anti-social-behaviour", "location_type": "Force", "location": {"latitude": "53.408708", "street": {"id": 1715364, "name": "On or near Musgrave Place"}, "longitude": "-1.474227"}, "context": "", "outcome_status": null, "persistent_id": "", "id": 126227431, "location_subtype": "", "month": "2025-02"}, {"category": "anti-social-behaviour", "location_type": "Force", "location": {"latitude": "53.350967", "street": {"id": 1715754, "name": "On or near Hollythorpe Crescent"}, "longitude": "-1.468778"}, "context": "", "outcome_status": null, "persistent_id": "", "id": 126227432, "location_subtype": "", "month": "2025-02"}, {"category": "anti-social-behaviour", "location_type": "Force", "location": {"latitude": "53.384012", "street": {"id": 1716150, "name": "On or near Supermarket"}, "longitude": "-1.465225"}, "context": "", "outcome_status": null, "persistent_id": "", "id": 126227433, "location_subtype": "", "month": "2025-02"}, {"category": "anti-social-behaviour", "location_type": "Force", "location": {"latitude": "53.321567", "street": {"id": 1715958, "name": "On or near Whinacre Close"}, "longitude": "-1.467237"}, "context": "", "outcome_status": null, "persistent_id": "", "id": 126227434, "location_subtype": "", "month": "2025-02"}, {"category": "anti-social-behaviour", "location_type": "Force", "location": {"latitude": "53.424247", "street": {"id": 1716213, "name": "On or near Emerson Close"}, "longitude": "-1.463592"}, "context": "", "outcome_status": null, "persistent_id": "", "id": 126227435, "location_subtype": "", "month": "2025-02"}, {"category": "anti-social-behaviour", "location_type": "Force", "location": {"latitude": "53.420974", "street": {"id": 1716724, "name": "On or near Oswestry Road"}, "longitude": "-1.455357"}, "context": "", "outcome_status": null, "persistent_id": "", "id": 126227437, "location_subtype": "", "month": "2025-02"}, {"category": "anti-social-behaviour", "location_type": "Force", "location": {"latitude": "53.375873", "street": {"id": 1716964, "name": "On or near Fitzwalter Road"}, "longitude": "-1.452490"}, "context": "", "outcome_status": null, "persistent_id": "", "id": 126227438, "location_subtype": "", "month": "2025-02"}, {"category": "anti-social-behaviour", "location_type": "Force", "location": {"latitude": "53.407723", "street": {"id": 1717401, "name": "On or near Rushby Street"}, "longitude": "-1.445177"}, "context": "", "outcome_status": null, "persistent_id": "", "id": 126227439, "location_subtype": "", "month": "2025-02"}, {"category": "anti-social-behaviour", "location_type": "Force", "location": {"latitude": "53.436115", "street": {"id": 1717525, "name": "On or near Butterthwaite Crescent"}, "longitude": "-1.442655"}, "context": "", "outcome_status": null, "persistent_id": "", "id": 126227440, "location_subtype": "", "month": "2025-02"}, {"category": "anti-social-behaviour", "location_type": "Force", "location": {"latitude": "53.386986", "street": {"id": 1715476, "name": "On or near Parking Area"}, "longitude": "-1.472976"}, "context": "", "outcome_status": null, "persistent_id": "", "id": 126226473, "location_subtype": "", "month": "2025-02"}, {"category": "anti-social-behaviour", "location_type": "Force", "location": {"latitude": "53.343136", "street": {"id": 1713087, "name": "On or near Pingle Avenue"}, "longitude": "-1.503812"}, "context": "", "outcome_status": null, "persistent_id": "", "id": 126233557, "location_subtype": "", "month": "2025-02"}, {"category": "anti-social-behaviour", "location_type": "Force", "location": {"latitude": "53.376988", "street": {"id": 1715281, "name": "On or near Charter Row"}, "longitude": "-1.474482"}, "context": "", "outcome_status": null, "persistent_id": "", "id": 126233978, "location_subtype": "", "month": "2025-02"}, {"category": "anti-social-behaviour", "location_type": "Force", "location": {"latitude": "53.482171", "street": {"id": 1710964, "name": "On or near Shopping Area"}, "longitude": "-1.587946"}, "context": "", "outcome_status": null, "persistent_id": "", "id": 126228218, "location_subtype": "", "month": "2025-02"}, {"category": "anti-social-behaviour", "location_type": "Force", "location": {"latitude": "53.432045", "street": {"id": 1711809, "name": "On or near Langsett Road South"}, "longitude": "-1.533301"}, "context": "", "outcome_status": null, "persistent_id": "", "id": 126228219, "location_subtype": "", "month": "2025-02"}, {"category": "anti-social-behaviour", "location_type": "Force", "location": {"latitude": "53.375127", "street": {"id": 1712236, "name": "On or near Darwin Close"}, "longitude": "-1.521568"}, "context": "", "outcome_status": null, "persistent_id": "", "id": 126228220, "location_subtype": "", "month": "2025-02"}, {"category": "anti-social-behaviour", "location_type": "Force", "location": {"latitude": "53.372180", "street": {"id": 1719495, "name": "On or near Richmond Park Drive"}, "longitude": "-1.398444"}, "context": "", "outcome_status": null, "persistent_id": "", "id": 126228246, "location_subtype": "", "month": "2025-02"}, {"category": "anti-social-behaviour", "location_type": "Force", "location": {"latitude": "53.346367", "street": {"id": 1719995, "name": "On or near Spring Water Drive"}, "longitude": "-1.384973"}, "context": "", "outcome_status": null, "persistent_id": "", "id": 126228248, "location_subtype": "", "month": "2025-02"}, {"category": "anti-social-behaviour", "location_type": "Force", "location": {"latitude": "53.478480", "street": {"id": 1720016, "name": "On or near Hoober Lane"}, "longitude": "-1.380985"}, "context": "", "outcome_status": null, "persistent_id": "", "id": 126228249, "location_subtype": "", "month": "2025-02"}, {"category": "anti-social-behaviour", "location_type": "Force", "location": {"latitude": "53.430025", "street": {"id": 1720403, "name": "On or near Devonshire Street"}, "longitude": "-1.376316"}, "context": "", "outcome_status": null, "persistent_id": "", "id": 126228252, "location_subtype": "", "month": "2025-02"}, {"category": "anti-social-behaviour", "location_type": "Force", "location": {"latitude": "53.404415", "street": {"id": 1720797, "name": "On or near Parking Area"}, "longitude": "-1.367515"}, "context": "", "outcome_status": null, "persistent_id": "", "id": 126228253, "location_subtype": "", "month": "2025-02"}, {"category": "anti-social-behaviour", "location_type": "Force", "location": {"latitude": "53.429090", "street": {"id": 1720796, "name": "On or near Providence Street"}, "longitude": "-1.367601"}, "context": "", "outcome_status": null, "persistent_id": "", "id": 126228254, "location_subtype": "", "month": "2025-02"}, {"category": "anti-social-behaviour", "location_type": "Force", "location": {"latitude": "53.474266", "street": {"id": 1721013, "name": "On or near Boardman Avenue"}, "longitude": "-1.362334"}, "context": "", "outcome_status": null, "persistent_id": "", "id": 126228255, "location_subtype": "", "month": "2025-02"}, {"category": "anti-social-behaviour", "location_type": "Force", "location": {"latitude": "53.343395", "street": {"id": 1720966, "name": "On or near Police Station"}, "longitude": "-1.363251"}, "context": "", "outcome_status": null, "persistent_id": "", "id": 126228256, "location_subtype": "", "month": "2025-02"}, {"category": "anti-social-behaviour", "location_type": "Force", "location": {"latitude": "53.344200", "street": {"id": 1721056, "name": "On or near Petrol Station"}, "longitude": "-1.360282"}, "context": "", "outcome_status": null, "persistent_id": "", "id": 126228257, "location_subtype": "", "month": "2025-02"}, {"category": "anti-social-behaviour", "location_type": "Force", "location": {"latitude": "53.324762", "street": {"id": 1721137, "name": "On or near Olive Road"}, "longitude": "-1.360061"}, "context": "", "outcome_status": null, "persistent_id": "", "id": 126228258, "location_subtype": "", "month": "2025-02"}, {"category": "anti-social-behaviour", "location_type": "Force", "location": {"latitude": "53.415871", "street": {"id": 1721149, "name": "On or near Oak Tree Court"}, "longitude": "-1.358107"}, "context": "", "outcome_status": null, "persistent_id": "", "id": 126228259, "location_subtype": "", "month": "2025-02"}, {"category": "anti-social-behaviour", "location_type": "Force", "location": {"latitude": "53.346169", "street": {"id": 1721265, "name": "On or near Sevenairs Road"}, "longitude": "-1.350908"}, "context": "", "outcome_status": null, "persistent_id": "", "id": 126228260, "location_subtype": "", "month": "2025-02"}, {"category": "anti-social-behaviour", "location_type": "Force", "location": {"latitude": "53.381002", "street": {"id": 1715055, "name": "On or near Orange Street"}, "longitude": "-1.477620"}, "context": "", "outcome_status": null, "persistent_id": "", "id": 126233977, "location_subtype": "", "month": "2025-02"}, {"category": "anti-social-behaviour", "location_type": "Force", "location": {"latitude": "53.438598", "street": {"id": 1721627, "name": "On or near Hardwicke Road"}, "longitude": "-1.347258"}, "context": "", "outcome_status": null, "persistent_id": "", "id": 126228261, "location_subtype": "", "month": "2025-02"}, {"category": "anti-social-behaviour", "location_type": "Force", "location": {"latitude": "53.350450", "street": {"id": 1721536, "name": "On or near Woodhouse Court"}, "longitude": "-1.348094"}, "context": "", "outcome_status": null, "persistent_id": "", "id": 126228262, "location_subtype": "", "month": "2025-02"}, {"category": "anti-social-behaviour", "location_type": "Force", "location": {"latitude": "53.476176", "street": {"id": 1710874, "name": "On or near Cedar Close"}, "longitude": "-1.599398"}, "context": "", "outcome_status": null, "persistent_id": "", "id": 126227817, "location_subtype": "", "month": "2025-02"}, {"category": "anti-social-behaviour", "location_type": "Force", "location": {"latitude": "53.421225", "street": {"id": 1710541, "name": "On or near Hall Lane"}, "longitude": "-1.643627"}, "context": "", "outcome_status": null, "persistent_id": "", "id": 126228655, "location_subtype": "", "month": "2025-02"}, {"category": "anti-social-behaviour", "location_type": "Force", "location": {"latitude": "53.360104", "street": {"id": 1712791, "name": "On or near Banner Cross Drive"}, "longitude": "-1.507431"}, "context": "", "outcome_status": null, "persistent_id": "", "id": 126228656, "location_subtype": "", "month": "2025-02"}, {"category": "anti-social-behaviour", "location_type": "Force", "location": {"latitude": "53.360104", "street": {"id": 1712791, "name": "On or near Banner Cross Drive"}, "longitude": "-1.507431"}, "context": "", "outcome_status": null, "persistent_id": "", "id": 126228657, "location_subtype": "", "month": "2025-02"}, {"category": "anti-social-behaviour", "location_type": "Force", "location": {"latitude": "53.355614", "street": {"id": 1715134, "name": "On or near Beeton Road"}, "longitude": "-1.476819"}, "context": "", "outcome_status": null, "persistent_id": "", "id": 126228660, "location_subtype": "", "month": "2025-02"}, {"category": "anti-social-behaviour", "location_type": "Force", "location": {"latitude": "53.349619", "street": {"id": 1716132, "name": "On or near Lees Hall Road"}, "longitude": "-1.464724"}, "context": "", "outcome_status": null, "persistent_id": "", "id": 126228665, "location_subtype": "", "month": "2025-02"}, {"category": "anti-social-behaviour", "location_type": "Force", "location": {"latitude": "53.387836", "street": {"id": 1714278, "name": "On or near Martin Street"}, "longitude": "-1.486498"}, "context": "", "outcome_status": null, "persistent_id": "", "id": 126233560, "location_subtype": "", "month": "2025-02"}, {"category": "anti-social-behaviour", "location_type": "Force", "location": {"latitude": "53.348714", "street": {"id": 1720911, "name": "On or near Rainbow Grove"}, "longitude": "-1.364449"}, "context": "", "outcome_status": null, "persistent_id": "", "id": 126225024, "location_subtype": "", "month": "2025-02"}, {"category": "anti-social-behaviour", "location_type": "Force", "location": {"latitude": "53.363038", "street": {"id": 1721213, "name": "On or near Parking Area"}, "longitude": "-1.357098"}, "context": "", "outcome_status": null, "persistent_id": "", "id": 126225025, "location_subtype": "", "month": "2025-02"}, {"category": "anti-social-behaviour", "location_type": "Force", "location": {"latitude": "53.429887", "street": {"id": 1714883, "name": "On or near Milnrow Road"}, "longitude": "-1.478872"}, "context": "", "outcome_status": null, "persistent_id": "", "id": 126224992, "location_subtype": "", "month": "2025-02"}, {"category": "anti-social-behaviour", "location_type": "Force", "location": {"latitude": "53.414676", "street": {"id": 1714775, "name": "On or near Barrie Road"}, "longitude": "-1.480307"}, "context": "", "outcome_status": null, "persistent_id": "", "id": 126233562, "location_subtype": "", "month": "2025-02"}, {"category": "anti-social-behaviour", "location_type": "Force", "location": {"latitude": "53.363263", "street": {"id": 1712789, "name": "On or near Petrol Station"}, "longitude": "-1.508477"}, "context": "", "outcome_status": null, "persistent_id": "", "id": 126224983, "location_subtype": "", "month": "2025-02"}, {"category": "anti-social-behaviour", "location_type": "Force", "location": {"latitude": "53.380142", "street": {"id": 1717344, "name": "On or near Nuttall Place"}, "longitude": "-1.446317"}, "context": "", "outcome_status": null, "persistent_id": "", "id": 126224600, "location_subtype": "", "month": "2025-02"}, {"category": "anti-social-behaviour", "location_type": "Force", "location": {"latitude": "53.482763", "street": {"id": 1710889, "name": "On or near Supermarket"}, "longitude": "-1.596442"}, "context": "", "outcome_status": null, "persistent_id": "", "id": 126229064, "location_subtype": "", "month": "2025-02"}, {"category": "anti-social-behaviour", "location_type": "Force", "location": {"latitude": "53.410065", "street": {"id": 1722881, "name": "On or near Bartholomew Close"}, "longitude": "-1.316133"}, "context": "", "outcome_status": null, "persistent_id": "", "id": 126232670, "location_subtype": "", "month": "2025-02"}, {"category": "anti-social-behaviour", "location_type": "Force", "location": {"latitude": "53.478026", "street": {"id": 1710946, "name": "On or near Stanley Road"}, "longitude": "-1.590958"}, "context": "", "outcome_status": null, "persistent_id": "", "id": 126229065, "location_subtype": "", "month": "2025-02"}, {"category": "anti-social-behaviour", "location_type": "Force", "location": {"latitude": "53.315575", "street": {"id": 1711926, "name": "On or near Laverdene Close"}, "longitude": "-1.530054"}, "context": "", "outcome_status": null, "persistent_id": "", "id": 126229066, "location_subtype": "", "month": "2025-02"}, {"category": "anti-social-behaviour", "location_type": "Force", "location": {"latitude": "53.394479", "street": {"id": 1712119, "name": "On or near Deer Park Way"}, "longitude": "-1.525772"}, "context": "", "outcome_status": null, "persistent_id": "", "id": 126229067, "location_subtype": "", "month": "2025-02"}, {"category": "anti-social-behaviour", "location_type": "Force", "location": {"latitude": "53.417259", "street": {"id": 1712694, "name": "On or near Winn Drive"}, "longitude": "-1.510864"}, "context": "", "outcome_status": null, "persistent_id": "", "id": 126229068, "location_subtype": "", "month": "2025-02"}, {"category": "anti-social-behaviour", "location_type": "Force", "location": {"latitude": "53.410166", "street": {"id": 1722785, "name": "On or near Park Avenue"}, "longitude": "-1.318087"}, "context": "", "outcome_status": null, "persistent_id": "", "id": 126232669, "location_subtype": "", "month": "2025-02"}, {"category": "anti-social-behaviour", "location_type": "Force", "location": {"latitude": "53.388912", "street": {"id": 1713416, "name": "On or near Joseph Road"}, "longitude": "-1.498559"}, "context": "", "outcome_status": null, "persistent_id": "", "id": 126229069, "location_subtype": "", "month": "2025-02"}, {"category": "anti-social-behaviour", "location_type": "Force", "location": {"latitude": "53.324050", "street": {"id": 1713844, "name": "On or near Reney Avenue"}, "longitude": "-1.492488"}, "context": "", "outcome_status": null, "persistent_id": "", "id": 126229070, "location_subtype": "", "month": "2025-02"}, {"category": "anti-social-behaviour", "location_type": "Force", "location": {"latitude": "53.392745", "street": {"id": 1717812, "name": "On or near Parking Area"}, "longitude": "-1.435161"}, "context": "", "outcome_status": null, "persistent_id": "", "id": 126229088, "location_subtype": "", "month": "2025-02"}, {"category": "anti-social-behaviour", "location_type": "Force", "location": {"latitude": "53.346139", "street": {"id": 1718178, "name": "On or near Little Wood Road"}, "longitude": "-1.429528"}, "context": "", "outcome_status": null, "persistent_id": "", "id": 126229089, "location_subtype": "", "month": "2025-02"}, {"category": "anti-social-behaviour", "location_type": "Force", "location": {"latitude": "53.399992", "street": {"id": 1718032, "name": "On or near Don Road"}, "longitude": "-1.431756"}, "context": "", "outcome_status": null, "persistent_id": "", "id": 126229090, "location_subtype": "", "month": "2025-02"}, {"category": "anti-social-behaviour", "location_type": "Force", "location": {"latitude": "53.393074", "street": {"id": 1718381, "name": "On or near Tudor Close"}, "longitude": "-1.421097"}, "context": "", "outcome_status": null, "persistent_id": "", "id": 126229091, "location_subtype": "", "month": "2025-02"}, {"category": "anti-social-behaviour", "location_type": "Force", "location": {"latitude": "53.365434", "street": {"id": 1722617, "name": "On or near Nursery Road"}, "longitude": "-1.323730"}, "context": "", "outcome_status": null, "persistent_id": "", "id": 126232668, "location_subtype": "", "month": "2025-02"}, {"category": "anti-social-behaviour", "location_type": "Force", "location": {"latitude": "53.374266", "street": {"id": 1718777, "name": "On or near Sheffield Parkway Services"}, "longitude": "-1.414888"}, "context": "", "outcome_status": null, "persistent_id": "", "id": 126229092, "location_subtype": "", "month": "2025-02"}, {"category": "anti-social-behaviour", "location_type": "Force", "location": {"latitude": "53.350451", "street": {"id": 1722189, "name": "On or near Rothervale Close"}, "longitude": "-1.336812"}, "context": "", "outcome_status": null, "persistent_id": "", "id": 126232665, "location_subtype": "", "month": "2025-02"}, {"category": "anti-social-behaviour", "location_type": "Force", "location": {"latitude": "53.416522", "street": {"id": 1718912, "name": "On or near Meadowhall Interchange"}, "longitude": "-1.413015"}, "context": "", "outcome_status": null, "persistent_id": "", "id": 126229093, "location_subtype": "", "month": "2025-02"}, {"category": "anti-social-behaviour", "location_type": "Force", "location": {"latitude": "53.361017", "street": {"id": 1719438, "name": "On or near Richmond Hill Road"}, "longitude": "-1.400419"}, "context": "", "outcome_status": null, "persistent_id": "", "id": 126229096, "location_subtype": "", "month": "2025-02"}, {"category": "anti-social-behaviour", "location_type": "Force", "location": {"latitude": "53.415990", "street": {"id": 1719507, "name": "On or near Newmarch Street"}, "longitude": "-1.396457"}, "context": "", "outcome_status": null, "persistent_id": "", "id": 126229097, "location_subtype": "", "month": "2025-02"}, {"category": "anti-social-behaviour", "location_type": "Force", "location": {"latitude": "53.410381", "street": {"id": 1717502, "name": "On or near Willoughby Street"}, "longitude": "-1.444616"}, "context": "", "outcome_status": null, "persistent_id": "", "id": 126224601, "location_subtype": "", "month": "2025-02"}, {"category": "anti-social-behaviour", "location_type": "Force", "location": {"latitude": "53.437135", "street": {"id": 1721885, "name": "On or near Sumner Road"}, "longitude": "-1.342599"}, "context": "", "outcome_status": null, "persistent_id": "", "id": 126232664, "location_subtype": "", "month": "2025-02"}, {"category": "anti-social-behaviour", "location_type": "Force", "location": {"latitude": "53.344200", "street": {"id": 1721056, "name": "On or near Petrol Station"}, "longitude": "-1.360282"}, "context": "", "outcome_status": null, "persistent_id": "", "id": 126232663, "location_subtype": "", "month": "2025-02"}, {"category": "anti-social-behaviour", "location_type": "Force", "location": {"latitude": "53.391112", "street": {"id": 1718833, "name": "On or near Basford Street"}, "longitude": "-1.415033"}, "context": "", "outcome_status": null, "persistent_id": "", "id": 126232653, "location_subtype": "", "month": "2025-02"}, {"category": "anti-social-behaviour", "location_type": "Force", "location": {"latitude": "53.363493", "street": {"id": 1713334, "name": "On or near Brincliffe Crescent"}, "longitude": "-1.499007"}, "context": "", "outcome_status": null, "persistent_id": "", "id": 126224576, "location_subtype": "", "month": "2025-02"}, {"category": "anti-social-behaviour", "location_type": "Force", "location": {"latitude": "53.428918", "street": {"id": 1713468, "name": "On or near Carrill Drive"}, "longitude": "-1.497983"}, "context": "", "outcome_status": null, "persistent_id": "", "id": 126224577, "location_subtype": "", "month": "2025-02"}, {"category": "anti-social-behaviour", "location_type": "Force", "location": {"latitude": "53.398717", "street": {"id": 1713467, "name": "On or near Hammerton Road"}, "longitude": "-1.498203"}, "context": "", "outcome_status": null, "persistent_id": "", "id": 126224578, "location_subtype": "", "month": "2025-02"}, {"category": "anti-social-behaviour", "location_type": "Force", "location": {"latitude": "53.377135", "street": {"id": 1713601, "name": "On or near Broomfield Road"}, "longitude": "-1.496187"}, "context": "", "outcome_status": null, "persistent_id": "", "id": 126224579, "location_subtype": "", "month": "2025-02"}, {"category": "anti-social-behaviour", "location_type": "Force", "location": {"latitude": "53.385339", "street": {"id": 1712824, "name": "On or near Supermarket"}, "longitude": "-1.507955"}, "context": "", "outcome_status": null, "persistent_id": "", "id": 126224574, "location_subtype": "", "month": "2025-02"}, {"category": "anti-social-behaviour", "location_type": "Force", "location": {"latitude": "53.413549", "street": {"id": 1718487, "name": "On or near Walling Close"}, "longitude": "-1.420909"}, "context": "", "outcome_status": null, "persistent_id": "", "id": 126232652, "location_subtype": "", "month": "2025-02"}, {"category": "anti-social-behaviour", "location_type": "Force", "location": {"latitude": "53.379191", "street": {"id": 1715667, "name": "On or near Pinstone Street"}, "longitude": "-1.470577"}, "context": "", "outcome_status": null, "persistent_id": "", "id": 126233984, "location_subtype": "", "month": "2025-02"}, {"category": "anti-social-behaviour", "location_type": "Force", "location": {"latitude": "53.351069", "street": {"id": 1718271, "name": "On or near Glade Lea"}, "longitude": "-1.426593"}, "context": "", "outcome_status": null, "persistent_id": "", "id": 126232651, "location_subtype": "", "month": "2025-02"}, {"category": "anti-social-behaviour", "location_type": "Force", "location": {"latitude": "53.350509", "street": {"id": 1714321, "name": "On or near Woodseats Mews"}, "longitude": "-1.485159"}, "context": "", "outcome_status": null, "persistent_id": "", "id": 126229509, "location_subtype": "", "month": "2025-02"}, {"category": "anti-social-behaviour", "location_type": "Force", "location": {"latitude": "53.345905", "street": {"id": 1714561, "name": "On or near Cartmell Crescent"}, "longitude": "-1.482630"}, "context": "", "outcome_status": null, "persistent_id": "", "id": 126229510, "location_subtype": "", "month": "2025-02"}, {"category": "anti-social-behaviour", "location_type": "Force", "location": {"latitude": "53.327724", "street": {"id": 1715868, "name": "On or near Shopping Area"}, "longitude": "-1.467567"}, "context": "", "outcome_status": null, "persistent_id": "", "id": 126233564, "location_subtype": "", "month": "2025-02"}, {"category": "anti-social-behaviour", "location_type": "Force", "location": {"latitude": "53.386170", "street": {"id": 1714647, "name": "On or near Netherthorpe Street"}, "longitude": "-1.481782"}, "context": "", "outcome_status": null, "persistent_id": "", "id": 126229512, "location_subtype": "", "month": "2025-02"}, {"category": "anti-social-behaviour", "location_type": "Force", "location": {"latitude": "53.370974", "street": {"id": 1714961, "name": "On or near Leverton Drive"}, "longitude": "-1.478359"}, "context": "", "outcome_status": null, "persistent_id": "", "id": 126229514, "location_subtype": "", "month": "2025-02"}, {"category": "anti-social-behaviour", "location_type": "Force", "location": {"latitude": "53.435109", "street": {"id": 1711658, "name": "On or near Low Road"}, "longitude": "-1.537768"}, "context": "", "outcome_status": null, "persistent_id": "", "id": 126229975, "location_subtype": "", "month": "2025-02"}, {"category": "anti-social-behaviour", "location_type": "Force", "location": {"latitude": "53.432371", "street": {"id": 1711740, "name": "On or near Clough Wood View"}, "longitude": "-1.536323"}, "context": "", "outcome_status": null, "persistent_id": "", "id": 126229976, "location_subtype": "", "month": "2025-02"}, {"category": "anti-social-behaviour", "location_type": "Force", "location": {"latitude": "53.344775", "street": {"id": 1718233, "name": "On or near Herdings Road"}, "longitude": "-1.428060"}, "context": "", "outcome_status": null, "persistent_id": "", "id": 126232650, "location_subtype": "", "month": "2025-02"}, {"category": "anti-social-behaviour", "location_type": "Force", "location": {"latitude": "53.396113", "street": {"id": 1712126, "name": "On or near Wood Lane"}, "longitude": "-1.525318"}, "context": "", "outcome_status": null, "persistent_id": "", "id": 126229977, "location_subtype": "", "month": "2025-02"}, {"category": "anti-social-behaviour", "location_type": "Force", "location": {"latitude": "53.433892", "street": {"id": 1717718, "name": "On or near Woolley Wood Road"}, "longitude": "-1.438259"}, "context": "", "outcome_status": null, "persistent_id": "", "id": 126232648, "location_subtype": "", "month": "2025-02"}, {"category": "anti-social-behaviour", "location_type": "Force", "location": {"latitude": "53.405842", "street": {"id": 1716644, "name": "On or near Crabtree Lane"}, "longitude": "-1.458453"}, "context": "", "outcome_status": null, "persistent_id": "", "id": 126233566, "location_subtype": "", "month": "2025-02"}, {"category": "anti-social-behaviour", "location_type": "Force", "location": {"latitude": "53.364197", "street": {"id": 1712401, "name": "On or near Greystones Road"}, "longitude": "-1.516942"}, "context": "", "outcome_status": null, "persistent_id": "", "id": 126229978, "location_subtype": "", "month": "2025-02"}, {"category": "anti-social-behaviour", "location_type": "Force", "location": {"latitude": "53.351023", "street": {"id": 1714466, "name": "On or near Norton Hammer Lane"}, "longitude": "-1.483440"}, "context": "", "outcome_status": null, "persistent_id": "", "id": 126229985, "location_subtype": "", "month": "2025-02"}, {"category": "anti-social-behaviour", "location_type": "Force", "location": {"latitude": "53.421596", "street": {"id": 1716826, "name": "On or near Etwall Way"}, "longitude": "-1.453844"}, "context": "", "outcome_status": null, "persistent_id": "", "id": 126233567, "location_subtype": "", "month": "2025-02"}, {"category": "anti-social-behaviour", "location_type": "Force", "location": {"latitude": "53.375137", "street": {"id": 1714562, "name": "On or near Hanover Street"}, "longitude": "-1.482802"}, "context": "", "outcome_status": null, "persistent_id": "", "id": 126229986, "location_subtype": "", "month": "2025-02"}, {"category": "anti-social-behaviour", "location_type": "Force", "location": {"latitude": "53.396207", "street": {"id": 1717853, "name": "On or near Five Weirs Walk"}, "longitude": "-1.435416"}, "context": "", "outcome_status": null, "persistent_id": "", "id": 126232647, "location_subtype": "", "month": "2025-02"}, {"category": "anti-social-behaviour", "location_type": "Force", "location": {"latitude": "53.378823", "street": {"id": 1714658, "name": "On or near Conference/exhibition Centre"}, "longitude": "-1.481218"}, "context": "", "outcome_status": null, "persistent_id": "", "id": 126229988, "location_subtype": "", "month": "2025-02"}, {"category": "anti-social-behaviour", "location_type": "Force", "location": {"latitude": "53.384735", "street": {"id": 1714739, "name": "On or near Brownell Street"}, "longitude": "-1.480401"}, "context": "", "outcome_status": null, "persistent_id": "", "id": 126229989, "location_subtype": "", "month": "2025-02"}, {"category": "anti-social-behaviour", "location_type": "Force", "location": {"latitude": "53.457510", "street": {"id": 1717252, "name": "On or near Hesley Bar"}, "longitude": "-1.443158"}, "context": "", "outcome_status": null, "persistent_id": "", "id": 126232646, "location_subtype": "", "month": "2025-02"}, {"category": "anti-social-behaviour", "location_type": "Force", "location": {"latitude": "53.340232", "street": {"id": 1714730, "name": "On or near Osmaston Road"}, "longitude": "-1.480341"}, "context": "", "outcome_status": null, "persistent_id": "", "id": 126229990, "location_subtype": "", "month": "2025-02"}, {"category": "anti-social-behaviour", "location_type": "Force", "location": {"latitude": "53.378618", "street": {"id": 1715762, "name": "On or near Parking Area"}, "longitude": "-1.469066"}, "context": "", "outcome_status": null, "persistent_id": "", "id": 126229994, "location_subtype": "", "month": "2025-02"}, {"category": "anti-social-behaviour", "location_type": "Force", "location": {"latitude": "53.362272", "street": {"id": 1715834, "name": "On or near Anns Road"}, "longitude": "-1.468022"}, "context": "", "outcome_status": null, "persistent_id": "", "id": 126229995, "location_subtype": "", "month": "2025-02"}, {"category": "anti-social-behaviour", "location_type": "Force", "location": {"latitude": "53.461294", "street": {"id": 1716022, "name": "On or near Smith Street"}, "longitude": "-1.466785"}, "context": "", "outcome_status": null, "persistent_id": "", "id": 126229996, "location_subtype": "", "month": "2025-02"}, {"category": "anti-social-behaviour", "location_type": "Force", "location": {"latitude": "53.383629", "street": {"id": 1716093, "name": "On or near Angel Street"}, "longitude": "-1.465952"}, "context": "", "outcome_status": null, "persistent_id": "", "id": 126229997, "location_subtype": "", "month": "2025-02"}, {"category": "anti-social-behaviour", "location_type": "Force", "location": {"latitude": "53.461650", "street": {"id": 1715968, "name": "On or near Market Place"}, "longitude": "-1.465832"}, "context": "", "outcome_status": null, "persistent_id": "", "id": 126229998, "location_subtype": "", "month": "2025-02"}, {"category": "anti-social-behaviour", "location_type": "Force", "location": {"latitude": "53.398246", "street": {"id": 1717498, "name": "On or near Atlas Way"}, "longitude": "-1.442758"}, "context": "", "outcome_status": null, "persistent_id": "", "id": 126229999, "location_subtype": "", "month": "2025-02"}, {"category": "anti-social-behaviour", "location_type": "Force", "location": {"latitude": "53.389336", "street": {"id": 1714421, "name": "On or near Upperthorpe Road"}, "longitude": "-1.484179"}, "context": "", "outcome_status": null, "persistent_id": "", "id": 126233976, "location_subtype": "", "month": "2025-02"}, {"category": "anti-social-behaviour", "location_type": "Force", "location": {"latitude": "53.445370", "street": {"id": 1719583, "name": "On or near Binders Road"}, "longitude": "-1.395755"}, "context": "", "outcome_status": null, "persistent_id": "", "id": 126230002, "location_subtype": "", "month": "2025-02"}, {"category": "anti-social-behaviour", "location_type": "Force", "location": {"latitude": "53.371553", "street": {"id": 1719731, "name": "On or near Parsley Hay Road"}, "longitude": "-1.391779"}, "context": "", "outcome_status": null, "persistent_id": "", "id": 126230003, "location_subtype": "", "month": "2025-02"}, {"category": "anti-social-behaviour", "location_type": "Force", "location": {"latitude": "53.333201", "street": {"id": 1720238, "name": "On or near Parkgate Croft"}, "longitude": "-1.380207"}, "context": "", "outcome_status": null, "persistent_id": "", "id": 126230004, "location_subtype": "", "month": "2025-02"}, {"category": "anti-social-behaviour", "location_type": "Force", "location": {"latitude": "53.344313", "street": {"id": 1720547, "name": "On or near Brookhouse Court"}, "longitude": "-1.373662"}, "context": "", "outcome_status": null, "persistent_id": "", "id": 126230005, "location_subtype": "", "month": "2025-02"}, {"category": "anti-social-behaviour", "location_type": "Force", "location": {"latitude": "53.333197", "street": {"id": 1721448, "name": "On or near Pedley Avenue"}, "longitude": "-1.352366"}, "context": "", "outcome_status": null, "persistent_id": "", "id": 126230006, "location_subtype": "", "month": "2025-02"}, {"category": "anti-social-behaviour", "location_type": "Force", "location": {"latitude": "53.426928", "street": {"id": 1721806, "name": "On or near Carrington Street"}, "longitude": "-1.345089"}, "context": "", "outcome_status": null, "persistent_id": "", "id": 126230007, "location_subtype": "", "month": "2025-02"}, {"category": "anti-social-behaviour", "location_type": "Force", "location": {"latitude": "53.368026", "street": {"id": 1718936, "name": "On or near Angleton Gardens"}, "longitude": "-1.412795"}, "context": "", "outcome_status": null, "persistent_id": "", "id": 126235374, "location_subtype": "", "month": "2025-02"}, {"category": "anti-social-behaviour", "location_type": "Force", "location": {"latitude": "53.402333", "street": {"id": 1715849, "name": "On or near Firshill Croft"}, "longitude": "-1.467778"}, "context": "", "outcome_status": null, "persistent_id": "", "id": 126231272, "location_subtype": "", "month": "2025-02"}, {"category": "anti-social-behaviour", "location_type": "Force", "location": {"latitude": "53.423625", "street": {"id": 1710596, "name": "On or near Dale Road"}, "longitude": "-1.628799"}, "context": "", "outcome_status": null, "persistent_id": "", "id": 126230443, "location_subtype": "", "month": "2025-02"}, {"category": "anti-social-behaviour", "location_type": "Force", "location": {"latitude": "53.361998", "street": {"id": 1712760, "name": "On or near Blair Athol Road"}, "longitude": "-1.509138"}, "context": "", "outcome_status": null, "persistent_id": "", "id": 126230445, "location_subtype": "", "month": "2025-02"}, {"category": "anti-social-behaviour", "location_type": "Force", "location": {"latitude": "53.347820", "street": {"id": 1712867, "name": "On or near Eltham Croft"}, "longitude": "-1.506101"}, "context": "", "outcome_status": null, "persistent_id": "", "id": 126230446, "location_subtype": "", "month": "2025-02"}, {"category": "anti-social-behaviour", "location_type": "Force", "location": {"latitude": "53.369089", "street": {"id": 1713646, "name": "On or near Ecclesall Road"}, "longitude": "-1.495936"}, "context": "", "outcome_status": null, "persistent_id": "", "id": 126230447, "location_subtype": "", "month": "2025-02"}, {"category": "anti-social-behaviour", "location_type": "Force", "location": {"latitude": "53.426855", "street": {"id": 1714551, "name": "On or near Buchanan Crescent"}, "longitude": "-1.482266"}, "context": "", "outcome_status": null, "persistent_id": "", "id": 126230451, "location_subtype": "", "month": "2025-02"}, {"category": "anti-social-behaviour", "location_type": "Force", "location": {"latitude": "53.371599", "street": {"id": 1713174, "name": "On or near Oakholme Mews"}, "longitude": "-1.502670"}, "context": "", "outcome_status": null, "persistent_id": "", "id": 126233081, "location_subtype": "", "month": "2025-02"}, {"category": "anti-social-behaviour", "location_type": "Force", "location": {"latitude": "53.373150", "street": {"id": 1714569, "name": "On or near Petrol Station"}, "longitude": "-1.482824"}, "context": "", "outcome_status": null, "persistent_id": "", "id": 126230453, "location_subtype": "", "month": "2025-02"}, {"category": "anti-social-behaviour", "location_type": "Force", "location": {"latitude": "53.430037", "street": {"id": 1714144, "name": "On or near Deerlands Mount"}, "longitude": "-1.488473"}, "context": "", "outcome_status": null, "persistent_id": "", "id": 126233975, "location_subtype": "", "month": "2025-02"}, {"category": "anti-social-behaviour", "location_type": "Force", "location": {"latitude": "53.390258", "street": {"id": 1714944, "name": "On or near Cornish Street"}, "longitude": "-1.477131"}, "context": "", "outcome_status": null, "persistent_id": "", "id": 126230456, "location_subtype": "", "month": "2025-02"}, {"category": "anti-social-behaviour", "location_type": "Force", "location": {"latitude": "53.329077", "street": {"id": 1715568, "name": "On or near Little Norton Way"}, "longitude": "-1.472128"}, "context": "", "outcome_status": null, "persistent_id": "", "id": 126230458, "location_subtype": "", "month": "2025-02"}, {"category": "anti-social-behaviour", "location_type": "Force", "location": {"latitude": "53.434664", "street": {"id": 1715484, "name": "On or near Sports/recreation Area"}, "longitude": "-1.471107"}, "context": "", "outcome_status": null, "persistent_id": "", "id": 126230459, "location_subtype": "", "month": "2025-02"}, {"category": "anti-social-behaviour", "location_type": "Force", "location": {"latitude": "53.381171", "street": {"id": 1715659, "name": "On or near Conference/exhibition Centre"}, "longitude": "-1.471064"}, "context": "", "outcome_status": null, "persistent_id": "", "id": 126230460, "location_subtype": "", "month": "2025-02"}, {"category": "anti-social-behaviour", "location_type": "Force", "location": {"latitude": "53.383252", "street": {"id": 1713280, "name": "On or near Glebe Road"}, "longitude": "-1.501587"}, "context": "", "outcome_status": null, "persistent_id": "", "id": 126233082, "location_subtype": "", "month": "2025-02"}, {"category": "anti-social-behaviour", "location_type": "Force", "location": {"latitude": "53.371756", "street": {"id": 1715730, "name": "On or near Baron Street"}, "longitude": "-1.470203"}, "context": "", "outcome_status": null, "persistent_id": "", "id": 126230461, "location_subtype": "", "month": "2025-02"}, {"category": "anti-social-behaviour", "location_type": "Force", "location": {"latitude": "53.327724", "street": {"id": 1715868, "name": "On or near Shopping Area"}, "longitude": "-1.467567"}, "context": "", "outcome_status": null, "persistent_id": "", "id": 126230462, "location_subtype": "", "month": "2025-02"}, {"category": "anti-social-behaviour", "location_type": "Force", "location": {"latitude": "53.385474", "street": {"id": 1714255, "name": "On or near St Stephen's Walk"}, "longitude": "-1.487052"}, "context": "", "outcome_status": null, "persistent_id": "", "id": 126233083, "location_subtype": "", "month": "2025-02"}, {"category": "anti-social-behaviour", "location_type": "Force", "location": {"latitude": "53.344200", "street": {"id": 1721056, "name": "On or near Petrol Station"}, "longitude": "-1.360282"}, "context": "", "outcome_status": null, "persistent_id": "", "id": 126230481, "location_subtype": "", "month": "2025-02"}, {"category": "anti-social-behaviour", "location_type": "Force", "location": {"latitude": "53.459297", "street": {"id": 1721858, "name": "On or near Bellows Close"}, "longitude": "-1.343506"}, "context": "", "outcome_status": null, "persistent_id": "", "id": 126230482, "location_subtype": "", "month": "2025-02"}, {"category": "anti-social-behaviour", "location_type": "Force", "location": {"latitude": "53.354530", "street": {"id": 1719131, "name": "On or near Wadsworth Road"}, "longitude": "-1.408308"}, "context": "", "outcome_status": null, "persistent_id": "", "id": 126235375, "location_subtype": "", "month": "2025-02"}, {"category": "anti-social-behaviour", "location_type": "Force", "location": {"latitude": "53.366450", "street": {"id": 1719553, "name": "On or near Ravenscroft Crescent"}, "longitude": "-1.395910"}, "context": "", "outcome_status": null, "persistent_id": "", "id": 126235376, "location_subtype": "", "month": "2025-02"}, {"category": "anti-social-behaviour", "location_type": "Force", "location": {"latitude": "53.390176", "street": {"id": 1713940, "name": "On or near Birkendale Road"}, "longitude": "-1.491567"}, "context": "", "outcome_status": null, "persistent_id": "", "id": 126233974, "location_subtype": "", "month": "2025-02"}, {"category": "anti-social-behaviour", "location_type": "Force", "location": {"latitude": "53.356711", "street": {"id": 1717998, "name": "On or near Hurlfield Road"}, "longitude": "-1.433489"}, "context": "", "outcome_status": null, "persistent_id": "", "id": 126231282, "location_subtype": "", "month": "2025-02"}, {"category": "anti-social-behaviour", "location_type": "Force", "location": {"latitude": "53.352214", "street": {"id": 1722403, "name": "On or near Park/open Space"}, "longitude": "-1.324210"}, "context": "", "outcome_status": null, "persistent_id": "", "id": 126232266, "location_subtype": "", "month": "2025-02"}, {"category": "anti-social-behaviour", "location_type": "Force", "location": {"latitude": "53.360117", "street": {"id": 1718237, "name": "On or near Parking Area"}, "longitude": "-1.427749"}, "context": "", "outcome_status": null, "persistent_id": "", "id": 126231284, "location_subtype": "", "month": "2025-02"}, {"category": "anti-social-behaviour", "location_type": "Force", "location": {"latitude": "53.443226", "street": {"id": 1722686, "name": "On or near Petrol Station"}, "longitude": "-1.321261"}, "context": "", "outcome_status": null, "persistent_id": "", "id": 126232265, "location_subtype": "", "month": "2025-02"}, {"category": "anti-social-behaviour", "location_type": "Force", "location": {"latitude": "53.346139", "street": {"id": 1718178, "name": "On or near Little Wood Road"}, "longitude": "-1.429528"}, "context": "", "outcome_status": null, "persistent_id": "", "id": 126231285, "location_subtype": "", "month": "2025-02"}, {"category": "anti-social-behaviour", "location_type": "Force", "location": {"latitude": "53.396759", "street": {"id": 1718513, "name": "On or near Sports/recreation Area"}, "longitude": "-1.417442"}, "context": "", "outcome_status": null, "persistent_id": "", "id": 126231286, "location_subtype": "", "month": "2025-02"}, {"category": "anti-social-behaviour", "location_type": "Force", "location": {"latitude": "53.442320", "street": {"id": 1719663, "name": "On or near Byrley Road"}, "longitude": "-1.393389"}, "context": "", "outcome_status": null, "persistent_id": "", "id": 126231287, "location_subtype": "", "month": "2025-02"}, {"category": "anti-social-behaviour", "location_type": "Force", "location": {"latitude": "53.371949", "street": {"id": 1719871, "name": "On or near Hendon Street"}, "longitude": "-1.386679"}, "context": "", "outcome_status": null, "persistent_id": "", "id": 126231289, "location_subtype": "", "month": "2025-02"}, {"category": "anti-social-behaviour", "location_type": "Force", "location": {"latitude": "53.424713", "street": {"id": 1722489, "name": "On or near Swinburne Place"}, "longitude": "-1.326613"}, "context": "", "outcome_status": null, "persistent_id": "", "id": 126232263, "location_subtype": "", "month": "2025-02"}, {"category": "anti-social-behaviour", "location_type": "Force", "location": {"latitude": "53.433903", "street": {"id": 1722184, "name": "On or near Oxford Street"}, "longitude": "-1.336823"}, "context": "", "outcome_status": null, "persistent_id": "", "id": 126232262, "location_subtype": "", "month": "2025-02"}, {"category": "anti-social-behaviour", "location_type": "Force", "location": {"latitude": "53.383806", "street": {"id": 1717512, "name": "On or near Shopping Area"}, "longitude": "-1.443835"}, "context": "", "outcome_status": null, "persistent_id": "", "id": 126230872, "location_subtype": "", "month": "2025-02"}, {"category": "anti-social-behaviour", "location_type": "Force", "location": {"latitude": "53.345229", "street": {"id": 1721943, "name": "On or near Newbould Crescent"}, "longitude": "-1.340047"}, "context": "", "outcome_status": null, "persistent_id": "", "id": 126232261, "location_subtype": "", "month": "2025-02"}, {"category": "anti-social-behaviour", "location_type": "Force", "location": {"latitude": "53.352036", "street": {"id": 1717932, "name": "On or near Park/open Space"}, "longitude": "-1.433746"}, "context": "", "outcome_status": null, "persistent_id": "", "id": 126230873, "location_subtype": "", "month": "2025-02"}, {"category": "anti-social-behaviour", "location_type": "Force", "location": {"latitude": "53.375226", "street": {"id": 1718129, "name": "On or near Supermarket"}, "longitude": "-1.429441"}, "context": "", "outcome_status": null, "persistent_id": "", "id": 126230874, "location_subtype": "", "month": "2025-02"}, {"category": "anti-social-behaviour", "location_type": "Force", "location": {"latitude": "53.379536", "street": {"id": 1718686, "name": "On or near Mather Road"}, "longitude": "-1.417221"}, "context": "", "outcome_status": null, "persistent_id": "", "id": 126230875, "location_subtype": "", "month": "2025-02"}, {"category": "anti-social-behaviour", "location_type": "Force", "location": {"latitude": "53.347781", "street": {"id": 1718709, "name": "On or near Jaunty Way"}, "longitude": "-1.417745"}, "context": "", "outcome_status": null, "persistent_id": "", "id": 126230876, "location_subtype": "", "month": "2025-02"}, {"category": "anti-social-behaviour", "location_type": "Force", "location": {"latitude": "53.377639", "street": {"id": 1719043, "name": "On or near Bowden Wood Crescent"}, "longitude": "-1.409806"}, "context": "", "outcome_status": null, "persistent_id": "", "id": 126230877, "location_subtype": "", "month": "2025-02"}, {"category": "anti-social-behaviour", "location_type": "Force", "location": {"latitude": "53.355471", "street": {"id": 1719756, "name": "On or near Normanton Spring Close"}, "longitude": "-1.391603"}, "context": "", "outcome_status": null, "persistent_id": "", "id": 126230878, "location_subtype": "", "month": "2025-02"}, {"category": "anti-social-behaviour", "location_type": "Force", "location": {"latitude": "53.340358", "street": {"id": 1720765, "name": "On or near Edenthorpe Grove"}, "longitude": "-1.368568"}, "context": "", "outcome_status": null, "persistent_id": "", "id": 126230879, "location_subtype": "", "month": "2025-02"}, {"category": "anti-social-behaviour", "location_type": "Force", "location": {"latitude": "53.344200", "street": {"id": 1721056, "name": "On or near Petrol Station"}, "longitude": "-1.360282"}, "context": "", "outcome_status": null, "persistent_id": "", "id": 126230880, "location_subtype": "", "month": "2025-02"}, {"category": "anti-social-behaviour", "location_type": "Force", "location": {"latitude": "53.425016", "street": {"id": 1721219, "name": "On or near The Maltings"}, "longitude": "-1.357052"}, "context": "", "outcome_status": null, "persistent_id": "", "id": 126230881, "location_subtype": "", "month": "2025-02"}, {"category": "anti-social-behaviour", "location_type": "Force", "location": {"latitude": "53.433833", "street": {"id": 1721396, "name": "On or near Supermarket"}, "longitude": "-1.353592"}, "context": "", "outcome_status": null, "persistent_id": "", "id": 126230882, "location_subtype": "", "month": "2025-02"}, {"category": "anti-social-behaviour", "location_type": "Force", "location": {"latitude": "53.422584", "street": {"id": 1713776, "name": "On or near Supermarket"}, "longitude": "-1.491846"}, "context": "", "outcome_status": null, "persistent_id": "", "id": 126233972, "location_subtype": "", "month": "2025-02"}, {"category": "anti-social-behaviour", "location_type": "Force", "location": {"latitude": "53.433236", "street": {"id": 1715713, "name": "On or near Wheata Place"}, "longitude": "-1.469770"}, "context": "", "outcome_status": null, "persistent_id": "", "id": 126233091, "location_subtype": "", "month": "2025-02"}, {"category": "anti-social-behaviour", "location_type": "Force", "location": {"latitude": "53.376911", "street": {"id": 1715709, "name": "On or near Eyre Lane"}, "longitude": "-1.469207"}, "context": "", "outcome_status": null, "persistent_id": "", "id": 126233092, "location_subtype": "", "month": "2025-02"}, {"category": "anti-social-behaviour", "location_type": "Force", "location": {"latitude": "53.403818", "street": {"id": 1713091, "name": "On or near Brier Street"}, "longitude": "-1.503603"}, "context": "", "outcome_status": null, "persistent_id": "", "id": 126236693, "location_subtype": "", "month": "2025-02"}, {"category": "anti-social-behaviour", "location_type": "Force", "location": {"latitude": "53.415108", "street": {"id": 1713281, "name": "On or near Petrol Station"}, "longitude": "-1.501621"}, "context": "", "outcome_status": null, "persistent_id": "", "id": 126236694, "location_subtype": "", "month": "2025-02"}, {"category": "anti-social-behaviour", "location_type": "Force", "location": {"latitude": "53.413328", "street": {"id": 1713914, "name": "On or near Scraith Wood Drive"}, "longitude": "-1.488779"}, "context": "", "outcome_status": null, "persistent_id": "", "id": 126236696, "location_subtype": "", "month": "2025-02"}, {"category": "anti-social-behaviour", "location_type": "Force", "location": {"latitude": "53.313134", "street": {"id": 1711821, "name": "On or near Green Oak Avenue"}, "longitude": "-1.533278"}, "context": "", "outcome_status": null, "persistent_id": "", "id": 126232210, "location_subtype": "", "month": "2025-02"}, {"category": "anti-social-behaviour", "location_type": "Force", "location": {"latitude": "53.401371", "street": {"id": 1713139, "name": "On or near Holme Close"}, "longitude": "-1.503225"}, "context": "", "outcome_status": null, "persistent_id": "", "id": 126231706, "location_subtype": "", "month": "2025-02"}, {"category": "anti-social-behaviour", "location_type": "Force", "location": {"latitude": "53.380686", "street": {"id": 1713909, "name": "On or near Damer Street"}, "longitude": "-1.491875"}, "context": "", "outcome_status": null, "persistent_id": "", "id": 126231707, "location_subtype": "", "month": "2025-02"}, {"category": "anti-social-behaviour", "location_type": "Force", "location": {"latitude": "53.437087", "street": {"id": 1721730, "name": "On or near Selwyn Street"}, "longitude": "-1.346965"}, "context": "", "outcome_status": null, "persistent_id": "", "id": 126233114, "location_subtype": "", "month": "2025-02"}, {"category": "anti-social-behaviour", "location_type": "Force", "location": {"latitude": "53.359264", "street": {"id": 1714094, "name": "On or near Violet Bank Road"}, "longitude": "-1.489365"}, "context": "", "outcome_status": null, "persistent_id": "", "id": 126231708, "location_subtype": "", "month": "2025-02"}, {"category": "anti-social-behaviour", "location_type": "Force", "location": {"latitude": "53.429949", "street": {"id": 1721167, "name": "On or near Domine Lane"}, "longitude": "-1.358392"}, "context": "", "outcome_status": null, "persistent_id": "", "id": 126234012, "location_subtype": "", "month": "2025-02"}, {"category": "anti-social-behaviour", "location_type": "Force", "location": {"latitude": "53.389382", "street": {"id": 1714567, "name": "On or near Supermarket"}, "longitude": "-1.482510"}, "context": "", "outcome_status": null, "persistent_id": "", "id": 126231709, "location_subtype": "", "month": "2025-02"}, {"category": "anti-social-behaviour", "location_type": "Force", "location": {"latitude": "53.379899", "street": {"id": 1714975, "name": "On or near Parking Area"}, "longitude": "-1.478325"}, "context": "", "outcome_status": null, "persistent_id": "", "id": 126231712, "location_subtype": "", "month": "2025-02"}, {"category": "anti-social-behaviour", "location_type": "Force", "location": {"latitude": "53.369509", "street": {"id": 1715051, "name": "On or near Bennett Street"}, "longitude": "-1.476558"}, "context": "", "outcome_status": null, "persistent_id": "", "id": 126231713, "location_subtype": "", "month": "2025-02"}, {"category": "anti-social-behaviour", "location_type": "Force", "location": {"latitude": "53.383505", "street": {"id": 1715711, "name": "On or near Campo Lane"}, "longitude": "-1.470478"}, "context": "", "outcome_status": null, "persistent_id": "", "id": 126231715, "location_subtype": "", "month": "2025-02"}, {"category": "anti-social-behaviour", "location_type": "Force", "location": {"latitude": "53.381809", "street": {"id": 1715708, "name": "On or near Shopping Area"}, "longitude": "-1.468581"}, "context": "", "outcome_status": null, "persistent_id": "", "id": 126233093, "location_subtype": "", "month": "2025-02"}, {"category": "anti-social-behaviour", "location_type": "Force", "location": {"latitude": "53.381892", "street": {"id": 1716577, "name": "On or near Anson Street"}, "longitude": "-1.459464"}, "context": "", "outcome_status": null, "persistent_id": "", "id": 126231722, "location_subtype": "", "month": "2025-02"}, {"category": "anti-social-behaviour", "location_type": "Force", "location": {"latitude": "53.346139", "street": {"id": 1718178, "name": "On or near Little Wood Road"}, "longitude": "-1.429528"}, "context": "", "outcome_status": null, "persistent_id": "", "id": 126231728, "location_subtype": "", "month": "2025-02"}, {"category": "anti-social-behaviour", "location_type": "Force", "location": {"latitude": "53.325127", "street": {"id": 1721883, "name": "On or near Supermarket"}, "longitude": "-1.342894"}, "context": "", "outcome_status": null, "persistent_id": "", "id": 126232260, "location_subtype": "", "month": "2025-02"}, {"category": "anti-social-behaviour", "location_type": "Force", "location": {"latitude": "53.357661", "street": {"id": 1718505, "name": "On or near Foxwood Road"}, "longitude": "-1.421652"}, "context": "", "outcome_status": null, "persistent_id": "", "id": 126231729, "location_subtype": "", "month": "2025-02"}, {"category": "anti-social-behaviour", "location_type": "Force", "location": {"latitude": "53.374266", "street": {"id": 1718777, "name": "On or near Sheffield Parkway Services"}, "longitude": "-1.414888"}, "context": "", "outcome_status": null, "persistent_id": "", "id": 126231730, "location_subtype": "", "month": "2025-02"}, {"category": "anti-social-behaviour", "location_type": "Force", "location": {"latitude": "53.430929", "street": {"id": 1721272, "name": "On or near Vicarage Lane"}, "longitude": "-1.355277"}, "context": "", "outcome_status": null, "persistent_id": "", "id": 126233113, "location_subtype": "", "month": "2025-02"}, {"category": "anti-social-behaviour", "location_type": "Force", "location": {"latitude": "53.323113", "street": {"id": 1721484, "name": "On or near Borrowdale Avenue"}, "longitude": "-1.350927"}, "context": "", "outcome_status": null, "persistent_id": "", "id": 126232258, "location_subtype": "", "month": "2025-02"}, {"category": "anti-social-behaviour", "location_type": "Force", "location": {"latitude": "53.361017", "street": {"id": 1719438, "name": "On or near Richmond Hill Road"}, "longitude": "-1.400419"}, "context": "", "outcome_status": null, "persistent_id": "", "id": 126231731, "location_subtype": "", "month": "2025-02"}, {"category": "anti-social-behaviour", "location_type": "Force", "location": {"latitude": "53.357813", "street": {"id": 1720826, "name": "On or near Meetinghouse Lane"}, "longitude": "-1.366703"}, "context": "", "outcome_status": null, "persistent_id": "", "id": 126232257, "location_subtype": "", "month": "2025-02"}, {"category": "anti-social-behaviour", "location_type": "Force", "location": {"latitude": "53.418759", "street": {"id": 1719595, "name": "On or near Deadman's Hole Lane"}, "longitude": "-1.392972"}, "context": "", "outcome_status": null, "persistent_id": "", "id": 126231732, "location_subtype": "", "month": "2025-02"}, {"category": "anti-social-behaviour", "location_type": "Force", "location": {"latitude": "53.344200", "street": {"id": 1721056, "name": "On or near Petrol Station"}, "longitude": "-1.360282"}, "context": "", "outcome_status": null, "persistent_id": "", "id": 126231741, "location_subtype": "", "month": "2025-02"}, {"category": "anti-social-behaviour", "location_type": "Force", "location": {"latitude": "53.430025", "street": {"id": 1720403, "name": "On or near Devonshire Street"}, "longitude": "-1.376316"}, "context": "", "outcome_status": null, "persistent_id": "", "id": 126232256, "location_subtype": "", "month": "2025-02"}, {"category": "anti-social-behaviour", "location_type": "Force", "location": {"latitude": "53.428012", "street": {"id": 1721274, "name": "On or near Down's Row"}, "longitude": "-1.355908"}, "context": "", "outcome_status": null, "persistent_id": "", "id": 126231742, "location_subtype": "", "month": "2025-02"}, {"category": "anti-social-behaviour", "location_type": "Force", "location": {"latitude": "53.425715", "street": {"id": 1721669, "name": "On or near Harehills Road"}, "longitude": "-1.346838"}, "context": "", "outcome_status": null, "persistent_id": "", "id": 126231743, "location_subtype": "", "month": "2025-02"}, {"category": "anti-social-behaviour", "location_type": "Force", "location": {"latitude": "53.325127", "street": {"id": 1721883, "name": "On or near Supermarket"}, "longitude": "-1.342894"}, "context": "", "outcome_status": null, "persistent_id": "", "id": 126231744, "location_subtype": "", "month": "2025-02"}, {"category": "anti-social-behaviour", "location_type": "Force", "location": {"latitude": "53.461650", "street": {"id": 1715968, "name": "On or near Market Place"}, "longitude": "-1.465832"}, "context": "", "outcome_status": null, "persistent_id": "", "id": 126233094, "location_subtype": "", "month": "2025-02"}, {"category": "anti-social-behaviour", "location_type": "Force", "location": {"latitude": "53.358291", "street": {"id": 1720215, "name": "On or near Bishop Hill"}, "longitude": "-1.378956"}, "context": "", "outcome_status": null, "persistent_id": "", "id": 126232255, "location_subtype": "", "month": "2025-02"}, {"category": "anti-social-behaviour", "location_type": "Force", "location": {"latitude": "53.340073", "street": {"id": 1720133, "name": "On or near Ravenfield Close"}, "longitude": "-1.381068"}, "context": "", "outcome_status": null, "persistent_id": "", "id": 126232254, "location_subtype": "", "month": "2025-02"}, {"category": "anti-social-behaviour", "location_type": "Force", "location": {"latitude": "53.463309", "street": {"id": 1722385, "name": "On or near Pottery Lane"}, "longitude": "-1.331108"}, "context": "", "outcome_status": null, "persistent_id": "", "id": 126231745, "location_subtype": "", "month": "2025-02"}, {"category": "anti-social-behaviour", "location_type": "Force", "location": {"latitude": "53.396399", "street": {"id": 1718754, "name": "On or near Stovin Drive"}, "longitude": "-1.415563"}, "context": "", "outcome_status": null, "persistent_id": "", "id": 126232251, "location_subtype": "", "month": "2025-02"}, {"category": "anti-social-behaviour", "location_type": "Force", "location": {"latitude": "53.392789", "street": {"id": 1712017, "name": "On or near Wellington Road"}, "longitude": "-1.528032"}, "context": "", "outcome_status": null, "persistent_id": "", "id": 126236275, "location_subtype": "", "month": "2025-02"}, {"category": "anti-social-behaviour", "location_type": "Force", "location": {"latitude": "53.337586", "street": {"id": 1718483, "name": "On or near Arnold Avenue"}, "longitude": "-1.421052"}, "context": "", "outcome_status": null, "persistent_id": "", "id": 126232250, "location_subtype": "", "month": "2025-02"}, {"category": "anti-social-behaviour", "location_type": "Force", "location": {"latitude": "53.396040", "street": {"id": 1714831, "name": "On or near Douglas Road"}, "longitude": "-1.477722"}, "context": "", "outcome_status": null, "persistent_id": "", "id": 126232224, "location_subtype": "", "month": "2025-02"}, {"category": "anti-social-behaviour", "location_type": "Force", "location": {"latitude": "53.469365", "street": {"id": 1715092, "name": "On or near Lane End"}, "longitude": "-1.476687"}, "context": "", "outcome_status": null, "persistent_id": "", "id": 126232223, "location_subtype": "", "month": "2025-02"}, {"category": "anti-social-behaviour", "location_type": "Force", "location": {"latitude": "53.371310", "street": {"id": 1714858, "name": "On or near Cliff Street"}, "longitude": "-1.479257"}, "context": "", "outcome_status": null, "persistent_id": "", "id": 126232222, "location_subtype": "", "month": "2025-02"}, {"category": "anti-social-behaviour", "location_type": "Force", "location": {"latitude": "53.405645", "street": {"id": 1716455, "name": "On or near Crabtree Road"}, "longitude": "-1.460667"}, "context": "", "outcome_status": null, "persistent_id": "", "id": 126233096, "location_subtype": "", "month": "2025-02"}, {"category": "anti-social-behaviour", "location_type": "Force", "location": {"latitude": "53.357235", "street": {"id": 1717392, "name": "On or near Daresbury View"}, "longitude": "-1.445547"}, "context": "", "outcome_status": null, "persistent_id": "", "id": 126233097, "location_subtype": "", "month": "2025-02"}, {"category": "anti-social-behaviour", "location_type": "Force", "location": {"latitude": "53.431235", "street": {"id": 1717636, "name": "On or near Supermarket"}, "longitude": "-1.440852"}, "context": "", "outcome_status": null, "persistent_id": "", "id": 126233098, "location_subtype": "", "month": "2025-02"}, {"category": "anti-social-behaviour", "location_type": "Force", "location": {"latitude": "53.405627", "street": {"id": 1718720, "name": "On or near Park/open Space"}, "longitude": "-1.409314"}, "context": "", "outcome_status": null, "persistent_id": "", "id": 126233103, "location_subtype": "", "month": "2025-02"}, {"category": "anti-social-behaviour", "location_type": "Force", "location": {"latitude": "53.383871", "street": {"id": 1719359, "name": "On or near High Hazels Mead"}, "longitude": "-1.401316"}, "context": "", "outcome_status": null, "persistent_id": "", "id": 126233106, "location_subtype": "", "month": "2025-02"}, {"category": "anti-social-behaviour", "location_type": "Force", "location": {"latitude": "53.431910", "street": {"id": 1721188, "name": "On or near Bridgegate"}, "longitude": "-1.357098"}, "context": "", "outcome_status": null, "persistent_id": "", "id": 126233112, "location_subtype": "", "month": "2025-02"}, {"category": "anti-social-behaviour", "location_type": "Force", "location": {"latitude": "53.377229", "street": {"id": 1719485, "name": "On or near A630"}, "longitude": "-1.397922"}, "context": "", "outcome_status": null, "persistent_id": "", "id": 126233108, "location_subtype": "", "month": "2025-02"}, {"category": "anti-social-behaviour", "location_type": "Force", "location": {"latitude": "53.432974", "street": {"id": 1720456, "name": "On or near Park Street"}, "longitude": "-1.372841"}, "context": "", "outcome_status": null, "persistent_id": "", "id": 126234011, "location_subtype": "", "month": "2025-02"}, {"category": "anti-social-behaviour", "location_type": "Force", "location": {"latitude": "53.444532", "street": {"id": 1719984, "name": "On or near Stubbs Crescent"}, "longitude": "-1.384866"}, "context": "", "outcome_status": null, "persistent_id": "", "id": 126233110, "location_subtype": "", "month": "2025-02"}, {"category": "anti-social-behaviour", "location_type": "Force", "location": {"latitude": "53.447991", "street": {"id": 1721756, "name": "On or near Rail Mill Way"}, "longitude": "-1.343831"}, "context": "", "outcome_status": null, "persistent_id": "", "id": 126233115, "location_subtype": "", "month": "2025-02"}, {"category": "anti-social-behaviour", "location_type": "Force", "location": {"latitude": "53.428108", "street": {"id": 1714149, "name": "On or near Supermarket"}, "longitude": "-1.487202"}, "context": "", "outcome_status": null, "persistent_id": "", "id": 126235345, "location_subtype": "", "month": "2025-02"}, {"category": "anti-social-behaviour", "location_type": "Force", "location": {"latitude": "53.429887", "street": {"id": 1714883, "name": "On or near Milnrow Road"}, "longitude": "-1.478872"}, "context": "", "outcome_status": null, "persistent_id": "", "id": 126235347, "location_subtype": "", "month": "2025-02"}, {"category": "anti-social-behaviour", "location_type": "Force", "location": {"latitude": "53.362831", "street": {"id": 1722871, "name": "On or near The Beeches"}, "longitude": "-1.316529"}, "context": "", "outcome_status": null, "persistent_id": "", "id": 126233118, "location_subtype": "", "month": "2025-02"}, {"category": "anti-social-behaviour", "location_type": "Force", "location": {"latitude": "53.380913", "street": {"id": 1715181, "name": "On or near West Street"}, "longitude": "-1.475847"}, "context": "", "outcome_status": null, "persistent_id": "", "id": 126235348, "location_subtype": "", "month": "2025-02"}, {"category": "anti-social-behaviour", "location_type": "Force", "location": {"latitude": "53.374563", "street": {"id": 1719247, "name": "On or near Richmond Park Rise"}, "longitude": "-1.400455"}, "context": "", "outcome_status": null, "persistent_id": "", "id": 126234008, "location_subtype": "", "month": "2025-02"}, {"category": "anti-social-behaviour", "location_type": "Force", "location": {"latitude": "53.382958", "street": {"id": 1715634, "name": "On or near Conference/exhibition Centre"}, "longitude": "-1.470771"}, "context": "", "outcome_status": null, "persistent_id": "", "id": 126235349, "location_subtype": "", "month": "2025-02"}, {"category": "anti-social-behaviour", "location_type": "Force", "location": {"latitude": "53.379702", "street": {"id": 1716052, "name": "On or near Arundel Gate"}, "longitude": "-1.466241"}, "context": "", "outcome_status": null, "persistent_id": "", "id": 126235351, "location_subtype": "", "month": "2025-02"}, {"category": "anti-social-behaviour", "location_type": "Force", "location": {"latitude": "53.382912", "street": {"id": 1716031, "name": "On or near High Street"}, "longitude": "-1.466381"}, "context": "", "outcome_status": null, "persistent_id": "", "id": 126235352, "location_subtype": "", "month": "2025-02"}, {"category": "anti-social-behaviour", "location_type": "Force", "location": {"latitude": "53.457500", "street": {"id": 1716149, "name": "On or near Ecclesfield Road"}, "longitude": "-1.464498"}, "context": "", "outcome_status": null, "persistent_id": "", "id": 126235353, "location_subtype": "", "month": "2025-02"}, {"category": "anti-social-behaviour", "location_type": "Force", "location": {"latitude": "53.379702", "street": {"id": 1716052, "name": "On or near Arundel Gate"}, "longitude": "-1.466241"}, "context": "", "outcome_status": null, "persistent_id": "", "id": 126235354, "location_subtype": "", "month": "2025-02"}, {"category": "anti-social-behaviour", "location_type": "Force", "location": {"latitude": "53.393307", "street": {"id": 1716257, "name": "On or near Andover Street"}, "longitude": "-1.463470"}, "context": "", "outcome_status": null, "persistent_id": "", "id": 126235355, "location_subtype": "", "month": "2025-02"}, {"category": "anti-social-behaviour", "location_type": "Force", "location": {"latitude": "53.396721", "street": {"id": 1716292, "name": "On or near Melrose Road"}, "longitude": "-1.463051"}, "context": "", "outcome_status": null, "persistent_id": "", "id": 126235356, "location_subtype": "", "month": "2025-02"}, {"category": "anti-social-behaviour", "location_type": "Force", "location": {"latitude": "53.383549", "street": {"id": 1716197, "name": "On or near Shopping Area"}, "longitude": "-1.463989"}, "context": "", "outcome_status": null, "persistent_id": "", "id": 126235357, "location_subtype": "", "month": "2025-02"}, {"category": "anti-social-behaviour", "location_type": "Force", "location": {"latitude": "53.309625", "street": {"id": 2221066, "name": "On or near Parking Area"}, "longitude": "-1.355004"}, "context": "", "outcome_status": null, "persistent_id": "", "id": 126190833, "location_subtype": "", "month": "2025-02"}, {"category": "anti-social-behaviour", "location_type": "Force", "location": {"latitude": "53.305217", "street": {"id": 2215471, "name": "On or near Haddon Close"}, "longitude": "-1.461227"}, "context": "", "outcome_status": null, "persistent_id": "", "id": 126191394, "location_subtype": "", "month": "2025-02"}, {"category": "anti-social-behaviour", "location_type": "Force", "location": {"latitude": "53.478567", "street": {"id": 1710891, "name": "On or near Shay House Lane"}, "longitude": "-1.596769"}, "context": "", "outcome_status": null, "persistent_id": "", "id": 126234872, "location_subtype": "", "month": "2025-02"}, {"category": "anti-social-behaviour", "location_type": "Force", "location": {"latitude": "53.387158", "street": {"id": 1713491, "name": "On or near Moor End Road"}, "longitude": "-1.498399"}, "context": "", "outcome_status": null, "persistent_id": "", "id": 126234875, "location_subtype": "", "month": "2025-02"}, {"category": "anti-social-behaviour", "location_type": "Force", "location": {"latitude": "53.427754", "street": {"id": 1713862, "name": "On or near Halifax Road"}, "longitude": "-1.492789"}, "context": "", "outcome_status": null, "persistent_id": "", "id": 126234877, "location_subtype": "", "month": "2025-02"}, {"category": "anti-social-behaviour", "location_type": "Force", "location": {"latitude": "53.461821", "street": {"id": 1713773, "name": "On or near Charlton Clough"}, "longitude": "-1.492836"}, "context": "", "outcome_status": null, "persistent_id": "", "id": 126234878, "location_subtype": "", "month": "2025-02"}, {"category": "anti-social-behaviour", "location_type": "Force", "location": {"latitude": "53.426855", "street": {"id": 1714551, "name": "On or near Buchanan Crescent"}, "longitude": "-1.482266"}, "context": "", "outcome_status": null, "persistent_id": "", "id": 126234880, "location_subtype": "", "month": "2025-02"}, {"category": "anti-social-behaviour", "location_type": "Force", "location": {"latitude": "53.380685", "street": {"id": 1715555, "name": "On or near Sports/recreation Area"}, "longitude": "-1.472405"}, "context": "", "outcome_status": null, "persistent_id": "", "id": 126234889, "location_subtype": "", "month": "2025-02"}, {"category": "anti-social-behaviour", "location_type": "Force", "location": {"latitude": "53.377755", "street": {"id": 1715554, "name": "On or near Furnival Gate"}, "longitude": "-1.471061"}, "context": "", "outcome_status": null, "persistent_id": "", "id": 126234890, "location_subtype": "", "month": "2025-02"}, {"category": "anti-social-behaviour", "location_type": "Force", "location": {"latitude": "53.363855", "street": {"id": 1715922, "name": "On or near Midhill Crescent"}, "longitude": "-1.466169"}, "context": "", "outcome_status": null, "persistent_id": "", "id": 126234891, "location_subtype": "", "month": "2025-02"}, {"category": "anti-social-behaviour", "location_type": "Force", "location": {"latitude": "53.325585", "street": {"id": 2221992, "name": "On or near Cutler Close"}, "longitude": "-1.326582"}, "context": "", "outcome_status": null, "persistent_id": "", "id": 126189737, "location_subtype": "", "month": "2025-02"}, {"category": "anti-social-behaviour", "location_type": "Force", "location": {"latitude": "53.424238", "street": {"id": 1711560, "name": "On or near Top Road"}, "longitude": "-1.541227"}, "context": "", "outcome_status": null, "persistent_id": "", "id": 126235815, "location_subtype": "", "month": "2025-02"}, {"category": "anti-social-behaviour", "location_type": "Force", "location": {"latitude": "53.390612", "street": {"id": 1711775, "name": "On or near Hall Park Hill"}, "longitude": "-1.534536"}, "context": "", "outcome_status": null, "persistent_id": "", "id": 126235816, "location_subtype": "", "month": "2025-02"}, {"category": "anti-social-behaviour", "location_type": "Force", "location": {"latitude": "53.388460", "street": {"id": 1714873, "name": "On or near Roscoe Road"}, "longitude": "-1.479183"}, "context": "", "outcome_status": null, "persistent_id": "", "id": 126235828, "location_subtype": "", "month": "2025-02"}, {"category": "anti-social-behaviour", "location_type": "Force", "location": {"latitude": "53.357097", "street": {"id": 1715089, "name": "On or near Little London Place"}, "longitude": "-1.476755"}, "context": "", "outcome_status": null, "persistent_id": "", "id": 126235831, "location_subtype": "", "month": "2025-02"}, {"category": "anti-social-behaviour", "location_type": "Force", "location": {"latitude": "53.417303", "street": {"id": 1715006, "name": "On or near Southey Place"}, "longitude": "-1.476619"}, "context": "", "outcome_status": null, "persistent_id": "", "id": 126235832, "location_subtype": "", "month": "2025-02"}, {"category": "anti-social-behaviour", "location_type": "Force", "location": {"latitude": "53.375992", "street": {"id": 1715234, "name": "On or near Parking Area"}, "longitude": "-1.474825"}, "context": "", "outcome_status": null, "persistent_id": "", "id": 126235834, "location_subtype": "", "month": "2025-02"}, {"category": "anti-social-behaviour", "location_type": "Force", "location": {"latitude": "53.359046", "street": {"id": 1715327, "name": "On or near Parking Area"}, "longitude": "-1.474388"}, "context": "", "outcome_status": null, "persistent_id": "", "id": 126235835, "location_subtype": "", "month": "2025-02"}, {"category": "anti-social-behaviour", "location_type": "Force", "location": {"latitude": "53.417054", "street": {"id": 1715610, "name": "On or near Southey Avenue"}, "longitude": "-1.471190"}, "context": "", "outcome_status": null, "persistent_id": "", "id": 126235837, "location_subtype": "", "month": "2025-02"}, {"category": "anti-social-behaviour", "location_type": "Force", "location": {"latitude": "53.379868", "street": {"id": 1715578, "name": "On or near Burgess Street"}, "longitude": "-1.471335"}, "context": "", "outcome_status": null, "persistent_id": "", "id": 126235838, "location_subtype": "", "month": "2025-02"}, {"category": "anti-social-behaviour", "location_type": "Force", "location": {"latitude": "53.441858", "street": {"id": 1715854, "name": "On or near St Mary's Close"}, "longitude": "-1.468203"}, "context": "", "outcome_status": null, "persistent_id": "", "id": 126235840, "location_subtype": "", "month": "2025-02"}, {"category": "anti-social-behaviour", "location_type": "Force", "location": {"latitude": "53.429187", "street": {"id": 1719322, "name": "On or near Richmond Park Avenue"}, "longitude": "-1.400469"}, "context": "", "outcome_status": null, "persistent_id": "", "id": 126234006, "location_subtype": "", "month": "2025-02"}, {"category": "anti-social-behaviour", "location_type": "Force", "location": {"latitude": "53.308821", "street": {"id": 2220304, "name": "On or near Ravencar Road"}, "longitude": "-1.372831"}, "context": "", "outcome_status": null, "persistent_id": "", "id": 126192213, "location_subtype": "", "month": "2025-02"}, {"category": "anti-social-behaviour", "location_type": "Force", "location": {"latitude": "53.324320", "street": {"id": 2221991, "name": "On or near Sackerville Terrace"}, "longitude": "-1.327038"}, "context": "", "outcome_status": null, "persistent_id": "", "id": 126192236, "location_subtype": "", "month": "2025-02"}, {"category": "anti-social-behaviour", "location_type": "Force", "location": {"latitude": "53.360546", "street": {"id": 1716469, "name": "On or near Myrtle Close"}, "longitude": "-1.460109"}, "context": "", "outcome_status": null, "persistent_id": "", "id": 126235842, "location_subtype": "", "month": "2025-02"}, {"category": "anti-social-behaviour", "location_type": "Force", "location": {"latitude": "53.408120", "street": {"id": 1716566, "name": "On or near Smilter Lane"}, "longitude": "-1.457356"}, "context": "", "outcome_status": null, "persistent_id": "", "id": 126235843, "location_subtype": "", "month": "2025-02"}, {"category": "anti-social-behaviour", "location_type": "Force", "location": {"latitude": "53.365065", "street": {"id": 1716995, "name": "On or near Park Grange View"}, "longitude": "-1.451727"}, "context": "", "outcome_status": null, "persistent_id": "", "id": 126235844, "location_subtype": "", "month": "2025-02"}, {"category": "anti-social-behaviour", "location_type": "Force", "location": {"latitude": "53.372362", "street": {"id": 1717415, "name": "On or near Essex Road"}, "longitude": "-1.445351"}, "context": "", "outcome_status": null, "persistent_id": "", "id": 126235845, "location_subtype": "", "month": "2025-02"}, {"category": "anti-social-behaviour", "location_type": "Force", "location": {"latitude": "53.417906", "street": {"id": 1717816, "name": "On or near Wincobank Avenue"}, "longitude": "-1.437235"}, "context": "", "outcome_status": null, "persistent_id": "", "id": 126235846, "location_subtype": "", "month": "2025-02"}, {"category": "anti-social-behaviour", "location_type": "Force", "location": {"latitude": "53.417892", "street": {"id": 1717950, "name": "On or near Wincobank Road"}, "longitude": "-1.434452"}, "context": "", "outcome_status": null, "persistent_id": "", "id": 126235847, "location_subtype": "", "month": "2025-02"}, {"category": "anti-social-behaviour", "location_type": "Force", "location": {"latitude": "53.388957", "street": {"id": 1718272, "name": "On or near Ouseburn Street"}, "longitude": "-1.426776"}, "context": "", "outcome_status": null, "persistent_id": "", "id": 126235848, "location_subtype": "", "month": "2025-02"}, {"category": "anti-social-behaviour", "location_type": "Force", "location": {"latitude": "53.393111", "street": {"id": 1711953, "name": "On or near Deer Park View"}, "longitude": "-1.529938"}, "context": "", "outcome_status": null, "persistent_id": "", "id": 126234404, "location_subtype": "", "month": "2025-02"}, {"category": "anti-social-behaviour", "location_type": "Force", "location": {"latitude": "53.380086", "street": {"id": 1718546, "name": "On or near Mather Drive"}, "longitude": "-1.419469"}, "context": "", "outcome_status": null, "persistent_id": "", "id": 126235849, "location_subtype": "", "month": "2025-02"}, {"category": "anti-social-behaviour", "location_type": "Force", "location": {"latitude": "53.416522", "street": {"id": 1718912, "name": "On or near Meadowhall Interchange"}, "longitude": "-1.413015"}, "context": "", "outcome_status": null, "persistent_id": "", "id": 126235850, "location_subtype": "", "month": "2025-02"}, {"category": "anti-social-behaviour", "location_type": "Force", "location": {"latitude": "53.401339", "street": {"id": 1712429, "name": "On or near Wisewood Lane"}, "longitude": "-1.515002"}, "context": "", "outcome_status": null, "persistent_id": "", "id": 126234405, "location_subtype": "", "month": "2025-02"}, {"category": "anti-social-behaviour", "location_type": "Force", "location": {"latitude": "53.360585", "street": {"id": 1712696, "name": "On or near Glenalmond Road"}, "longitude": "-1.510852"}, "context": "", "outcome_status": null, "persistent_id": "", "id": 126234406, "location_subtype": "", "month": "2025-02"}, {"category": "anti-social-behaviour", "location_type": "Force", "location": {"latitude": "53.372528", "street": {"id": 1711307, "name": "On or near Westminster Crescent"}, "longitude": "-1.553641"}, "context": "", "outcome_status": null, "persistent_id": "", "id": 126236688, "location_subtype": "", "month": "2025-02"}, {"category": "anti-social-behaviour", "location_type": "Force", "location": {"latitude": "53.420587", "street": {"id": 1713600, "name": "On or near Heath Road"}, "longitude": "-1.496381"}, "context": "", "outcome_status": null, "persistent_id": "", "id": 126234407, "location_subtype": "", "month": "2025-02"}, {"category": "anti-social-behaviour", "location_type": "Force", "location": {"latitude": "53.391050", "street": {"id": 1711858, "name": "On or near Fairbarn Drive"}, "longitude": "-1.531675"}, "context": "", "outcome_status": null, "persistent_id": "", "id": 126236689, "location_subtype": "", "month": "2025-02"}, {"category": "anti-social-behaviour", "location_type": "Force", "location": {"latitude": "53.428835", "street": {"id": 1713125, "name": "On or near Edge Well Close"}, "longitude": "-1.503929"}, "context": "", "outcome_status": null, "persistent_id": "", "id": 126236692, "location_subtype": "", "month": "2025-02"}, {"category": "anti-social-behaviour", "location_type": "Force", "location": {"latitude": "53.374606", "street": {"id": 1715485, "name": "On or near Jessop Street"}, "longitude": "-1.472422"}, "context": "", "outcome_status": null, "persistent_id": "", "id": 126236702, "location_subtype": "", "month": "2025-02"}, {"category": "anti-social-behaviour", "location_type": "Force", "location": {"latitude": "53.381028", "street": {"id": 1715399, "name": "On or near Parking Area"}, "longitude": "-1.473456"}, "context": "", "outcome_status": null, "persistent_id": "", "id": 126236703, "location_subtype": "", "month": "2025-02"}, {"category": "anti-social-behaviour", "location_type": "Force", "location": {"latitude": "53.419139", "street": {"id": 1715411, "name": "On or near Southey Hall Road"}, "longitude": "-1.473211"}, "context": "", "outcome_status": null, "persistent_id": "", "id": 126236704, "location_subtype": "", "month": "2025-02"}, {"category": "anti-social-behaviour", "location_type": "Force", "location": {"latitude": "53.371932", "street": {"id": 1719003, "name": "On or near Saxonlea Court"}, "longitude": "-1.411884"}, "context": "", "outcome_status": null, "persistent_id": "", "id": 126234005, "location_subtype": "", "month": "2025-02"}, {"category": "anti-social-behaviour", "location_type": "Force", "location": {"latitude": "53.418425", "street": {"id": 1717026, "name": "On or near Tideswell Road"}, "longitude": "-1.452410"}, "context": "", "outcome_status": null, "persistent_id": "", "id": 126236712, "location_subtype": "", "month": "2025-02"}, {"category": "anti-social-behaviour", "location_type": "Force", "location": {"latitude": "53.373102", "street": {"id": 1718687, "name": "On or near Prince Of Wales Road"}, "longitude": "-1.417715"}, "context": "", "outcome_status": null, "persistent_id": "", "id": 126234004, "location_subtype": "", "month": "2025-02"}, {"category": "anti-social-behaviour", "location_type": "Force", "location": {"latitude": "53.373831", "street": {"id": 1716828, "name": "On or near Granville Road"}, "longitude": "-1.454095"}, "context": "", "outcome_status": null, "persistent_id": "", "id": 126236713, "location_subtype": "", "month": "2025-02"}, {"category": "anti-social-behaviour", "location_type": "Force", "location": {"latitude": "53.359578", "street": {"id": 1716952, "name": "On or near Hartopp Road"}, "longitude": "-1.452774"}, "context": "", "outcome_status": null, "persistent_id": "", "id": 126236715, "location_subtype": "", "month": "2025-02"}, {"category": "anti-social-behaviour", "location_type": "Force", "location": {"latitude": "53.394025", "street": {"id": 1713645, "name": "On or near Whitehouse Road"}, "longitude": "-1.494002"}, "context": "", "outcome_status": null, "persistent_id": "", "id": 126234408, "location_subtype": "", "month": "2025-02"}, {"category": "anti-social-behaviour", "location_type": "Force", "location": {"latitude": "53.431910", "street": {"id": 1721188, "name": "On or near Bridgegate"}, "longitude": "-1.357098"}, "context": "", "outcome_status": null, "persistent_id": "", "id": 126236734, "location_subtype": "", "month": "2025-02"}, {"category": "anti-social-behaviour", "location_type": "Force", "location": {"latitude": "53.343315", "street": {"id": 1721260, "name": "On or near Waterthorpe Greenway"}, "longitude": "-1.356794"}, "context": "", "outcome_status": null, "persistent_id": "", "id": 126236735, "location_subtype": "", "month": "2025-02"}, {"category": "anti-social-behaviour", "location_type": "Force", "location": {"latitude": "53.430929", "street": {"id": 1721272, "name": "On or near Vicarage Lane"}, "longitude": "-1.355277"}, "context": "", "outcome_status": null, "persistent_id": "", "id": 126236736, "location_subtype": "", "month": "2025-02"}, {"category": "anti-social-behaviour", "location_type": "Force", "location": {"latitude": "53.422584", "street": {"id": 1713776, "name": "On or near Supermarket"}, "longitude": "-1.491846"}, "context": "", "outcome_status": null, "persistent_id": "", "id": 126234409, "location_subtype": "", "month": "2025-02"}, {"category": "anti-social-behaviour", "location_type": "Force", "location": {"latitude": "53.376953", "street": {"id": 1713305, "name": "On or near Chandos Street"}, "longitude": "-1.499872"}, "context": "", "outcome_status": null, "persistent_id": "", "id": 126236276, "location_subtype": "", "month": "2025-02"}, {"category": "anti-social-behaviour", "location_type": "Force", "location": {"latitude": "53.358861", "street": {"id": 1713747, "name": "On or near Union Road"}, "longitude": "-1.494058"}, "context": "", "outcome_status": null, "persistent_id": "", "id": 126236277, "location_subtype": "", "month": "2025-02"}, {"category": "anti-social-behaviour", "location_type": "Force", "location": {"latitude": "53.374455", "street": {"id": 1714535, "name": "On or near William Street"}, "longitude": "-1.483262"}, "context": "", "outcome_status": null, "persistent_id": "", "id": 126236282, "location_subtype": "", "month": "2025-02"}, {"category": "anti-social-behaviour", "location_type": "Force", "location": {"latitude": "53.390258", "street": {"id": 1714944, "name": "On or near Cornish Street"}, "longitude": "-1.477131"}, "context": "", "outcome_status": null, "persistent_id": "", "id": 126236285, "location_subtype": "", "month": "2025-02"}, {"category": "anti-social-behaviour", "location_type": "Force", "location": {"latitude": "53.381164", "street": {"id": 1715397, "name": "On or near West Street Lane"}, "longitude": "-1.473664"}, "context": "", "outcome_status": null, "persistent_id": "", "id": 126236286, "location_subtype": "", "month": "2025-02"}, {"category": "anti-social-behaviour", "location_type": "Force", "location": {"latitude": "53.433892", "street": {"id": 1717718, "name": "On or near Woolley Wood Road"}, "longitude": "-1.438259"}, "context": "", "outcome_status": null, "persistent_id": "", "id": 126234426, "location_subtype": "", "month": "2025-02"}, {"category": "anti-social-behaviour", "location_type": "Force", "location": {"latitude": "53.425022", "street": {"id": 1715819, "name": "On or near Lindsay Road"}, "longitude": "-1.465990"}, "context": "", "outcome_status": null, "persistent_id": "", "id": 126236287, "location_subtype": "", "month": "2025-02"}, {"category": "anti-social-behaviour", "location_type": "Force", "location": {"latitude": "53.388612", "street": {"id": 1715668, "name": "On or near Alma Street"}, "longitude": "-1.470686"}, "context": "", "outcome_status": null, "persistent_id": "", "id": 126236288, "location_subtype": "", "month": "2025-02"}, {"category": "anti-social-behaviour", "location_type": "Force", "location": {"latitude": "53.373857", "street": {"id": 1715681, "name": "On or near Mary Street"}, "longitude": "-1.469666"}, "context": "", "outcome_status": null, "persistent_id": "", "id": 126236289, "location_subtype": "", "month": "2025-02"}, {"category": "anti-social-behaviour", "location_type": "Force", "location": {"latitude": "53.380354", "street": {"id": 1718422, "name": "On or near Greenwood Way"}, "longitude": "-1.422848"}, "context": "", "outcome_status": null, "persistent_id": "", "id": 126234003, "location_subtype": "", "month": "2025-02"}, {"category": "anti-social-behaviour", "location_type": "Force", "location": {"latitude": "53.422099", "street": {"id": 1715343, "name": "On or near Adrian Crescent"}, "longitude": "-1.471654"}, "context": "", "outcome_status": null, "persistent_id": "", "id": 126236290, "location_subtype": "", "month": "2025-02"}, {"category": "anti-social-behaviour", "location_type": "Force", "location": {"latitude": "53.384443", "street": {"id": 1715993, "name": "On or near Bank Street"}, "longitude": "-1.467204"}, "context": "", "outcome_status": null, "persistent_id": "", "id": 126236291, "location_subtype": "", "month": "2025-02"}, {"category": "anti-social-behaviour", "location_type": "Force", "location": {"latitude": "53.384443", "street": {"id": 1715993, "name": "On or near Bank Street"}, "longitude": "-1.467204"}, "context": "", "outcome_status": null, "persistent_id": "", "id": 126236292, "location_subtype": "", "month": "2025-02"}, {"category": "anti-social-behaviour", "location_type": "Force", "location": {"latitude": "53.362297", "street": {"id": 1720834, "name": "On or near Badger Close"}, "longitude": "-1.366276"}, "context": "", "outcome_status": null, "persistent_id": "", "id": 126236309, "location_subtype": "", "month": "2025-02"}, {"category": "anti-social-behaviour", "location_type": "Force", "location": {"latitude": "53.353093", "street": {"id": 1718214, "name": "On or near Chatsworth Park Drive"}, "longitude": "-1.426972"}, "context": "", "outcome_status": null, "persistent_id": "", "id": 126234002, "location_subtype": "", "month": "2025-02"}, {"category": "anti-social-behaviour", "location_type": "Force", "location": {"latitude": "53.426508", "street": {"id": 1721559, "name": "On or near Warwick Street"}, "longitude": "-1.350513"}, "context": "", "outcome_status": null, "persistent_id": "", "id": 126236737, "location_subtype": "", "month": "2025-02"}, {"category": "anti-social-behaviour", "location_type": "Force", "location": {"latitude": "53.397018", "street": {"id": 1712150, "name": "On or near Chapman Close"}, "longitude": "-1.522390"}, "context": "", "outcome_status": null, "persistent_id": "", "id": 126226957, "location_subtype": "", "month": "2025-02"}, {"category": "anti-social-behaviour", "location_type": "Force", "location": {"latitude": "53.364714", "street": {"id": 1712871, "name": "On or near Supermarket"}, "longitude": "-1.507240"}, "context": "", "outcome_status": null, "persistent_id": "", "id": 126226959, "location_subtype": "", "month": "2025-02"}, {"category": "anti-social-behaviour", "location_type": "Force", "location": {"latitude": "53.407733", "street": {"id": 1713019, "name": "On or near Keyworth Road"}, "longitude": "-1.504851"}, "context": "", "outcome_status": null, "persistent_id": "", "id": 126226960, "location_subtype": "", "month": "2025-02"}, {"category": "anti-social-behaviour", "location_type": "Force", "location": {"latitude": "53.431961", "street": {"id": 1718335, "name": "On or near Grange Mill Lane"}, "longitude": "-1.423489"}, "context": "", "outcome_status": null, "persistent_id": "", "id": 126234427, "location_subtype": "", "month": "2025-02"}, {"category": "anti-social-behaviour", "location_type": "Force", "location": {"latitude": "53.403818", "street": {"id": 1713091, "name": "On or near Brier Street"}, "longitude": "-1.503603"}, "context": "", "outcome_status": null, "persistent_id": "", "id": 126226961, "location_subtype": "", "month": "2025-02"}, {"category": "anti-social-behaviour", "location_type": "Force", "location": {"latitude": "53.387628", "street": {"id": 1718485, "name": "On or near Nidd Road East"}, "longitude": "-1.421501"}, "context": "", "outcome_status": null, "persistent_id": "", "id": 126234428, "location_subtype": "", "month": "2025-02"}, {"category": "anti-social-behaviour", "location_type": "Force", "location": {"latitude": "53.403342", "street": {"id": 1713066, "name": "On or near Roselle Street"}, "longitude": "-1.503623"}, "context": "", "outcome_status": null, "persistent_id": "", "id": 126226962, "location_subtype": "", "month": "2025-02"}, {"category": "anti-social-behaviour", "location_type": "Force", "location": {"latitude": "53.423223", "street": {"id": 1718784, "name": "On or near Blackburn Road"}, "longitude": "-1.414081"}, "context": "", "outcome_status": null, "persistent_id": "", "id": 126234429, "location_subtype": "", "month": "2025-02"}, {"category": "anti-social-behaviour", "location_type": "Force", "location": {"latitude": "53.383185", "street": {"id": 1720802, "name": "On or near Waverley Walk"}, "longitude": "-1.367680"}, "context": "", "outcome_status": null, "persistent_id": "", "id": 126233585, "location_subtype": "", "month": "2025-02"}, {"category": "anti-social-behaviour", "location_type": "Force", "location": {"latitude": "53.364046", "street": {"id": 1711466, "name": "On or near Supermarket"},