[{"category": "anti-social-behaviour", "location_type": "Force", "location": {"latitude": "53.363080", "street": {"id": 1716269, "name": "On or near Madehurst View"}, "longitude": "-1.461851"}, "context": "", "outcome_status": null, "persistent_id": "", "id": 110264294, "location_subtype": "", "month": "2023-05"}, {"category": "anti-social-behaviour", "location_type": "Force", "location": {"latitude": "53.451254", "street": {"id": 1720274, "name": "On or near Treefield Close"}, "longitude": "-1.377602"}, "context": "", "outcome_status": null, "persistent_id": "", "id": 110264315, "location_subtype": "", "month": "2023-05"}, {"category": "anti-social-behaviour", "location_type": "Force", "location": {"latitude": "53.359456", "street": {"id": 1720853, "name": "On or near Torry Court"}, "longitude": "-1.366183"}, "context": "", "outcome_status": null, "persistent_id": "", "id": 110264316, "location_subtype": "", "month": "2023-05"}, {"category": "anti-social-behaviour", "location_type": "Force", "location": {"latitude": "53.364216", "street": {"id": 1721285, "name": "On or near John Ward Street"}, "longitude": "-1.355503"}, "context": "", "outcome_status": null, "persistent_id": "", "id": 110264317, "location_subtype": "", "month": "2023-05"}, {"category": "anti-social-behaviour", "location_type": "Force", "location": {"latitude": "53.451113", "street": {"id": 1721811, "name": "On or near Broad Street"}, "longitude": "-1.344355"}, "context": "", "outcome_status": null, "persistent_id": "", "id": 110264320, "location_subtype": "", "month": "2023-05"}, {"category": "anti-social-behaviour", "location_type": "Force", "location": {"latitude": "53.425972", "street": {"id": 1722371, "name": "On or near Longfellow Drive"}, "longitude": "-1.329889"}, "context": "", "outcome_status": null, "persistent_id": "", "id": 110264323, "location_subtype": "", "month": "2023-05"}, {"category": "anti-social-behaviour", "location_type": "Force", "location": {"latitude": "53.418399", "street": {"id": 1722565, "name": "On or near Stag Willow Close"}, "longitude": "-1.324350"}, "context": "", "outcome_status": null, "persistent_id": "", "id": 110264326, "location_subtype": "", "month": "2023-05"}, {"category": "anti-social-behaviour", "location_type": "Force", "location": {"latitude": "53.370753", "street": {"id": 1722734, "name": "On or near Aughton Road"}, "longitude": "-1.320129"}, "context": "", "outcome_status": null, "persistent_id": "", "id": 110264327, "location_subtype": "", "month": "2023-05"}, {"category": "anti-social-behaviour", "location_type": "Force", "location": {"latitude": "53.480872", "street": {"id": 1710890, "name": "On or near Whitwell Crescent"}, "longitude": "-1.597937"}, "context": "", "outcome_status": null, "persistent_id": "", "id": 110254941, "location_subtype": "", "month": "2023-05"}, {"category": "anti-social-behaviour", "location_type": "Force", "location": {"latitude": "53.384210", "street": {"id": 1713617, "name": "On or near Crookesmoor Road"}, "longitude": "-1.496359"}, "context": "", "outcome_status": null, "persistent_id": "", "id": 110254945, "location_subtype": "", "month": "2023-05"}, {"category": "anti-social-behaviour", "location_type": "Force", "location": {"latitude": "53.366125", "street": {"id": 1714116, "name": "On or near Sharrow View"}, "longitude": "-1.487841"}, "context": "", "outcome_status": null, "persistent_id": "", "id": 110254947, "location_subtype": "", "month": "2023-05"}, {"category": "anti-social-behaviour", "location_type": "Force", "location": {"latitude": "53.391048", "street": {"id": 1714693, "name": "On or near Bedford Street"}, "longitude": "-1.481046"}, "context": "", "outcome_status": null, "persistent_id": "", "id": 110254949, "location_subtype": "", "month": "2023-05"}, {"category": "anti-social-behaviour", "location_type": "Force", "location": {"latitude": "53.382289", "street": {"id": 1716088, "name": "On or near Parking Area"}, "longitude": "-1.465818"}, "context": "", "outcome_status": null, "persistent_id": "", "id": 110254958, "location_subtype": "", "month": "2023-05"}, {"category": "anti-social-behaviour", "location_type": "Force", "location": {"latitude": "53.355194", "street": {"id": 1716309, "name": "On or near Carfield Lane"}, "longitude": "-1.459306"}, "context": "", "outcome_status": null, "persistent_id": "", "id": 110254963, "location_subtype": "", "month": "2023-05"}, {"category": "anti-social-behaviour", "location_type": "Force", "location": {"latitude": "53.436374", "street": {"id": 1717090, "name": "On or near Dunninc Road"}, "longitude": "-1.450118"}, "context": "", "outcome_status": null, "persistent_id": "", "id": 110254965, "location_subtype": "", "month": "2023-05"}, {"category": "anti-social-behaviour", "location_type": "Force", "location": {"latitude": "53.340363", "street": {"id": 1717168, "name": "On or near Supermarket"}, "longitude": "-1.449663"}, "context": "", "outcome_status": null, "persistent_id": "", "id": 110254967, "location_subtype": "", "month": "2023-05"}, {"category": "anti-social-behaviour", "location_type": "Force", "location": {"latitude": "53.433122", "street": {"id": 1717480, "name": "On or near Hesley Road"}, "longitude": "-1.444696"}, "context": "", "outcome_status": null, "persistent_id": "", "id": 110254968, "location_subtype": "", "month": "2023-05"}, {"category": "anti-social-behaviour", "location_type": "Force", "location": {"latitude": "53.389568", "street": {"id": 1710975, "name": "On or near Short Lane"}, "longitude": "-1.580153"}, "context": "", "outcome_status": null, "persistent_id": "", "id": 110268851, "location_subtype": "", "month": "2023-05"}, {"category": "anti-social-behaviour", "location_type": "Force", "location": {"latitude": "53.326733", "street": {"id": 1711652, "name": "On or near Vicarage Lane"}, "longitude": "-1.537694"}, "context": "", "outcome_status": null, "persistent_id": "", "id": 110268852, "location_subtype": "", "month": "2023-05"}, {"category": "anti-social-behaviour", "location_type": "Force", "location": {"latitude": "53.404751", "street": {"id": 1711771, "name": "On or near The Grove"}, "longitude": "-1.534337"}, "context": "", "outcome_status": null, "persistent_id": "", "id": 110268853, "location_subtype": "", "month": "2023-05"}, {"category": "anti-social-behaviour", "location_type": "Force", "location": {"latitude": "53.392702", "street": {"id": 1712089, "name": "On or near Park Road"}, "longitude": "-1.526499"}, "context": "", "outcome_status": null, "persistent_id": "", "id": 110268854, "location_subtype": "", "month": "2023-05"}, {"category": "anti-social-behaviour", "location_type": "Force", "location": {"latitude": "53.398044", "street": {"id": 1713153, "name": "On or near Bowness Road"}, "longitude": "-1.502798"}, "context": "", "outcome_status": null, "persistent_id": "", "id": 110268857, "location_subtype": "", "month": "2023-05"}, {"category": "anti-social-behaviour", "location_type": "Force", "location": {"latitude": "53.470495", "street": {"id": 1713308, "name": "On or near Wesley Road"}, "longitude": "-1.499316"}, "context": "", "outcome_status": null, "persistent_id": "", "id": 110268858, "location_subtype": "", "month": "2023-05"}, {"category": "anti-social-behaviour", "location_type": "Force", "location": {"latitude": "53.403908", "street": {"id": 1713409, "name": "On or near Petrol Station"}, "longitude": "-1.499360"}, "context": "", "outcome_status": null, "persistent_id": "", "id": 110268859, "location_subtype": "", "month": "2023-05"}, {"category": "anti-social-behaviour", "location_type": "Force", "location": {"latitude": "53.383549", "street": {"id": 1716197, "name": "On or near Shopping Area"}, "longitude": "-1.463989"}, "context": "", "outcome_status": null, "persistent_id": "", "id": 110268879, "location_subtype": "", "month": "2023-05"}, {"category": "anti-social-behaviour", "location_type": "Force", "location": {"latitude": "53.377369", "street": {"id": 1716970, "name": "On or near B6070"}, "longitude": "-1.453343"}, "context": "", "outcome_status": null, "persistent_id": "", "id": 110268880, "location_subtype": "", "month": "2023-05"}, {"category": "anti-social-behaviour", "location_type": "Force", "location": {"latitude": "53.406812", "street": {"id": 1717027, "name": "On or near Skinnerthorpe Road"}, "longitude": "-1.452424"}, "context": "", "outcome_status": null, "persistent_id": "", "id": 110268881, "location_subtype": "", "month": "2023-05"}, {"category": "anti-social-behaviour", "location_type": "Force", "location": {"latitude": "53.356839", "street": {"id": 1717121, "name": "On or near Newfield Green Road"}, "longitude": "-1.449308"}, "context": "", "outcome_status": null, "persistent_id": "", "id": 110268882, "location_subtype": "", "month": "2023-05"}, {"category": "anti-social-behaviour", "location_type": "Force", "location": {"latitude": "53.357835", "street": {"id": 1717208, "name": "On or near Daresbury Drive"}, "longitude": "-1.448980"}, "context": "", "outcome_status": null, "persistent_id": "", "id": 110268883, "location_subtype": "", "month": "2023-05"}, {"category": "anti-social-behaviour", "location_type": "Force", "location": {"latitude": "53.433892", "street": {"id": 1717718, "name": "On or near Woolley Wood Road"}, "longitude": "-1.438259"}, "context": "", "outcome_status": null, "persistent_id": "", "id": 110268885, "location_subtype": "", "month": "2023-05"}, {"category": "anti-social-behaviour", "location_type": "Force", "location": {"latitude": "53.336243", "street": {"id": 2216458, "name": "On or near Lightwood Lane"}, "longitude": "-1.440954"}, "context": "", "outcome_status": null, "persistent_id": "", "id": 110268886, "location_subtype": "", "month": "2023-05"}, {"category": "anti-social-behaviour", "location_type": "Force", "location": {"latitude": "53.367301", "street": {"id": 1718039, "name": "On or near Cary Grove"}, "longitude": "-1.431816"}, "context": "", "outcome_status": null, "persistent_id": "", "id": 110268887, "location_subtype": "", "month": "2023-05"}, {"category": "anti-social-behaviour", "location_type": "Force", "location": {"latitude": "53.372710", "street": {"id": 1718514, "name": "On or near Motehall Place"}, "longitude": "-1.420170"}, "context": "", "outcome_status": null, "persistent_id": "", "id": 110268889, "location_subtype": "", "month": "2023-05"}, {"category": "anti-social-behaviour", "location_type": "Force", "location": {"latitude": "53.349396", "street": {"id": 1718728, "name": "On or near Jaunty Lane"}, "longitude": "-1.417062"}, "context": "", "outcome_status": null, "persistent_id": "", "id": 110268890, "location_subtype": "", "month": "2023-05"}, {"category": "anti-social-behaviour", "location_type": "Force", "location": {"latitude": "53.347727", "street": {"id": 1719125, "name": "On or near Fox Lane Court"}, "longitude": "-1.408537"}, "context": "", "outcome_status": null, "persistent_id": "", "id": 110268893, "location_subtype": "", "month": "2023-05"}, {"category": "anti-social-behaviour", "location_type": "Force", "location": {"latitude": "53.408918", "street": {"id": 1719637, "name": "On or near Yew Tree Drive"}, "longitude": "-1.391578"}, "context": "", "outcome_status": null, "persistent_id": "", "id": 110268896, "location_subtype": "", "month": "2023-05"}, {"category": "anti-social-behaviour", "location_type": "Force", "location": {"latitude": "53.343854", "street": {"id": 1719713, "name": "On or near Weakland Way"}, "longitude": "-1.390972"}, "context": "", "outcome_status": null, "persistent_id": "", "id": 110268897, "location_subtype": "", "month": "2023-05"}, {"category": "anti-social-behaviour", "location_type": "Force", "location": {"latitude": "53.376630", "street": {"id": 1717475, "name": "On or near Kestrel Green"}, "longitude": "-1.445040"}, "context": "", "outcome_status": null, "persistent_id": "", "id": 110254969, "location_subtype": "", "month": "2023-05"}, {"category": "anti-social-behaviour", "location_type": "Force", "location": {"latitude": "53.365134", "street": {"id": 1717343, "name": "On or near Guildford Walk"}, "longitude": "-1.445219"}, "context": "", "outcome_status": null, "persistent_id": "", "id": 110254970, "location_subtype": "", "month": "2023-05"}, {"category": "anti-social-behaviour", "location_type": "Force", "location": {"latitude": "53.384087", "street": {"id": 1717242, "name": "On or near Aston Street"}, "longitude": "-1.446251"}, "context": "", "outcome_status": null, "persistent_id": "", "id": 110254971, "location_subtype": "", "month": "2023-05"}, {"category": "anti-social-behaviour", "location_type": "Force", "location": {"latitude": "53.383871", "street": {"id": 1719359, "name": "On or near High Hazels Mead"}, "longitude": "-1.401316"}, "context": "", "outcome_status": null, "persistent_id": "", "id": 110254984, "location_subtype": "", "month": "2023-05"}, {"category": "anti-social-behaviour", "location_type": "Force", "location": {"latitude": "53.385339", "street": {"id": 1712824, "name": "On or near Supermarket"}, "longitude": "-1.507955"}, "context": "", "outcome_status": null, "persistent_id": "", "id": 110269365, "location_subtype": "", "month": "2023-05"}, {"category": "anti-social-behaviour", "location_type": "Force", "location": {"latitude": "53.475014", "street": {"id": 1714121, "name": "On or near Eagleton Rise"}, "longitude": "-1.488173"}, "context": "", "outcome_status": null, "persistent_id": "", "id": 110269374, "location_subtype": "", "month": "2023-05"}, {"category": "anti-social-behaviour", "location_type": "Force", "location": {"latitude": "53.371813", "street": {"id": 1714506, "name": "On or near Summerfield Street"}, "longitude": "-1.483384"}, "context": "", "outcome_status": null, "persistent_id": "", "id": 110269375, "location_subtype": "", "month": "2023-05"}, {"category": "anti-social-behaviour", "location_type": "Force", "location": {"latitude": "53.421596", "street": {"id": 1716826, "name": "On or near Etwall Way"}, "longitude": "-1.453844"}, "context": "", "outcome_status": null, "persistent_id": "", "id": 110269396, "location_subtype": "", "month": "2023-05"}, {"category": "anti-social-behaviour", "location_type": "Force", "location": {"latitude": "53.433818", "street": {"id": 1716966, "name": "On or near Perkyn Road"}, "longitude": "-1.451295"}, "context": "", "outcome_status": null, "persistent_id": "", "id": 110269398, "location_subtype": "", "month": "2023-05"}, {"category": "anti-social-behaviour", "location_type": "Force", "location": {"latitude": "53.411050", "street": {"id": 1717186, "name": "On or near Bolsover Road"}, "longitude": "-1.449346"}, "context": "", "outcome_status": null, "persistent_id": "", "id": 110269400, "location_subtype": "", "month": "2023-05"}, {"category": "anti-social-behaviour", "location_type": "Force", "location": {"latitude": "53.378498", "street": {"id": 1717093, "name": "On or near Sports/recreation Area"}, "longitude": "-1.448139"}, "context": "", "outcome_status": null, "persistent_id": "", "id": 110269401, "location_subtype": "", "month": "2023-05"}, {"category": "anti-social-behaviour", "location_type": "Force", "location": {"latitude": "53.359758", "street": {"id": 1717724, "name": "On or near Errington Road"}, "longitude": "-1.439234"}, "context": "", "outcome_status": null, "persistent_id": "", "id": 110269408, "location_subtype": "", "month": "2023-05"}, {"category": "anti-social-behaviour", "location_type": "Force", "location": {"latitude": "53.392656", "street": {"id": 1717961, "name": "On or near Nightclub"}, "longitude": "-1.434223"}, "context": "", "outcome_status": null, "persistent_id": "", "id": 110269409, "location_subtype": "", "month": "2023-05"}, {"category": "anti-social-behaviour", "location_type": "Force", "location": {"latitude": "53.409956", "street": {"id": 1718104, "name": "On or near Skelwith Drive"}, "longitude": "-1.430811"}, "context": "", "outcome_status": null, "persistent_id": "", "id": 110269410, "location_subtype": "", "month": "2023-05"}, {"category": "anti-social-behaviour", "location_type": "Force", "location": {"latitude": "53.342513", "street": {"id": 1718518, "name": "On or near Charnock Drive"}, "longitude": "-1.421226"}, "context": "", "outcome_status": null, "persistent_id": "", "id": 110269411, "location_subtype": "", "month": "2023-05"}, {"category": "anti-social-behaviour", "location_type": "Force", "location": {"latitude": "53.418759", "street": {"id": 1719595, "name": "On or near Deadman's Hole Lane"}, "longitude": "-1.392972"}, "context": "", "outcome_status": null, "persistent_id": "", "id": 110269417, "location_subtype": "", "month": "2023-05"}, {"category": "anti-social-behaviour", "location_type": "Force", "location": {"latitude": "53.429890", "street": {"id": 1719600, "name": "On or near South Street"}, "longitude": "-1.393656"}, "context": "", "outcome_status": null, "persistent_id": "", "id": 110269418, "location_subtype": "", "month": "2023-05"}, {"category": "anti-social-behaviour", "location_type": "Force", "location": {"latitude": "53.442443", "street": {"id": 1719737, "name": "On or near Hutton Road"}, "longitude": "-1.391129"}, "context": "", "outcome_status": null, "persistent_id": "", "id": 110269419, "location_subtype": "", "month": "2023-05"}, {"category": "anti-social-behaviour", "location_type": "Force", "location": {"latitude": "53.433054", "street": {"id": 1721368, "name": "On or near Henry Street"}, "longitude": "-1.354146"}, "context": "", "outcome_status": null, "persistent_id": "", "id": 110269425, "location_subtype": "", "month": "2023-05"}, {"category": "anti-social-behaviour", "location_type": "Force", "location": {"latitude": "53.437427", "street": {"id": 1721195, "name": "On or near Rawmarsh Road"}, "longitude": "-1.355103"}, "context": "", "outcome_status": null, "persistent_id": "", "id": 110269426, "location_subtype": "", "month": "2023-05"}, {"category": "anti-social-behaviour", "location_type": "Force", "location": {"latitude": "53.364626", "street": {"id": 1721350, "name": "On or near Watch Street"}, "longitude": "-1.354775"}, "context": "", "outcome_status": null, "persistent_id": "", "id": 110269427, "location_subtype": "", "month": "2023-05"}, {"category": "anti-social-behaviour", "location_type": "Force", "location": {"latitude": "53.471655", "street": {"id": 1721677, "name": "On or near The Parade"}, "longitude": "-1.348212"}, "context": "", "outcome_status": null, "persistent_id": "", "id": 110269428, "location_subtype": "", "month": "2023-05"}, {"category": "anti-social-behaviour", "location_type": "Force", "location": {"latitude": "53.439026", "street": {"id": 1721944, "name": "On or near Shakespeare Road"}, "longitude": "-1.341636"}, "context": "", "outcome_status": null, "persistent_id": "", "id": 110269431, "location_subtype": "", "month": "2023-05"}, {"category": "anti-social-behaviour", "location_type": "Force", "location": {"latitude": "53.343854", "street": {"id": 1719713, "name": "On or near Weakland Way"}, "longitude": "-1.390972"}, "context": "", "outcome_status": null, "persistent_id": "", "id": 110254985, "location_subtype": "", "month": "2023-05"}, {"category": "anti-social-behaviour", "location_type": "Force", "location": {"latitude": "53.424581", "street": {"id": 1722427, "name": "On or near Marlowe Road"}, "longitude": "-1.328707"}, "context": "", "outcome_status": null, "persistent_id": "", "id": 110269435, "location_subtype": "", "month": "2023-05"}, {"category": "anti-social-behaviour", "location_type": "Force", "location": {"latitude": "53.428565", "street": {"id": 1720211, "name": "On or near Hartington Close"}, "longitude": "-1.380732"}, "context": "", "outcome_status": null, "persistent_id": "", "id": 110254988, "location_subtype": "", "month": "2023-05"}, {"category": "anti-social-behaviour", "location_type": "Force", "location": {"latitude": "53.358881", "street": {"id": 1720608, "name": "On or near Cross Drive"}, "longitude": "-1.371450"}, "context": "", "outcome_status": null, "persistent_id": "", "id": 110254990, "location_subtype": "", "month": "2023-05"}, {"category": "anti-social-behaviour", "location_type": "Force", "location": {"latitude": "53.432099", "street": {"id": 1720829, "name": "On or near College Road"}, "longitude": "-1.365449"}, "context": "", "outcome_status": null, "persistent_id": "", "id": 110254991, "location_subtype": "", "month": "2023-05"}, {"category": "anti-social-behaviour", "location_type": "Force", "location": {"latitude": "53.378602", "street": {"id": 1716871, "name": "On or near Samson Street"}, "longitude": "-1.453688"}, "context": "", "outcome_status": null, "persistent_id": "", "id": 110255554, "location_subtype": "", "month": "2023-05"}, {"category": "anti-social-behaviour", "location_type": "Force", "location": {"latitude": "53.406812", "street": {"id": 1717027, "name": "On or near Skinnerthorpe Road"}, "longitude": "-1.452424"}, "context": "", "outcome_status": null, "persistent_id": "", "id": 110255556, "location_subtype": "", "month": "2023-05"}, {"category": "anti-social-behaviour", "location_type": "Force", "location": {"latitude": "53.372595", "street": {"id": 1717468, "name": "On or near Warley Road"}, "longitude": "-1.443198"}, "context": "", "outcome_status": null, "persistent_id": "", "id": 110255557, "location_subtype": "", "month": "2023-05"}, {"category": "anti-social-behaviour", "location_type": "Force", "location": {"latitude": "53.411244", "street": {"id": 1717591, "name": "On or near Hinde House Croft"}, "longitude": "-1.442694"}, "context": "", "outcome_status": null, "persistent_id": "", "id": 110255558, "location_subtype": "", "month": "2023-05"}, {"category": "anti-social-behaviour", "location_type": "Force", "location": {"latitude": "53.374417", "street": {"id": 1717628, "name": "On or near Magpie Grove"}, "longitude": "-1.440875"}, "context": "", "outcome_status": null, "persistent_id": "", "id": 110255560, "location_subtype": "", "month": "2023-05"}, {"category": "anti-social-behaviour", "location_type": "Force", "location": {"latitude": "53.371551", "street": {"id": 1718759, "name": "On or near Alison Crescent"}, "longitude": "-1.416744"}, "context": "", "outcome_status": null, "persistent_id": "", "id": 110255565, "location_subtype": "", "month": "2023-05"}, {"category": "anti-social-behaviour", "location_type": "Force", "location": {"latitude": "53.394371", "street": {"id": 1718854, "name": "On or near Clipstone Gardens"}, "longitude": "-1.414267"}, "context": "", "outcome_status": null, "persistent_id": "", "id": 110255567, "location_subtype": "", "month": "2023-05"}, {"category": "anti-social-behaviour", "location_type": "Force", "location": {"latitude": "53.344616", "street": {"id": 1718871, "name": "On or near Jaunty View"}, "longitude": "-1.412095"}, "context": "", "outcome_status": null, "persistent_id": "", "id": 110255568, "location_subtype": "", "month": "2023-05"}, {"category": "anti-social-behaviour", "location_type": "Force", "location": {"latitude": "53.385432", "street": {"id": 1719181, "name": "On or near Waverley Road"}, "longitude": "-1.407955"}, "context": "", "outcome_status": null, "persistent_id": "", "id": 110255569, "location_subtype": "", "month": "2023-05"}, {"category": "anti-social-behaviour", "location_type": "Force", "location": {"latitude": "53.375867", "street": {"id": 1719657, "name": "On or near Handsworth Road"}, "longitude": "-1.393522"}, "context": "", "outcome_status": null, "persistent_id": "", "id": 110255571, "location_subtype": "", "month": "2023-05"}, {"category": "anti-social-behaviour", "location_type": "Force", "location": {"latitude": "53.435141", "street": {"id": 1720414, "name": "On or near Mount Street"}, "longitude": "-1.376482"}, "context": "", "outcome_status": null, "persistent_id": "", "id": 110255574, "location_subtype": "", "month": "2023-05"}, {"category": "anti-social-behaviour", "location_type": "Force", "location": {"latitude": "53.468767", "street": {"id": 1720630, "name": "On or near Cortworth Lane"}, "longitude": "-1.371365"}, "context": "", "outcome_status": null, "persistent_id": "", "id": 110255575, "location_subtype": "", "month": "2023-05"}, {"category": "anti-social-behaviour", "location_type": "Force", "location": {"latitude": "53.432123", "street": {"id": 1720689, "name": "On or near St John's Avenue"}, "longitude": "-1.370099"}, "context": "", "outcome_status": null, "persistent_id": "", "id": 110255576, "location_subtype": "", "month": "2023-05"}, {"category": "anti-social-behaviour", "location_type": "Force", "location": {"latitude": "53.373941", "street": {"id": 1711306, "name": "On or near Westminster Avenue"}, "longitude": "-1.551793"}, "context": "", "outcome_status": null, "persistent_id": "", "id": 110255532, "location_subtype": "", "month": "2023-05"}, {"category": "anti-social-behaviour", "location_type": "Force", "location": {"latitude": "53.461037", "street": {"id": 1714822, "name": "On or near Burns Court"}, "longitude": "-1.479862"}, "context": "", "outcome_status": null, "persistent_id": "", "id": 110255541, "location_subtype": "", "month": "2023-05"}, {"category": "anti-social-behaviour", "location_type": "Force", "location": {"latitude": "53.381892", "street": {"id": 1716577, "name": "On or near Anson Street"}, "longitude": "-1.459464"}, "context": "", "outcome_status": null, "persistent_id": "", "id": 110255549, "location_subtype": "", "month": "2023-05"}, {"category": "anti-social-behaviour", "location_type": "Force", "location": {"latitude": "53.359606", "street": {"id": 1717755, "name": "On or near Supermarket"}, "longitude": "-1.437493"}, "context": "", "outcome_status": null, "persistent_id": "", "id": 110256088, "location_subtype": "", "month": "2023-05"}, {"category": "anti-social-behaviour", "location_type": "Force", "location": {"latitude": "53.366913", "street": {"id": 1714664, "name": "On or near Smeaton Street"}, "longitude": "-1.480888"}, "context": "", "outcome_status": null, "persistent_id": "", "id": 110269895, "location_subtype": "", "month": "2023-05"}, {"category": "anti-social-behaviour", "location_type": "Force", "location": {"latitude": "53.458874", "street": {"id": 1715148, "name": "On or near Scott Way"}, "longitude": "-1.476485"}, "context": "", "outcome_status": null, "persistent_id": "", "id": 110269896, "location_subtype": "", "month": "2023-05"}, {"category": "anti-social-behaviour", "location_type": "Force", "location": {"latitude": "53.460931", "street": {"id": 1715705, "name": "On or near Nether Ley Croft"}, "longitude": "-1.470103"}, "context": "", "outcome_status": null, "persistent_id": "", "id": 110269897, "location_subtype": "", "month": "2023-05"}, {"category": "anti-social-behaviour", "location_type": "Force", "location": {"latitude": "53.379247", "street": {"id": 1715628, "name": "On or near Cross Burgess Street"}, "longitude": "-1.471072"}, "context": "", "outcome_status": null, "persistent_id": "", "id": 110269898, "location_subtype": "", "month": "2023-05"}, {"category": "anti-social-behaviour", "location_type": "Force", "location": {"latitude": "53.442340", "street": {"id": 1715676, "name": "On or near St Mary's Lane"}, "longitude": "-1.469326"}, "context": "", "outcome_status": null, "persistent_id": "", "id": 110269899, "location_subtype": "", "month": "2023-05"}, {"category": "anti-social-behaviour", "location_type": "Force", "location": {"latitude": "53.463352", "street": {"id": 1715616, "name": "On or near Westbrook Road"}, "longitude": "-1.470646"}, "context": "", "outcome_status": null, "persistent_id": "", "id": 110269900, "location_subtype": "", "month": "2023-05"}, {"category": "anti-social-behaviour", "location_type": "Force", "location": {"latitude": "53.426616", "street": {"id": 1716117, "name": "On or near Lindsay Drive"}, "longitude": "-1.464781"}, "context": "", "outcome_status": null, "persistent_id": "", "id": 110269901, "location_subtype": "", "month": "2023-05"}, {"category": "anti-social-behaviour", "location_type": "Force", "location": {"latitude": "53.398915", "street": {"id": 1716126, "name": "On or near Burngrove Place"}, "longitude": "-1.465264"}, "context": "", "outcome_status": null, "persistent_id": "", "id": 110269902, "location_subtype": "", "month": "2023-05"}, {"category": "anti-social-behaviour", "location_type": "Force", "location": {"latitude": "53.401394", "street": {"id": 1716589, "name": "On or near College Close"}, "longitude": "-1.458766"}, "context": "", "outcome_status": null, "persistent_id": "", "id": 110269905, "location_subtype": "", "month": "2023-05"}, {"category": "anti-social-behaviour", "location_type": "Force", "location": {"latitude": "53.423170", "street": {"id": 1716656, "name": "On or near Swanbourne Place"}, "longitude": "-1.457902"}, "context": "", "outcome_status": null, "persistent_id": "", "id": 110269907, "location_subtype": "", "month": "2023-05"}, {"category": "anti-social-behaviour", "location_type": "Force", "location": {"latitude": "53.421596", "street": {"id": 1716826, "name": "On or near Etwall Way"}, "longitude": "-1.453844"}, "context": "", "outcome_status": null, "persistent_id": "", "id": 110269909, "location_subtype": "", "month": "2023-05"}, {"category": "anti-social-behaviour", "location_type": "Force", "location": {"latitude": "53.359835", "street": {"id": 1717117, "name": "On or near Eastern Crescent"}, "longitude": "-1.449901"}, "context": "", "outcome_status": null, "persistent_id": "", "id": 110269910, "location_subtype": "", "month": "2023-05"}, {"category": "anti-social-behaviour", "location_type": "Force", "location": {"latitude": "53.412724", "street": {"id": 1717294, "name": "On or near Vivian Road"}, "longitude": "-1.445879"}, "context": "", "outcome_status": null, "persistent_id": "", "id": 110269911, "location_subtype": "", "month": "2023-05"}, {"category": "anti-social-behaviour", "location_type": "Force", "location": {"latitude": "53.361793", "street": {"id": 1717573, "name": "On or near Algar Drive"}, "longitude": "-1.441942"}, "context": "", "outcome_status": null, "persistent_id": "", "id": 110269912, "location_subtype": "", "month": "2023-05"}, {"category": "anti-social-behaviour", "location_type": "Force", "location": {"latitude": "53.372808", "street": {"id": 1717612, "name": "On or near Stock Road"}, "longitude": "-1.440686"}, "context": "", "outcome_status": null, "persistent_id": "", "id": 110269914, "location_subtype": "", "month": "2023-05"}, {"category": "anti-social-behaviour", "location_type": "Force", "location": {"latitude": "53.359758", "street": {"id": 1717724, "name": "On or near Errington Road"}, "longitude": "-1.439234"}, "context": "", "outcome_status": null, "persistent_id": "", "id": 110269915, "location_subtype": "", "month": "2023-05"}, {"category": "anti-social-behaviour", "location_type": "Force", "location": {"latitude": "53.382645", "street": {"id": 1717615, "name": "On or near Manor Way"}, "longitude": "-1.437700"}, "context": "", "outcome_status": null, "persistent_id": "", "id": 110269916, "location_subtype": "", "month": "2023-05"}, {"category": "anti-social-behaviour", "location_type": "Force", "location": {"latitude": "53.343256", "street": {"id": 1717876, "name": "On or near Leighton Drive"}, "longitude": "-1.433863"}, "context": "", "outcome_status": null, "persistent_id": "", "id": 110269917, "location_subtype": "", "month": "2023-05"}, {"category": "anti-social-behaviour", "location_type": "Force", "location": {"latitude": "53.349770", "street": {"id": 1718328, "name": "On or near Kirkby Road"}, "longitude": "-1.425604"}, "context": "", "outcome_status": null, "persistent_id": "", "id": 110269919, "location_subtype": "", "month": "2023-05"}, {"category": "anti-social-behaviour", "location_type": "Force", "location": {"latitude": "53.339250", "street": {"id": 1718258, "name": "On or near Charnock Dale Road"}, "longitude": "-1.423252"}, "context": "", "outcome_status": null, "persistent_id": "", "id": 110269920, "location_subtype": "", "month": "2023-05"}, {"category": "anti-social-behaviour", "location_type": "Force", "location": {"latitude": "53.360086", "street": {"id": 1718412, "name": "On or near Applegarth Close"}, "longitude": "-1.423182"}, "context": "", "outcome_status": null, "persistent_id": "", "id": 110269921, "location_subtype": "", "month": "2023-05"}, {"category": "anti-social-behaviour", "location_type": "Force", "location": {"latitude": "53.443226", "street": {"id": 1722686, "name": "On or near Petrol Station"}, "longitude": "-1.321261"}, "context": "", "outcome_status": null, "persistent_id": "", "id": 110258690, "location_subtype": "", "month": "2023-05"}, {"category": "anti-social-behaviour", "location_type": "Force", "location": {"latitude": "53.425916", "street": {"id": 1722776, "name": "On or near Brookside"}, "longitude": "-1.318347"}, "context": "", "outcome_status": null, "persistent_id": "", "id": 110258691, "location_subtype": "", "month": "2023-05"}, {"category": "anti-social-behaviour", "location_type": "Force", "location": {"latitude": "53.460378", "street": {"id": 1717832, "name": "On or near The Bellfields"}, "longitude": "-1.437578"}, "context": "", "outcome_status": null, "persistent_id": "", "id": 110263202, "location_subtype": "", "month": "2023-05"}, {"category": "anti-social-behaviour", "location_type": "Force", "location": {"latitude": "53.341609", "street": {"id": 1717974, "name": "On or near Bowman Close"}, "longitude": "-1.433359"}, "context": "", "outcome_status": null, "persistent_id": "", "id": 110263204, "location_subtype": "", "month": "2023-05"}, {"category": "anti-social-behaviour", "location_type": "Force", "location": {"latitude": "53.476176", "street": {"id": 1710874, "name": "On or near Cedar Close"}, "longitude": "-1.599398"}, "context": "", "outcome_status": null, "persistent_id": "", "id": 110271377, "location_subtype": "", "month": "2023-05"}, {"category": "anti-social-behaviour", "location_type": "Force", "location": {"latitude": "53.381140", "street": {"id": 1713104, "name": "On or near Weston View"}, "longitude": "-1.503716"}, "context": "", "outcome_status": null, "persistent_id": "", "id": 110271378, "location_subtype": "", "month": "2023-05"}, {"category": "anti-social-behaviour", "location_type": "Force", "location": {"latitude": "53.355179", "street": {"id": 1713522, "name": "On or near Bannerdale Road"}, "longitude": "-1.496941"}, "context": "", "outcome_status": null, "persistent_id": "", "id": 110271379, "location_subtype": "", "month": "2023-05"}, {"category": "anti-social-behaviour", "location_type": "Force", "location": {"latitude": "53.321516", "street": {"id": 1713492, "name": "On or near Edmund Close"}, "longitude": "-1.496812"}, "context": "", "outcome_status": null, "persistent_id": "", "id": 110271380, "location_subtype": "", "month": "2023-05"}, {"category": "anti-social-behaviour", "location_type": "Force", "location": {"latitude": "53.343982", "street": {"id": 1714504, "name": "On or near Fraser Crescent"}, "longitude": "-1.482909"}, "context": "", "outcome_status": null, "persistent_id": "", "id": 110271385, "location_subtype": "", "month": "2023-05"}, {"category": "anti-social-behaviour", "location_type": "Force", "location": {"latitude": "53.420312", "street": {"id": 1714920, "name": "On or near Northlands Road"}, "longitude": "-1.478267"}, "context": "", "outcome_status": null, "persistent_id": "", "id": 110271387, "location_subtype": "", "month": "2023-05"}, {"category": "anti-social-behaviour", "location_type": "Force", "location": {"latitude": "53.373673", "street": {"id": 1715261, "name": "On or near South Lane"}, "longitude": "-1.474899"}, "context": "", "outcome_status": null, "persistent_id": "", "id": 110271388, "location_subtype": "", "month": "2023-05"}, {"category": "anti-social-behaviour", "location_type": "Force", "location": {"latitude": "53.383608", "street": {"id": 1715612, "name": "On or near Lee Croft"}, "longitude": "-1.471364"}, "context": "", "outcome_status": null, "persistent_id": "", "id": 110271389, "location_subtype": "", "month": "2023-05"}, {"category": "anti-social-behaviour", "location_type": "Force", "location": {"latitude": "53.401758", "street": {"id": 1715766, "name": "On or near High View"}, "longitude": "-1.469680"}, "context": "", "outcome_status": null, "persistent_id": "", "id": 110271390, "location_subtype": "", "month": "2023-05"}, {"category": "anti-social-behaviour", "location_type": "Force", "location": {"latitude": "53.319191", "street": {"id": 1716034, "name": "On or near Batemoor Road"}, "longitude": "-1.466591"}, "context": "", "outcome_status": null, "persistent_id": "", "id": 110271391, "location_subtype": "", "month": "2023-05"}, {"category": "anti-social-behaviour", "location_type": "Force", "location": {"latitude": "53.426067", "street": {"id": 1716247, "name": "On or near Ingelow Avenue"}, "longitude": "-1.462576"}, "context": "", "outcome_status": null, "persistent_id": "", "id": 110271392, "location_subtype": "", "month": "2023-05"}, {"category": "anti-social-behaviour", "location_type": "Force", "location": {"latitude": "53.382959", "street": {"id": 1716591, "name": "On or near Broad Street"}, "longitude": "-1.458969"}, "context": "", "outcome_status": null, "persistent_id": "", "id": 110271394, "location_subtype": "", "month": "2023-05"}, {"category": "anti-social-behaviour", "location_type": "Force", "location": {"latitude": "53.367448", "street": {"id": 1718255, "name": "On or near Payler Close"}, "longitude": "-1.426990"}, "context": "", "outcome_status": null, "persistent_id": "", "id": 110271400, "location_subtype": "", "month": "2023-05"}, {"category": "anti-social-behaviour", "location_type": "Force", "location": {"latitude": "53.370711", "street": {"id": 1718325, "name": "On or near Leefield Close"}, "longitude": "-1.425037"}, "context": "", "outcome_status": null, "persistent_id": "", "id": 110271401, "location_subtype": "", "month": "2023-05"}, {"category": "anti-social-behaviour", "location_type": "Force", "location": {"latitude": "53.367889", "street": {"id": 1718492, "name": "On or near Fairfax Rise"}, "longitude": "-1.421438"}, "context": "", "outcome_status": null, "persistent_id": "", "id": 110271402, "location_subtype": "", "month": "2023-05"}, {"category": "anti-social-behaviour", "location_type": "Force", "location": {"latitude": "53.432968", "street": {"id": 1721579, "name": "On or near Spring Street"}, "longitude": "-1.349903"}, "context": "", "outcome_status": null, "persistent_id": "", "id": 110271416, "location_subtype": "", "month": "2023-05"}, {"category": "anti-social-behaviour", "location_type": "Force", "location": {"latitude": "53.438598", "street": {"id": 1721627, "name": "On or near Hardwicke Road"}, "longitude": "-1.347258"}, "context": "", "outcome_status": null, "persistent_id": "", "id": 110271417, "location_subtype": "", "month": "2023-05"}, {"category": "anti-social-behaviour", "location_type": "Force", "location": {"latitude": "53.433463", "street": {"id": 1721655, "name": "On or near Ridge Road"}, "longitude": "-1.346719"}, "context": "", "outcome_status": null, "persistent_id": "", "id": 110271418, "location_subtype": "", "month": "2023-05"}, {"category": "anti-social-behaviour", "location_type": "Force", "location": {"latitude": "53.418850", "street": {"id": 1721974, "name": "On or near Brunswick Road"}, "longitude": "-1.340759"}, "context": "", "outcome_status": null, "persistent_id": "", "id": 110271419, "location_subtype": "", "month": "2023-05"}, {"category": "anti-social-behaviour", "location_type": "Force", "location": {"latitude": "53.452391", "street": {"id": 1720347, "name": "On or near Wingfield Close"}, "longitude": "-1.378308"}, "context": "", "outcome_status": null, "persistent_id": "", "id": 110263208, "location_subtype": "", "month": "2023-05"}, {"category": "anti-social-behaviour", "location_type": "Force", "location": {"latitude": "53.346548", "street": {"id": 1720208, "name": "On or near Cotleigh Road"}, "longitude": "-1.379938"}, "context": "", "outcome_status": null, "persistent_id": "", "id": 110263210, "location_subtype": "", "month": "2023-05"}, {"category": "anti-social-behaviour", "location_type": "Force", "location": {"latitude": "53.424593", "street": {"id": 1714973, "name": "On or near Buchanan Road"}, "longitude": "-1.476725"}, "context": "", "outcome_status": null, "persistent_id": "", "id": 110270362, "location_subtype": "", "month": "2023-05"}, {"category": "anti-social-behaviour", "location_type": "Force", "location": {"latitude": "53.382697", "street": {"id": 1715851, "name": "On or near East Parade"}, "longitude": "-1.468624"}, "context": "", "outcome_status": null, "persistent_id": "", "id": 110270368, "location_subtype": "", "month": "2023-05"}, {"category": "anti-social-behaviour", "location_type": "Force", "location": {"latitude": "53.368857", "street": {"id": 1715236, "name": "On or near Harwood Close"}, "longitude": "-1.475454"}, "context": "", "outcome_status": null, "persistent_id": "", "id": 110270364, "location_subtype": "", "month": "2023-05"}, {"category": "anti-social-behaviour", "location_type": "Force", "location": {"latitude": "53.409494", "street": {"id": 1715981, "name": "On or near Fairbank Road"}, "longitude": "-1.465071"}, "context": "", "outcome_status": null, "persistent_id": "", "id": 110270370, "location_subtype": "", "month": "2023-05"}, {"category": "anti-social-behaviour", "location_type": "Force", "location": {"latitude": "53.349124", "street": {"id": 1716124, "name": "On or near Thorpe House Avenue"}, "longitude": "-1.464685"}, "context": "", "outcome_status": null, "persistent_id": "", "id": 110270372, "location_subtype": "", "month": "2023-05"}, {"category": "anti-social-behaviour", "location_type": "Force", "location": {"latitude": "53.349124", "street": {"id": 1716124, "name": "On or near Thorpe House Avenue"}, "longitude": "-1.464685"}, "context": "", "outcome_status": null, "persistent_id": "", "id": 110270373, "location_subtype": "", "month": "2023-05"}, {"category": "anti-social-behaviour", "location_type": "Force", "location": {"latitude": "53.433818", "street": {"id": 1716966, "name": "On or near Perkyn Road"}, "longitude": "-1.451295"}, "context": "", "outcome_status": null, "persistent_id": "", "id": 110270376, "location_subtype": "", "month": "2023-05"}, {"category": "anti-social-behaviour", "location_type": "Force", "location": {"latitude": "53.355020", "street": {"id": 1716996, "name": "On or near Callow Mount"}, "longitude": "-1.452682"}, "context": "", "outcome_status": null, "persistent_id": "", "id": 110270377, "location_subtype": "", "month": "2023-05"}, {"category": "anti-social-behaviour", "location_type": "Force", "location": {"latitude": "53.429910", "street": {"id": 1717301, "name": "On or near Sicey Lane"}, "longitude": "-1.445942"}, "context": "", "outcome_status": null, "persistent_id": "", "id": 110270381, "location_subtype": "", "month": "2023-05"}, {"category": "anti-social-behaviour", "location_type": "Force", "location": {"latitude": "53.411735", "street": {"id": 1717299, "name": "On or near Addison Road"}, "longitude": "-1.445922"}, "context": "", "outcome_status": null, "persistent_id": "", "id": 110270382, "location_subtype": "", "month": "2023-05"}, {"category": "anti-social-behaviour", "location_type": "Force", "location": {"latitude": "53.350975", "street": {"id": 1717459, "name": "On or near Spotswood Close"}, "longitude": "-1.444847"}, "context": "", "outcome_status": null, "persistent_id": "", "id": 110270383, "location_subtype": "", "month": "2023-05"}, {"category": "anti-social-behaviour", "location_type": "Force", "location": {"latitude": "53.408202", "street": {"id": 1717605, "name": "On or near Dunmow Road"}, "longitude": "-1.441921"}, "context": "", "outcome_status": null, "persistent_id": "", "id": 110270384, "location_subtype": "", "month": "2023-05"}, {"category": "anti-social-behaviour", "location_type": "Force", "location": {"latitude": "53.372942", "street": {"id": 1717738, "name": "On or near Manor Park Court"}, "longitude": "-1.436746"}, "context": "", "outcome_status": null, "persistent_id": "", "id": 110270386, "location_subtype": "", "month": "2023-05"}, {"category": "anti-social-behaviour", "location_type": "Force", "location": {"latitude": "53.417892", "street": {"id": 1717861, "name": "On or near Wincobank Close"}, "longitude": "-1.436167"}, "context": "", "outcome_status": null, "persistent_id": "", "id": 110270387, "location_subtype": "", "month": "2023-05"}, {"category": "anti-social-behaviour", "location_type": "Force", "location": {"latitude": "53.372761", "street": {"id": 1718321, "name": "On or near Motehall Drive"}, "longitude": "-1.425205"}, "context": "", "outcome_status": null, "persistent_id": "", "id": 110270389, "location_subtype": "", "month": "2023-05"}, {"category": "anti-social-behaviour", "location_type": "Force", "location": {"latitude": "53.341871", "street": {"id": 1718337, "name": "On or near Charnock Hall Road"}, "longitude": "-1.424283"}, "context": "", "outcome_status": null, "persistent_id": "", "id": 110270390, "location_subtype": "", "month": "2023-05"}, {"category": "anti-social-behaviour", "location_type": "Force", "location": {"latitude": "53.439851", "street": {"id": 1719592, "name": "On or near Eilam Road"}, "longitude": "-1.395652"}, "context": "", "outcome_status": null, "persistent_id": "", "id": 110270395, "location_subtype": "", "month": "2023-05"}, {"category": "anti-social-behaviour", "location_type": "Force", "location": {"latitude": "53.433813", "street": {"id": 1719670, "name": "On or near Church Street"}, "longitude": "-1.392758"}, "context": "", "outcome_status": null, "persistent_id": "", "id": 110270396, "location_subtype": "", "month": "2023-05"}, {"category": "anti-social-behaviour", "location_type": "Force", "location": {"latitude": "53.346285", "street": {"id": 1719622, "name": "On or near East Glade Avenue"}, "longitude": "-1.395263"}, "context": "", "outcome_status": null, "persistent_id": "", "id": 110270397, "location_subtype": "", "month": "2023-05"}, {"category": "anti-social-behaviour", "location_type": "Force", "location": {"latitude": "53.361095", "street": {"id": 1720025, "name": "On or near Severnside Place"}, "longitude": "-1.382357"}, "context": "", "outcome_status": null, "persistent_id": "", "id": 110270399, "location_subtype": "", "month": "2023-05"}, {"category": "anti-social-behaviour", "location_type": "Force", "location": {"latitude": "53.436565", "street": {"id": 1721739, "name": "On or near Petrol Station"}, "longitude": "-1.346852"}, "context": "", "outcome_status": null, "persistent_id": "", "id": 110270407, "location_subtype": "", "month": "2023-05"}, {"category": "anti-social-behaviour", "location_type": "Force", "location": {"latitude": "53.462339", "street": {"id": 1722423, "name": "On or near Ash Grove"}, "longitude": "-1.329663"}, "context": "", "outcome_status": null, "persistent_id": "", "id": 110270409, "location_subtype": "", "month": "2023-05"}, {"category": "anti-social-behaviour", "location_type": "Force", "location": {"latitude": "53.438944", "street": {"id": 1722924, "name": "On or near Hardwick Street"}, "longitude": "-1.315835"}, "context": "", "outcome_status": null, "persistent_id": "", "id": 110270413, "location_subtype": "", "month": "2023-05"}, {"category": "anti-social-behaviour", "location_type": "Force", "location": {"latitude": "53.404112", "street": {"id": 1720843, "name": "On or near Field View Court"}, "longitude": "-1.366211"}, "context": "", "outcome_status": null, "persistent_id": "", "id": 110263212, "location_subtype": "", "month": "2023-05"}, {"category": "anti-social-behaviour", "location_type": "Force", "location": {"latitude": "53.349396", "street": {"id": 1718728, "name": "On or near Jaunty Lane"}, "longitude": "-1.417062"}, "context": "", "outcome_status": null, "persistent_id": "", "id": 110269923, "location_subtype": "", "month": "2023-05"}, {"category": "anti-social-behaviour", "location_type": "Force", "location": {"latitude": "53.376230", "street": {"id": 1719094, "name": "On or near Bowden Wood Drive"}, "longitude": "-1.410352"}, "context": "", "outcome_status": null, "persistent_id": "", "id": 110269925, "location_subtype": "", "month": "2023-05"}, {"category": "anti-social-behaviour", "location_type": "Force", "location": {"latitude": "53.474615", "street": {"id": 1721031, "name": "On or near Symonds Avenue"}, "longitude": "-1.362043"}, "context": "", "outcome_status": null, "persistent_id": "", "id": 110269932, "location_subtype": "", "month": "2023-05"}, {"category": "anti-social-behaviour", "location_type": "Force", "location": {"latitude": "53.433833", "street": {"id": 1721396, "name": "On or near Supermarket"}, "longitude": "-1.353592"}, "context": "", "outcome_status": null, "persistent_id": "", "id": 110269934, "location_subtype": "", "month": "2023-05"}, {"category": "anti-social-behaviour", "location_type": "Force", "location": {"latitude": "53.427168", "street": {"id": 1721572, "name": "On or near Bernard Street"}, "longitude": "-1.349449"}, "context": "", "outcome_status": null, "persistent_id": "", "id": 110269936, "location_subtype": "", "month": "2023-05"}, {"category": "anti-social-behaviour", "location_type": "Force", "location": {"latitude": "53.414356", "street": {"id": 1713780, "name": "On or near Oxspring Bank"}, "longitude": "-1.491625"}, "context": "", "outcome_status": null, "persistent_id": "", "id": 110267127, "location_subtype": "", "month": "2023-05"}, {"category": "anti-social-behaviour", "location_type": "Force", "location": {"latitude": "53.386739", "street": {"id": 1714382, "name": "On or near Bellefield Street"}, "longitude": "-1.484436"}, "context": "", "outcome_status": null, "persistent_id": "", "id": 110267128, "location_subtype": "", "month": "2023-05"}, {"category": "anti-social-behaviour", "location_type": "Force", "location": {"latitude": "53.375458", "street": {"id": 1715378, "name": "On or near Shopping Area"}, "longitude": "-1.473270"}, "context": "", "outcome_status": null, "persistent_id": "", "id": 110267132, "location_subtype": "", "month": "2023-05"}, {"category": "anti-social-behaviour", "location_type": "Force", "location": {"latitude": "53.393307", "street": {"id": 1716257, "name": "On or near Andover Street"}, "longitude": "-1.463470"}, "context": "", "outcome_status": null, "persistent_id": "", "id": 110267137, "location_subtype": "", "month": "2023-05"}, {"category": "anti-social-behaviour", "location_type": "Force", "location": {"latitude": "53.391608", "street": {"id": 1716716, "name": "On or near Hallcar Street"}, "longitude": "-1.457416"}, "context": "", "outcome_status": null, "persistent_id": "", "id": 110267139, "location_subtype": "", "month": "2023-05"}, {"category": "anti-social-behaviour", "location_type": "Force", "location": {"latitude": "53.395618", "street": {"id": 1716809, "name": "On or near Ellesmere Road"}, "longitude": "-1.455651"}, "context": "", "outcome_status": null, "persistent_id": "", "id": 110267140, "location_subtype": "", "month": "2023-05"}, {"category": "anti-social-behaviour", "location_type": "Force", "location": {"latitude": "53.418908", "street": {"id": 1717214, "name": "On or near Shopping Area"}, "longitude": "-1.448670"}, "context": "", "outcome_status": null, "persistent_id": "", "id": 110267145, "location_subtype": "", "month": "2023-05"}, {"category": "anti-social-behaviour", "location_type": "Force", "location": {"latitude": "53.374972", "street": {"id": 1717340, "name": "On or near Skye Edge Road"}, "longitude": "-1.446129"}, "context": "", "outcome_status": null, "persistent_id": "", "id": 110267146, "location_subtype": "", "month": "2023-05"}, {"category": "anti-social-behaviour", "location_type": "Force", "location": {"latitude": "53.351403", "street": {"id": 1717597, "name": "On or near Middle Hay Place"}, "longitude": "-1.442197"}, "context": "", "outcome_status": null, "persistent_id": "", "id": 110267147, "location_subtype": "", "month": "2023-05"}, {"category": "anti-social-behaviour", "location_type": "Force", "location": {"latitude": "53.359758", "street": {"id": 1717724, "name": "On or near Errington Road"}, "longitude": "-1.439234"}, "context": "", "outcome_status": null, "persistent_id": "", "id": 110267148, "location_subtype": "", "month": "2023-05"}, {"category": "anti-social-behaviour", "location_type": "Force", "location": {"latitude": "53.360832", "street": {"id": 1717761, "name": "On or near Northern Avenue"}, "longitude": "-1.438153"}, "context": "", "outcome_status": null, "persistent_id": "", "id": 110267149, "location_subtype": "", "month": "2023-05"}, {"category": "anti-social-behaviour", "location_type": "Force", "location": {"latitude": "53.458552", "street": {"id": 1717976, "name": "On or near Sough Hall Road"}, "longitude": "-1.433445"}, "context": "", "outcome_status": null, "persistent_id": "", "id": 110267150, "location_subtype": "", "month": "2023-05"}, {"category": "anti-social-behaviour", "location_type": "Force", "location": {"latitude": "53.361726", "street": {"id": 1717969, "name": "On or near Dagnam Road"}, "longitude": "-1.433347"}, "context": "", "outcome_status": null, "persistent_id": "", "id": 110267151, "location_subtype": "", "month": "2023-05"}, {"category": "anti-social-behaviour", "location_type": "Force", "location": {"latitude": "53.456662", "street": {"id": 1720285, "name": "On or near Grayson Road"}, "longitude": "-1.378607"}, "context": "", "outcome_status": null, "persistent_id": "", "id": 110267161, "location_subtype": "", "month": "2023-05"}, {"category": "anti-social-behaviour", "location_type": "Force", "location": {"latitude": "53.409214", "street": {"id": 1720897, "name": "On or near Petrol Station"}, "longitude": "-1.362239"}, "context": "", "outcome_status": null, "persistent_id": "", "id": 110267164, "location_subtype": "", "month": "2023-05"}, {"category": "anti-social-behaviour", "location_type": "Force", "location": {"latitude": "53.344200", "street": {"id": 1721056, "name": "On or near Petrol Station"}, "longitude": "-1.360282"}, "context": "", "outcome_status": null, "persistent_id": "", "id": 110267165, "location_subtype": "", "month": "2023-05"}, {"category": "anti-social-behaviour", "location_type": "Force", "location": {"latitude": "53.427770", "street": {"id": 1721558, "name": "On or near Clifton Terrace"}, "longitude": "-1.349515"}, "context": "", "outcome_status": null, "persistent_id": "", "id": 110267167, "location_subtype": "", "month": "2023-05"}, {"category": "anti-social-behaviour", "location_type": "Force", "location": {"latitude": "53.432770", "street": {"id": 1722639, "name": "On or near A6123"}, "longitude": "-1.322361"}, "context": "", "outcome_status": null, "persistent_id": "", "id": 110267169, "location_subtype": "", "month": "2023-05"}, {"category": "anti-social-behaviour", "location_type": "Force", "location": {"latitude": "53.450516", "street": {"id": 1711323, "name": "On or near Brightholmlee Lane"}, "longitude": "-1.554255"}, "context": "", "outcome_status": null, "persistent_id": "", "id": 110264856, "location_subtype": "", "month": "2023-05"}, {"category": "anti-social-behaviour", "location_type": "Force", "location": {"latitude": "53.323033", "street": {"id": 1714776, "name": "On or near Toppham Road"}, "longitude": "-1.479664"}, "context": "", "outcome_status": null, "persistent_id": "", "id": 110264865, "location_subtype": "", "month": "2023-05"}, {"category": "anti-social-behaviour", "location_type": "Force", "location": {"latitude": "53.378618", "street": {"id": 1715762, "name": "On or near Parking Area"}, "longitude": "-1.469066"}, "context": "", "outcome_status": null, "persistent_id": "", "id": 110264869, "location_subtype": "", "month": "2023-05"}, {"category": "anti-social-behaviour", "location_type": "Force", "location": {"latitude": "53.381809", "street": {"id": 1715708, "name": "On or near Shopping Area"}, "longitude": "-1.468581"}, "context": "", "outcome_status": null, "persistent_id": "", "id": 110264870, "location_subtype": "", "month": "2023-05"}, {"category": "anti-social-behaviour", "location_type": "Force", "location": {"latitude": "53.333231", "street": {"id": 1716632, "name": "On or near Henley Avenue"}, "longitude": "-1.458367"}, "context": "", "outcome_status": null, "persistent_id": "", "id": 110264875, "location_subtype": "", "month": "2023-05"}, {"category": "anti-social-behaviour", "location_type": "Force", "location": {"latitude": "53.365591", "street": {"id": 1719350, "name": "On or near Richmond Hall Drive"}, "longitude": "-1.403766"}, "context": "", "outcome_status": null, "persistent_id": "", "id": 110264892, "location_subtype": "", "month": "2023-05"}, {"category": "anti-social-behaviour", "location_type": "Force", "location": {"latitude": "53.443667", "street": {"id": 1719419, "name": "On or near Sports/recreation Area"}, "longitude": "-1.400198"}, "context": "", "outcome_status": null, "persistent_id": "", "id": 110264893, "location_subtype": "", "month": "2023-05"}, {"category": "anti-social-behaviour", "location_type": "Force", "location": {"latitude": "53.345546", "street": {"id": 1719654, "name": "On or near Jermyn Way"}, "longitude": "-1.393021"}, "context": "", "outcome_status": null, "persistent_id": "", "id": 110264897, "location_subtype": "", "month": "2023-05"}, {"category": "anti-social-behaviour", "location_type": "Force", "location": {"latitude": "53.346548", "street": {"id": 1720208, "name": "On or near Cotleigh Road"}, "longitude": "-1.379938"}, "context": "", "outcome_status": null, "persistent_id": "", "id": 110264899, "location_subtype": "", "month": "2023-05"}, {"category": "anti-social-behaviour", "location_type": "Force", "location": {"latitude": "53.404050", "street": {"id": 1720474, "name": "On or near Poplar Drive"}, "longitude": "-1.374921"}, "context": "", "outcome_status": null, "persistent_id": "", "id": 110264900, "location_subtype": "", "month": "2023-05"}, {"category": "anti-social-behaviour", "location_type": "Force", "location": {"latitude": "53.370853", "street": {"id": 1720506, "name": "On or near Malon Way"}, "longitude": "-1.374716"}, "context": "", "outcome_status": null, "persistent_id": "", "id": 110264901, "location_subtype": "", "month": "2023-05"}, {"category": "anti-social-behaviour", "location_type": "Force", "location": {"latitude": "53.425016", "street": {"id": 1721219, "name": "On or near The Maltings"}, "longitude": "-1.357052"}, "context": "", "outcome_status": null, "persistent_id": "", "id": 110264902, "location_subtype": "", "month": "2023-05"}, {"category": "anti-social-behaviour", "location_type": "Force", "location": {"latitude": "53.430347", "street": {"id": 1721277, "name": "On or near Conference/exhibition Centre"}, "longitude": "-1.355677"}, "context": "", "outcome_status": null, "persistent_id": "", "id": 110264903, "location_subtype": "", "month": "2023-05"}, {"category": "anti-social-behaviour", "location_type": "Force", "location": {"latitude": "53.419782", "street": {"id": 1722037, "name": "On or near Norrel's Croft"}, "longitude": "-1.340113"}, "context": "", "outcome_status": null, "persistent_id": "", "id": 110264904, "location_subtype": "", "month": "2023-05"}, {"category": "anti-social-behaviour", "location_type": "Force", "location": {"latitude": "53.366972", "street": {"id": 1710705, "name": "On or near Park/open Space"}, "longitude": "-1.599040"}, "context": "", "outcome_status": null, "persistent_id": "", "id": 110257674, "location_subtype": "", "month": "2023-05"}, {"category": "anti-social-behaviour", "location_type": "Force", "location": {"latitude": "53.390581", "street": {"id": 1712746, "name": "On or near Sports/recreation Area"}, "longitude": "-1.509260"}, "context": "", "outcome_status": null, "persistent_id": "", "id": 110257678, "location_subtype": "", "month": "2023-05"}, {"category": "anti-social-behaviour", "location_type": "Force", "location": {"latitude": "53.390581", "street": {"id": 1712746, "name": "On or near Sports/recreation Area"}, "longitude": "-1.509260"}, "context": "", "outcome_status": null, "persistent_id": "", "id": 110257679, "location_subtype": "", "month": "2023-05"}, {"category": "anti-social-behaviour", "location_type": "Force", "location": {"latitude": "53.420892", "street": {"id": 1714653, "name": "On or near Kyle Crescent"}, "longitude": "-1.481540"}, "context": "", "outcome_status": null, "persistent_id": "", "id": 110257683, "location_subtype": "", "month": "2023-05"}, {"category": "anti-social-behaviour", "location_type": "Force", "location": {"latitude": "53.366913", "street": {"id": 1714664, "name": "On or near Smeaton Street"}, "longitude": "-1.480888"}, "context": "", "outcome_status": null, "persistent_id": "", "id": 110257684, "location_subtype": "", "month": "2023-05"}, {"category": "anti-social-behaviour", "location_type": "Force", "location": {"latitude": "53.380878", "street": {"id": 1715356, "name": "On or near Parking Area"}, "longitude": "-1.474059"}, "context": "", "outcome_status": null, "persistent_id": "", "id": 110257689, "location_subtype": "", "month": "2023-05"}, {"category": "anti-social-behaviour", "location_type": "Force", "location": {"latitude": "53.464621", "street": {"id": 1715409, "name": "On or near Housley Park"}, "longitude": "-1.473160"}, "context": "", "outcome_status": null, "persistent_id": "", "id": 110257690, "location_subtype": "", "month": "2023-05"}, {"category": "anti-social-behaviour", "location_type": "Force", "location": {"latitude": "53.388072", "street": {"id": 1715470, "name": "On or near Parking Area"}, "longitude": "-1.472767"}, "context": "", "outcome_status": null, "persistent_id": "", "id": 110257692, "location_subtype": "", "month": "2023-05"}, {"category": "anti-social-behaviour", "location_type": "Force", "location": {"latitude": "53.327210", "street": {"id": 1715229, "name": "On or near Petrol Station"}, "longitude": "-1.474764"}, "context": "", "outcome_status": null, "persistent_id": "", "id": 110257693, "location_subtype": "", "month": "2023-05"}, {"category": "anti-social-behaviour", "location_type": "Force", "location": {"latitude": "53.461650", "street": {"id": 1715968, "name": "On or near Market Place"}, "longitude": "-1.465832"}, "context": "", "outcome_status": null, "persistent_id": "", "id": 110257694, "location_subtype": "", "month": "2023-05"}, {"category": "anti-social-behaviour", "location_type": "Force", "location": {"latitude": "53.391589", "street": {"id": 1716562, "name": "On or near Spital Lane"}, "longitude": "-1.459191"}, "context": "", "outcome_status": null, "persistent_id": "", "id": 110257697, "location_subtype": "", "month": "2023-05"}, {"category": "anti-social-behaviour", "location_type": "Force", "location": {"latitude": "53.431910", "street": {"id": 1721188, "name": "On or near Bridgegate"}, "longitude": "-1.357098"}, "context": "", "outcome_status": null, "persistent_id": "", "id": 110265948, "location_subtype": "", "month": "2023-05"}, {"category": "anti-social-behaviour", "location_type": "Force", "location": {"latitude": "53.374436", "street": {"id": 1711630, "name": "On or near Pitchford Lane"}, "longitude": "-1.539988"}, "context": "", "outcome_status": null, "persistent_id": "", "id": 110265340, "location_subtype": "", "month": "2023-05"}, {"category": "anti-social-behaviour", "location_type": "Force", "location": {"latitude": "53.327227", "street": {"id": 1711566, "name": "On or near Supermarket"}, "longitude": "-1.540091"}, "context": "", "outcome_status": null, "persistent_id": "", "id": 110265341, "location_subtype": "", "month": "2023-05"}, {"category": "anti-social-behaviour", "location_type": "Force", "location": {"latitude": "53.312336", "street": {"id": 1711873, "name": "On or near Green Oak Road"}, "longitude": "-1.531545"}, "context": "", "outcome_status": null, "persistent_id": "", "id": 110265342, "location_subtype": "", "month": "2023-05"}, {"category": "anti-social-behaviour", "location_type": "Force", "location": {"latitude": "53.377180", "street": {"id": 1711974, "name": "On or near Sandygate Road"}, "longitude": "-1.529256"}, "context": "", "outcome_status": null, "persistent_id": "", "id": 110265343, "location_subtype": "", "month": "2023-05"}, {"category": "anti-social-behaviour", "location_type": "Force", "location": {"latitude": "53.407601", "street": {"id": 1712582, "name": "On or near Dial House Court"}, "longitude": "-1.512133"}, "context": "", "outcome_status": null, "persistent_id": "", "id": 110265348, "location_subtype": "", "month": "2023-05"}, {"category": "anti-social-behaviour", "location_type": "Force", "location": {"latitude": "53.400788", "street": {"id": 1713110, "name": "On or near Limbrick Close"}, "longitude": "-1.503443"}, "context": "", "outcome_status": null, "persistent_id": "", "id": 110265349, "location_subtype": "", "month": "2023-05"}, {"category": "anti-social-behaviour", "location_type": "Force", "location": {"latitude": "53.402345", "street": {"id": 1713489, "name": "On or near Haggard Road"}, "longitude": "-1.497393"}, "context": "", "outcome_status": null, "persistent_id": "", "id": 110265350, "location_subtype": "", "month": "2023-05"}, {"category": "anti-social-behaviour", "location_type": "Force", "location": {"latitude": "53.358305", "street": {"id": 1713905, "name": "On or near Oakdale Road"}, "longitude": "-1.492096"}, "context": "", "outcome_status": null, "persistent_id": "", "id": 110265351, "location_subtype": "", "month": "2023-05"}, {"category": "anti-social-behaviour", "location_type": "Force", "location": {"latitude": "53.387836", "street": {"id": 1714278, "name": "On or near Martin Street"}, "longitude": "-1.486498"}, "context": "", "outcome_status": null, "persistent_id": "", "id": 110265352, "location_subtype": "", "month": "2023-05"}, {"category": "anti-social-behaviour", "location_type": "Force", "location": {"latitude": "53.391235", "street": {"id": 1715106, "name": "On or near Adelaide Lane"}, "longitude": "-1.476638"}, "context": "", "outcome_status": null, "persistent_id": "", "id": 110265356, "location_subtype": "", "month": "2023-05"}, {"category": "anti-social-behaviour", "location_type": "Force", "location": {"latitude": "53.359040", "street": {"id": 1715405, "name": "On or near Thirlwell Road"}, "longitude": "-1.473110"}, "context": "", "outcome_status": null, "persistent_id": "", "id": 110265360, "location_subtype": "", "month": "2023-05"}, {"category": "anti-social-behaviour", "location_type": "Force", "location": {"latitude": "53.374606", "street": {"id": 1715485, "name": "On or near Jessop Street"}, "longitude": "-1.472422"}, "context": "", "outcome_status": null, "persistent_id": "", "id": 110265361, "location_subtype": "", "month": "2023-05"}, {"category": "anti-social-behaviour", "location_type": "Force", "location": {"latitude": "53.377755", "street": {"id": 1715554, "name": "On or near Furnival Gate"}, "longitude": "-1.471061"}, "context": "", "outcome_status": null, "persistent_id": "", "id": 110265362, "location_subtype": "", "month": "2023-05"}, {"category": "anti-social-behaviour", "location_type": "Force", "location": {"latitude": "53.371759", "street": {"id": 1715607, "name": "On or near Countess Road"}, "longitude": "-1.470955"}, "context": "", "outcome_status": null, "persistent_id": "", "id": 110265363, "location_subtype": "", "month": "2023-05"}, {"category": "anti-social-behaviour", "location_type": "Force", "location": {"latitude": "53.383711", "street": {"id": 1716241, "name": "On or near Haymarket"}, "longitude": "-1.464252"}, "context": "", "outcome_status": null, "persistent_id": "", "id": 110265367, "location_subtype": "", "month": "2023-05"}, {"category": "anti-social-behaviour", "location_type": "Force", "location": {"latitude": "53.381892", "street": {"id": 1716577, "name": "On or near Anson Street"}, "longitude": "-1.459464"}, "context": "", "outcome_status": null, "persistent_id": "", "id": 110265369, "location_subtype": "", "month": "2023-05"}, {"category": "anti-social-behaviour", "location_type": "Force", "location": {"latitude": "53.401411", "street": {"id": 1716845, "name": "On or near Blayton Road"}, "longitude": "-1.454584"}, "context": "", "outcome_status": null, "persistent_id": "", "id": 110265371, "location_subtype": "", "month": "2023-05"}, {"category": "anti-social-behaviour", "location_type": "Force", "location": {"latitude": "53.411735", "street": {"id": 1717136, "name": "On or near Lindley Road"}, "longitude": "-1.449758"}, "context": "", "outcome_status": null, "persistent_id": "", "id": 110265374, "location_subtype": "", "month": "2023-05"}, {"category": "anti-social-behaviour", "location_type": "Force", "location": {"latitude": "53.391608", "street": {"id": 1716716, "name": "On or near Hallcar Street"}, "longitude": "-1.457416"}, "context": "", "outcome_status": null, "persistent_id": "", "id": 110257698, "location_subtype": "", "month": "2023-05"}, {"category": "anti-social-behaviour", "location_type": "Force", "location": {"latitude": "53.356980", "street": {"id": 1716584, "name": "On or near Abney Close"}, "longitude": "-1.458667"}, "context": "", "outcome_status": null, "persistent_id": "", "id": 110257699, "location_subtype": "", "month": "2023-05"}, {"category": "anti-social-behaviour", "location_type": "Force", "location": {"latitude": "53.358210", "street": {"id": 1716652, "name": "On or near Edwin Road"}, "longitude": "-1.458261"}, "context": "", "outcome_status": null, "persistent_id": "", "id": 110257700, "location_subtype": "", "month": "2023-05"}, {"category": "anti-social-behaviour", "location_type": "Force", "location": {"latitude": "53.420974", "street": {"id": 1716724, "name": "On or near Oswestry Road"}, "longitude": "-1.455357"}, "context": "", "outcome_status": null, "persistent_id": "", "id": 110257701, "location_subtype": "", "month": "2023-05"}, {"category": "anti-social-behaviour", "location_type": "Force", "location": {"latitude": "53.355020", "street": {"id": 1716996, "name": "On or near Callow Mount"}, "longitude": "-1.452682"}, "context": "", "outcome_status": null, "persistent_id": "", "id": 110257703, "location_subtype": "", "month": "2023-05"}, {"category": "anti-social-behaviour", "location_type": "Force", "location": {"latitude": "53.383554", "street": {"id": 1717056, "name": "On or near St John's Road"}, "longitude": "-1.451535"}, "context": "", "outcome_status": null, "persistent_id": "", "id": 110257704, "location_subtype": "", "month": "2023-05"}, {"category": "anti-social-behaviour", "location_type": "Force", "location": {"latitude": "53.361184", "street": {"id": 1717666, "name": "On or near Eastern Avenue"}, "longitude": "-1.440447"}, "context": "", "outcome_status": null, "persistent_id": "", "id": 110257706, "location_subtype": "", "month": "2023-05"}, {"category": "anti-social-behaviour", "location_type": "Force", "location": {"latitude": "53.452009", "street": {"id": 1717874, "name": "On or near Jumble Lane"}, "longitude": "-1.433502"}, "context": "", "outcome_status": null, "persistent_id": "", "id": 110257708, "location_subtype": "", "month": "2023-05"}, {"category": "anti-social-behaviour", "location_type": "Force", "location": {"latitude": "53.357686", "street": {"id": 1718028, "name": "On or near Methley Close"}, "longitude": "-1.432575"}, "context": "", "outcome_status": null, "persistent_id": "", "id": 110257710, "location_subtype": "", "month": "2023-05"}, {"category": "anti-social-behaviour", "location_type": "Force", "location": {"latitude": "53.379280", "street": {"id": 1718370, "name": "On or near Greenwood Crescent"}, "longitude": "-1.423779"}, "context": "", "outcome_status": null, "persistent_id": "", "id": 110257711, "location_subtype": "", "month": "2023-05"}, {"category": "anti-social-behaviour", "location_type": "Force", "location": {"latitude": "53.354304", "street": {"id": 1714874, "name": "On or near Binfield Road"}, "longitude": "-1.479509"}, "context": "", "outcome_status": null, "persistent_id": "", "id": 110267707, "location_subtype": "", "month": "2023-05"}, {"category": "anti-social-behaviour", "location_type": "Force", "location": {"latitude": "53.373756", "street": {"id": 1714596, "name": "On or near Exeter Drive"}, "longitude": "-1.481527"}, "context": "", "outcome_status": null, "persistent_id": "", "id": 110267706, "location_subtype": "", "month": "2023-05"}, {"category": "anti-social-behaviour", "location_type": "Force", "location": {"latitude": "53.375404", "street": {"id": 1714729, "name": "On or near Egerton Lane"}, "longitude": "-1.480199"}, "context": "", "outcome_status": null, "persistent_id": "", "id": 110267708, "location_subtype": "", "month": "2023-05"}, {"category": "anti-social-behaviour", "location_type": "Force", "location": {"latitude": "53.384922", "street": {"id": 1715057, "name": "On or near Brocco Lane"}, "longitude": "-1.477798"}, "context": "", "outcome_status": null, "persistent_id": "", "id": 110267709, "location_subtype": "", "month": "2023-05"}, {"category": "anti-social-behaviour", "location_type": "Force", "location": {"latitude": "53.417375", "street": {"id": 1715294, "name": "On or near Raisen Hall Road"}, "longitude": "-1.474602"}, "context": "", "outcome_status": null, "persistent_id": "", "id": 110267710, "location_subtype": "", "month": "2023-05"}, {"category": "anti-social-behaviour", "location_type": "Force", "location": {"latitude": "53.352659", "street": {"id": 1715151, "name": "On or near Cliffe View Road"}, "longitude": "-1.475217"}, "context": "", "outcome_status": null, "persistent_id": "", "id": 110267711, "location_subtype": "", "month": "2023-05"}, {"category": "anti-social-behaviour", "location_type": "Force", "location": {"latitude": "53.382697", "street": {"id": 1715851, "name": "On or near East Parade"}, "longitude": "-1.468624"}, "context": "", "outcome_status": null, "persistent_id": "", "id": 110267713, "location_subtype": "", "month": "2023-05"}, {"category": "anti-social-behaviour", "location_type": "Force", "location": {"latitude": "53.383162", "street": {"id": 1715909, "name": "On or near York Street"}, "longitude": "-1.468182"}, "context": "", "outcome_status": null, "persistent_id": "", "id": 110267714, "location_subtype": "", "month": "2023-05"}, {"category": "anti-social-behaviour", "location_type": "Force", "location": {"latitude": "53.382912", "street": {"id": 1716031, "name": "On or near High Street"}, "longitude": "-1.466381"}, "context": "", "outcome_status": null, "persistent_id": "", "id": 110267715, "location_subtype": "", "month": "2023-05"}, {"category": "anti-social-behaviour", "location_type": "Force", "location": {"latitude": "53.408361", "street": {"id": 1717770, "name": "On or near Corby Road"}, "longitude": "-1.435616"}, "context": "", "outcome_status": null, "persistent_id": "", "id": 110267724, "location_subtype": "", "month": "2023-05"}, {"category": "anti-social-behaviour", "location_type": "Force", "location": {"latitude": "53.424219", "street": {"id": 1718309, "name": "On or near Woodbury Close"}, "longitude": "-1.424797"}, "context": "", "outcome_status": null, "persistent_id": "", "id": 110267725, "location_subtype": "", "month": "2023-05"}, {"category": "anti-social-behaviour", "location_type": "Force", "location": {"latitude": "53.344578", "street": {"id": 1718368, "name": "On or near Petrol Station"}, "longitude": "-1.424457"}, "context": "", "outcome_status": null, "persistent_id": "", "id": 110267727, "location_subtype": "", "month": "2023-05"}, {"category": "anti-social-behaviour", "location_type": "Force", "location": {"latitude": "53.346273", "street": {"id": 1718726, "name": "On or near Jaunty Drive"}, "longitude": "-1.416263"}, "context": "", "outcome_status": null, "persistent_id": "", "id": 110267728, "location_subtype": "", "month": "2023-05"}, {"category": "anti-social-behaviour", "location_type": "Force", "location": {"latitude": "53.405627", "street": {"id": 1718720, "name": "On or near Park/open Space"}, "longitude": "-1.409314"}, "context": "", "outcome_status": null, "persistent_id": "", "id": 110267729, "location_subtype": "", "month": "2023-05"}, {"category": "anti-social-behaviour", "location_type": "Force", "location": {"latitude": "53.361408", "street": {"id": 1720650, "name": "On or near Tithe Barn Avenue"}, "longitude": "-1.370015"}, "context": "", "outcome_status": null, "persistent_id": "", "id": 110267737, "location_subtype": "", "month": "2023-05"}, {"category": "anti-social-behaviour", "location_type": "Force", "location": {"latitude": "53.332362", "street": {"id": 1721611, "name": "On or near Challoner Green"}, "longitude": "-1.349195"}, "context": "", "outcome_status": null, "persistent_id": "", "id": 110267739, "location_subtype": "", "month": "2023-05"}, {"category": "anti-social-behaviour", "location_type": "Force", "location": {"latitude": "53.430634", "street": {"id": 1722016, "name": "On or near Clifton Grove"}, "longitude": "-1.340742"}, "context": "", "outcome_status": null, "persistent_id": "", "id": 110267742, "location_subtype": "", "month": "2023-05"}, {"category": "anti-social-behaviour", "location_type": "Force", "location": {"latitude": "53.326487", "street": {"id": 1721718, "name": "On or near School Close"}, "longitude": "-1.346642"}, "context": "", "outcome_status": null, "persistent_id": "", "id": 110267741, "location_subtype": "", "month": "2023-05"}, {"category": "anti-social-behaviour", "location_type": "Force", "location": {"latitude": "53.438555", "street": {"id": 1722419, "name": "On or near Larch Mews"}, "longitude": "-1.329781"}, "context": "", "outcome_status": null, "persistent_id": "", "id": 110267743, "location_subtype": "", "month": "2023-05"}, {"category": "anti-social-behaviour", "location_type": "Force", "location": {"latitude": "53.347663", "street": {"id": 1718660, "name": "On or near Supermarket"}, "longitude": "-1.417889"}, "context": "", "outcome_status": null, "persistent_id": "", "id": 110257715, "location_subtype": "", "month": "2023-05"}, {"category": "anti-social-behaviour", "location_type": "Force", "location": {"latitude": "53.411645", "street": {"id": 1719641, "name": "On or near Highgate"}, "longitude": "-1.393991"}, "context": "", "outcome_status": null, "persistent_id": "", "id": 110257717, "location_subtype": "", "month": "2023-05"}, {"category": "anti-social-behaviour", "location_type": "Force", "location": {"latitude": "53.450834", "street": {"id": 1720160, "name": "On or near Robinets Road"}, "longitude": "-1.379701"}, "context": "", "outcome_status": null, "persistent_id": "", "id": 110257719, "location_subtype": "", "month": "2023-05"}, {"category": "anti-social-behaviour", "location_type": "Force", "location": {"latitude": "53.404050", "street": {"id": 1720474, "name": "On or near Poplar Drive"}, "longitude": "-1.374921"}, "context": "", "outcome_status": null, "persistent_id": "", "id": 110257720, "location_subtype": "", "month": "2023-05"}, {"category": "anti-social-behaviour", "location_type": "Force", "location": {"latitude": "53.453465", "street": {"id": 1720805, "name": "On or near Oxford Close"}, "longitude": "-1.367209"}, "context": "", "outcome_status": null, "persistent_id": "", "id": 110257722, "location_subtype": "", "month": "2023-05"}, {"category": "anti-social-behaviour", "location_type": "Force", "location": {"latitude": "53.340011", "street": {"id": 1720794, "name": "On or near Lundwood Grove"}, "longitude": "-1.365765"}, "context": "", "outcome_status": null, "persistent_id": "", "id": 110257723, "location_subtype": "", "month": "2023-05"}, {"category": "anti-social-behaviour", "location_type": "Force", "location": {"latitude": "53.451293", "street": {"id": 1722075, "name": "On or near Aldwarke Road"}, "longitude": "-1.339594"}, "context": "", "outcome_status": null, "persistent_id": "", "id": 110257726, "location_subtype": "", "month": "2023-05"}, {"category": "anti-social-behaviour", "location_type": "Force", "location": {"latitude": "53.443574", "street": {"id": 1722493, "name": "On or near Aldwarke Lane"}, "longitude": "-1.322295"}, "context": "", "outcome_status": null, "persistent_id": "", "id": 110257729, "location_subtype": "", "month": "2023-05"}, {"category": "anti-social-behaviour", "location_type": "Force", "location": {"latitude": "53.471655", "street": {"id": 1721677, "name": "On or near The Parade"}, "longitude": "-1.348212"}, "context": "", "outcome_status": null, "persistent_id": "", "id": 110269937, "location_subtype": "", "month": "2023-05"}, {"category": "anti-social-behaviour", "location_type": "Force", "location": {"latitude": "53.436565", "street": {"id": 1721739, "name": "On or near Petrol Station"}, "longitude": "-1.346852"}, "context": "", "outcome_status": null, "persistent_id": "", "id": 110269939, "location_subtype": "", "month": "2023-05"}, {"category": "anti-social-behaviour", "location_type": "Force", "location": {"latitude": "53.382697", "street": {"id": 1715851, "name": "On or near East Parade"}, "longitude": "-1.468624"}, "context": "", "outcome_status": null, "persistent_id": "", "id": 110256074, "location_subtype": "", "month": "2023-05"}, {"category": "anti-social-behaviour", "location_type": "Force", "location": {"latitude": "53.461102", "street": {"id": 1722279, "name": "On or near Roundwood Court"}, "longitude": "-1.333493"}, "context": "", "outcome_status": null, "persistent_id": "", "id": 110269940, "location_subtype": "", "month": "2023-05"}, {"category": "anti-social-behaviour", "location_type": "Force", "location": {"latitude": "53.431910", "street": {"id": 1721188, "name": "On or near Bridgegate"}, "longitude": "-1.357098"}, "context": "", "outcome_status": null, "persistent_id": "", "id": 110263216, "location_subtype": "", "month": "2023-05"}, {"category": "anti-social-behaviour", "location_type": "Force", "location": {"latitude": "53.470727", "street": {"id": 1721334, "name": "On or near Humphries Avenue"}, "longitude": "-1.354508"}, "context": "", "outcome_status": null, "persistent_id": "", "id": 110263217, "location_subtype": "", "month": "2023-05"}, {"category": "anti-social-behaviour", "location_type": "Force", "location": {"latitude": "53.410220", "street": {"id": 1717676, "name": "On or near Wensley Street"}, "longitude": "-1.441053"}, "context": "", "outcome_status": null, "persistent_id": "", "id": 110256086, "location_subtype": "", "month": "2023-05"}, {"category": "anti-social-behaviour", "location_type": "Force", "location": {"latitude": "53.407623", "street": {"id": 1712826, "name": "On or near Rollin Drive"}, "longitude": "-1.508703"}, "context": "", "outcome_status": null, "persistent_id": "", "id": 110268271, "location_subtype": "", "month": "2023-05"}, {"category": "anti-social-behaviour", "location_type": "Force", "location": {"latitude": "53.428799", "street": {"id": 1714350, "name": "On or near Wordsworth Close"}, "longitude": "-1.484891"}, "context": "", "outcome_status": null, "persistent_id": "", "id": 110268275, "location_subtype": "", "month": "2023-05"}, {"category": "anti-social-behaviour", "location_type": "Force", "location": {"latitude": "53.417375", "street": {"id": 1715294, "name": "On or near Raisen Hall Road"}, "longitude": "-1.474602"}, "context": "", "outcome_status": null, "persistent_id": "", "id": 110268280, "location_subtype": "", "month": "2023-05"}, {"category": "anti-social-behaviour", "location_type": "Force", "location": {"latitude": "53.372595", "street": {"id": 1717468, "name": "On or near Warley Road"}, "longitude": "-1.443198"}, "context": "", "outcome_status": null, "persistent_id": "", "id": 110268295, "location_subtype": "", "month": "2023-05"}, {"category": "anti-social-behaviour", "location_type": "Force", "location": {"latitude": "53.426634", "street": {"id": 1717672, "name": "On or near Oaks Fold Avenue"}, "longitude": "-1.441153"}, "context": "", "outcome_status": null, "persistent_id": "", "id": 110268296, "location_subtype": "", "month": "2023-05"}, {"category": "anti-social-behaviour", "location_type": "Force", "location": {"latitude": "53.392303", "street": {"id": 1718589, "name": "On or near Quarryfield Road"}, "longitude": "-1.419814"}, "context": "", "outcome_status": null, "persistent_id": "", "id": 110268304, "location_subtype": "", "month": "2023-05"}, {"category": "anti-social-behaviour", "location_type": "Force", "location": {"latitude": "53.350268", "street": {"id": 1717785, "name": "On or near Spring Close View"}, "longitude": "-1.437811"}, "context": "", "outcome_status": null, "persistent_id": "", "id": 110268297, "location_subtype": "", "month": "2023-05"}, {"category": "anti-social-behaviour", "location_type": "Force", "location": {"latitude": "53.349771", "street": {"id": 1717901, "name": "On or near B6388"}, "longitude": "-1.435233"}, "context": "", "outcome_status": null, "persistent_id": "", "id": 110268298, "location_subtype": "", "month": "2023-05"}, {"category": "anti-social-behaviour", "location_type": "Force", "location": {"latitude": "53.365287", "street": {"id": 1717818, "name": "On or near Strouts Way"}, "longitude": "-1.437478"}, "context": "", "outcome_status": null, "persistent_id": "", "id": 110268299, "location_subtype": "", "month": "2023-05"}, {"category": "anti-social-behaviour", "location_type": "Force", "location": {"latitude": "53.367301", "street": {"id": 1718039, "name": "On or near Cary Grove"}, "longitude": "-1.431816"}, "context": "", "outcome_status": null, "persistent_id": "", "id": 110268300, "location_subtype": "", "month": "2023-05"}, {"category": "anti-social-behaviour", "location_type": "Force", "location": {"latitude": "53.413885", "street": {"id": 1718217, "name": "On or near Jenkin Avenue"}, "longitude": "-1.427223"}, "context": "", "outcome_status": null, "persistent_id": "", "id": 110268301, "location_subtype": "", "month": "2023-05"}, {"category": "anti-social-behaviour", "location_type": "Force", "location": {"latitude": "53.346127", "street": {"id": 1718239, "name": "On or near Gleadless Mount"}, "longitude": "-1.426915"}, "context": "", "outcome_status": null, "persistent_id": "", "id": 110268302, "location_subtype": "", "month": "2023-05"}, {"category": "anti-social-behaviour", "location_type": "Force", "location": {"latitude": "53.416177", "street": {"id": 1718386, "name": "On or near Ridge View Close"}, "longitude": "-1.423491"}, "context": "", "outcome_status": null, "persistent_id": "", "id": 110268303, "location_subtype": "", "month": "2023-05"}, {"category": "anti-social-behaviour", "location_type": "Force", "location": {"latitude": "53.340418", "street": {"id": 1718598, "name": "On or near Carterhall Lane"}, "longitude": "-1.419302"}, "context": "", "outcome_status": null, "persistent_id": "", "id": 110268305, "location_subtype": "", "month": "2023-05"}, {"category": "anti-social-behaviour", "location_type": "Force", "location": {"latitude": "53.430800", "street": {"id": 1719182, "name": "On or near Poucher Street"}, "longitude": "-1.406708"}, "context": "", "outcome_status": null, "persistent_id": "", "id": 110268310, "location_subtype": "", "month": "2023-05"}, {"category": "anti-social-behaviour", "location_type": "Force", "location": {"latitude": "53.383551", "street": {"id": 1719370, "name": "On or near High Hazels Close"}, "longitude": "-1.402193"}, "context": "", "outcome_status": null, "persistent_id": "", "id": 110268312, "location_subtype": "", "month": "2023-05"}, {"category": "anti-social-behaviour", "location_type": "Force", "location": {"latitude": "53.343035", "street": {"id": 1719868, "name": "On or near Parkside Mews"}, "longitude": "-1.388926"}, "context": "", "outcome_status": null, "persistent_id": "", "id": 110268315, "location_subtype": "", "month": "2023-05"}, {"category": "anti-social-behaviour", "location_type": "Force", "location": {"latitude": "53.454912", "street": {"id": 1720852, "name": "On or near Rossiter Road"}, "longitude": "-1.367142"}, "context": "", "outcome_status": null, "persistent_id": "", "id": 110268319, "location_subtype": "", "month": "2023-05"}, {"category": "anti-social-behaviour", "location_type": "Force", "location": {"latitude": "53.423725", "street": {"id": 1721246, "name": "On or near Mountenoy Road"}, "longitude": "-1.354393"}, "context": "", "outcome_status": null, "persistent_id": "", "id": 110268323, "location_subtype": "", "month": "2023-05"}, {"category": "anti-social-behaviour", "location_type": "Force", "location": {"latitude": "53.344307", "street": {"id": 1721226, "name": "On or near Shopping Area"}, "longitude": "-1.357183"}, "context": "", "outcome_status": null, "persistent_id": "", "id": 110256102, "location_subtype": "", "month": "2023-05"}, {"category": "anti-social-behaviour", "location_type": "Force", "location": {"latitude": "53.477125", "street": {"id": 1710855, "name": "On or near Laburnum Grove"}, "longitude": "-1.600971"}, "context": "", "outcome_status": null, "persistent_id": "", "id": 110255529, "location_subtype": "", "month": "2023-05"}, {"category": "anti-social-behaviour", "location_type": "Force", "location": {"latitude": "53.402441", "street": {"id": 1713145, "name": "On or near Hillsborough Place"}, "longitude": "-1.503168"}, "context": "", "outcome_status": null, "persistent_id": "", "id": 110255534, "location_subtype": "", "month": "2023-05"}, {"category": "anti-social-behaviour", "location_type": "Force", "location": {"latitude": "53.390849", "street": {"id": 1713652, "name": "On or near Daniel Hill Court"}, "longitude": "-1.493408"}, "context": "", "outcome_status": null, "persistent_id": "", "id": 110255537, "location_subtype": "", "month": "2023-05"}, {"category": "anti-social-behaviour", "location_type": "Force", "location": {"latitude": "53.368997", "street": {"id": 1713775, "name": "On or near Snuff Mill Lane"}, "longitude": "-1.493142"}, "context": "", "outcome_status": null, "persistent_id": "", "id": 110255539, "location_subtype": "", "month": "2023-05"}, {"category": "anti-social-behaviour", "location_type": "Force", "location": {"latitude": "53.459351", "street": {"id": 1715300, "name": "On or near Steven Close"}, "longitude": "-1.474611"}, "context": "", "outcome_status": null, "persistent_id": "", "id": 110255544, "location_subtype": "", "month": "2023-05"}, {"category": "anti-social-behaviour", "location_type": "Force", "location": {"latitude": "53.382289", "street": {"id": 1716088, "name": "On or near Parking Area"}, "longitude": "-1.465818"}, "context": "", "outcome_status": null, "persistent_id": "", "id": 110255546, "location_subtype": "", "month": "2023-05"}, {"category": "anti-social-behaviour", "location_type": "Force", "location": {"latitude": "53.375042", "street": {"id": 1716349, "name": "On or near Granville Street"}, "longitude": "-1.461444"}, "context": "", "outcome_status": null, "persistent_id": "", "id": 110255548, "location_subtype": "", "month": "2023-05"}, {"category": "anti-social-behaviour", "location_type": "Force", "location": {"latitude": "53.408136", "street": {"id": 1716793, "name": "On or near Fir Vale Way"}, "longitude": "-1.452934"}, "context": "", "outcome_status": null, "persistent_id": "", "id": 110255555, "location_subtype": "", "month": "2023-05"}, {"category": "anti-social-behaviour", "location_type": "Force", "location": {"latitude": "53.358391", "street": {"id": 1717580, "name": "On or near Arbourthorne Road"}, "longitude": "-1.442843"}, "context": "", "outcome_status": null, "persistent_id": "", "id": 110255559, "location_subtype": "", "month": "2023-05"}, {"category": "anti-social-behaviour", "location_type": "Force", "location": {"latitude": "53.365012", "street": {"id": 1718116, "name": "On or near Babington Close"}, "longitude": "-1.430749"}, "context": "", "outcome_status": null, "persistent_id": "", "id": 110255563, "location_subtype": "", "month": "2023-05"}, {"category": "anti-social-behaviour", "location_type": "Force", "location": {"latitude": "53.343833", "street": {"id": 1719780, "name": "On or near Weakland Crescent"}, "longitude": "-1.390401"}, "context": "", "outcome_status": null, "persistent_id": "", "id": 110255573, "location_subtype": "", "month": "2023-05"}, {"category": "anti-social-behaviour", "location_type": "Force", "location": {"latitude": "53.367931", "street": {"id": 1715367, "name": "On or near Alderson Place"}, "longitude": "-1.473256"}, "context": "", "outcome_status": null, "persistent_id": "", "id": 110256071, "location_subtype": "", "month": "2023-05"}, {"category": "anti-social-behaviour", "location_type": "Force", "location": {"latitude": "53.359466", "street": {"id": 1720131, "name": "On or near New Cross Way"}, "longitude": "-1.381959"}, "context": "", "outcome_status": null, "persistent_id": "", "id": 110256097, "location_subtype": "", "month": "2023-05"}, {"category": "anti-social-behaviour", "location_type": "Force", "location": {"latitude": "53.432532", "street": {"id": 1717425, "name": "On or near Shirehall Crescent"}, "longitude": "-1.445321"}, "context": "", "outcome_status": null, "persistent_id": "", "id": 110263197, "location_subtype": "", "month": "2023-05"}, {"category": "anti-social-behaviour", "location_type": "Force", "location": {"latitude": "53.366972", "street": {"id": 1710705, "name": "On or near Park/open Space"}, "longitude": "-1.599040"}, "context": "", "outcome_status": null, "persistent_id": "", "id": 110256060, "location_subtype": "", "month": "2023-05"}, {"category": "anti-social-behaviour", "location_type": "Force", "location": {"latitude": "53.405330", "street": {"id": 1711456, "name": "On or near B6077"}, "longitude": "-1.542483"}, "context": "", "outcome_status": null, "persistent_id": "", "id": 110256062, "location_subtype": "", "month": "2023-05"}, {"category": "anti-social-behaviour", "location_type": "Force", "location": {"latitude": "53.321308", "street": {"id": 1715107, "name": "On or near Lowedges Place"}, "longitude": "-1.475662"}, "context": "", "outcome_status": null, "persistent_id": "", "id": 110256070, "location_subtype": "", "month": "2023-05"}, {"category": "anti-social-behaviour", "location_type": "Force", "location": {"latitude": "53.359961", "street": {"id": 1720149, "name": "On or near New Cross Drive"}, "longitude": "-1.381952"}, "context": "", "outcome_status": null, "persistent_id": "", "id": 110256098, "location_subtype": "", "month": "2023-05"}, {"category": "anti-social-behaviour", "location_type": "Force", "location": {"latitude": "53.452089", "street": {"id": 1711314, "name": "On or near Broom Royd"}, "longitude": "-1.554510"}, "context": "", "outcome_status": null, "persistent_id": "", "id": 110259781, "location_subtype": "", "month": "2023-05"}, {"category": "anti-social-behaviour", "location_type": "Force", "location": {"latitude": "53.313798", "street": {"id": 1712163, "name": "On or near Longford Spinney"}, "longitude": "-1.521713"}, "context": "", "outcome_status": null, "persistent_id": "", "id": 110259782, "location_subtype": "", "month": "2023-05"}, {"category": "anti-social-behaviour", "location_type": "Force", "location": {"latitude": "53.393092", "street": {"id": 1713169, "name": "On or near Highton Street"}, "longitude": "-1.502961"}, "context": "", "outcome_status": null, "persistent_id": "", "id": 110259783, "location_subtype": "", "month": "2023-05"}, {"category": "anti-social-behaviour", "location_type": "Force", "location": {"latitude": "53.479141", "street": {"id": 1711063, "name": "On or near Holling Croft"}, "longitude": "-1.575608"}, "context": "", "outcome_status": null, "persistent_id": "", "id": 110256627, "location_subtype": "", "month": "2023-05"}, {"category": "anti-social-behaviour", "location_type": "Force", "location": {"latitude": "53.390581", "street": {"id": 1712746, "name": "On or near Sports/recreation Area"}, "longitude": "-1.509260"}, "context": "", "outcome_status": null, "persistent_id": "", "id": 110256631, "location_subtype": "", "month": "2023-05"}, {"category": "anti-social-behaviour", "location_type": "Force", "location": {"latitude": "53.368278", "street": {"id": 1713664, "name": "On or near Eastwood Road"}, "longitude": "-1.495465"}, "context": "", "outcome_status": null, "persistent_id": "", "id": 110256635, "location_subtype": "", "month": "2023-05"}, {"category": "anti-social-behaviour", "location_type": "Force", "location": {"latitude": "53.417613", "street": {"id": 1718929, "name": "On or near Parking Area"}, "longitude": "-1.413812"}, "context": "", "outcome_status": null, "persistent_id": "", "id": 110256664, "location_subtype": "", "month": "2023-05"}, {"category": "anti-social-behaviour", "location_type": "Force", "location": {"latitude": "53.437145", "street": {"id": 1719673, "name": "On or near Wilding Way"}, "longitude": "-1.392168"}, "context": "", "outcome_status": null, "persistent_id": "", "id": 110256667, "location_subtype": "", "month": "2023-05"}, {"category": "anti-social-behaviour", "location_type": "Force", "location": {"latitude": "53.371376", "street": {"id": 1719754, "name": "On or near Ashbourne Road"}, "longitude": "-1.390610"}, "context": "", "outcome_status": null, "persistent_id": "", "id": 110256669, "location_subtype": "", "month": "2023-05"}, {"category": "anti-social-behaviour", "location_type": "Force", "location": {"latitude": "53.431263", "street": {"id": 1719939, "name": "On or near Upper Clara Street"}, "longitude": "-1.386232"}, "context": "", "outcome_status": null, "persistent_id": "", "id": 110256672, "location_subtype": "", "month": "2023-05"}, {"category": "anti-social-behaviour", "location_type": "Force", "location": {"latitude": "53.346896", "street": {"id": 1720339, "name": "On or near Four Wells Drive"}, "longitude": "-1.377665"}, "context": "", "outcome_status": null, "persistent_id": "", "id": 110256677, "location_subtype": "", "month": "2023-05"}, {"category": "anti-social-behaviour", "location_type": "Force", "location": {"latitude": "53.451489", "street": {"id": 1720732, "name": "On or near Ash View"}, "longitude": "-1.369271"}, "context": "", "outcome_status": null, "persistent_id": "", "id": 110256678, "location_subtype": "", "month": "2023-05"}, {"category": "anti-social-behaviour", "location_type": "Force", "location": {"latitude": "53.417203", "street": {"id": 1713269, "name": "On or near Petrol Station"}, "longitude": "-1.501657"}, "context": "", "outcome_status": null, "persistent_id": "", "id": 110259784, "location_subtype": "", "month": "2023-05"}, {"category": "anti-social-behaviour", "location_type": "Force", "location": {"latitude": "53.426855", "street": {"id": 1714551, "name": "On or near Buchanan Crescent"}, "longitude": "-1.482266"}, "context": "", "outcome_status": null, "persistent_id": "", "id": 110259788, "location_subtype": "", "month": "2023-05"}, {"category": "anti-social-behaviour", "location_type": "Force", "location": {"latitude": "53.332274", "street": {"id": 1716683, "name": "On or near Brocklehurst Avenue"}, "longitude": "-1.457433"}, "context": "", "outcome_status": null, "persistent_id": "", "id": 110339326, "location_subtype": "", "month": "2023-05"}, {"category": "anti-social-behaviour", "location_type": "Force", "location": {"latitude": "53.379899", "street": {"id": 1714975, "name": "On or near Parking Area"}, "longitude": "-1.478325"}, "context": "", "outcome_status": null, "persistent_id": "", "id": 110259790, "location_subtype": "", "month": "2023-05"}, {"category": "anti-social-behaviour", "location_type": "Force", "location": {"latitude": "53.431971", "street": {"id": 1715022, "name": "On or near Yarlside Close"}, "longitude": "-1.476439"}, "context": "", "outcome_status": null, "persistent_id": "", "id": 110259791, "location_subtype": "", "month": "2023-05"},