[{"category": "anti-social-behaviour", "location_type": "Force", "location": {"latitude": "53.459223", "street": {"id": 1717802, "name": "On or near Park View"}, "longitude": "-1.438452"}, "context": "", "outcome_status": null, "persistent_id": "", "id": 117625133, "location_subtype": "", "month": "2024-03"}, {"category": "anti-social-behaviour", "location_type": "Force", "location": {"latitude": "53.360336", "street": {"id": 1717646, "name": "On or near Errington Way"}, "longitude": "-1.441705"}, "context": "", "outcome_status": null, "persistent_id": "", "id": 117625131, "location_subtype": "", "month": "2024-03"}, {"category": "anti-social-behaviour", "location_type": "Force", "location": {"latitude": "53.367108", "street": {"id": 1717635, "name": "On or near St Aidan's Place"}, "longitude": "-1.440520"}, "context": "", "outcome_status": null, "persistent_id": "", "id": 117625130, "location_subtype": "", "month": "2024-03"}, {"category": "anti-social-behaviour", "location_type": "Force", "location": {"latitude": "53.378498", "street": {"id": 1717093, "name": "On or near Sports/recreation Area"}, "longitude": "-1.448139"}, "context": "", "outcome_status": null, "persistent_id": "", "id": 117625128, "location_subtype": "", "month": "2024-03"}, {"category": "anti-social-behaviour", "location_type": "Force", "location": {"latitude": "53.368392", "street": {"id": 1717369, "name": "On or near St Aidan's Avenue"}, "longitude": "-1.445973"}, "context": "", "outcome_status": null, "persistent_id": "", "id": 117625127, "location_subtype": "", "month": "2024-03"}, {"category": "anti-social-behaviour", "location_type": "Force", "location": {"latitude": "53.362369", "street": {"id": 1717032, "name": "On or near Kenninghall Road"}, "longitude": "-1.451686"}, "context": "", "outcome_status": null, "persistent_id": "", "id": 117625126, "location_subtype": "", "month": "2024-03"}, {"category": "anti-social-behaviour", "location_type": "Force", "location": {"latitude": "53.378498", "street": {"id": 1717093, "name": "On or near Sports/recreation Area"}, "longitude": "-1.448139"}, "context": "", "outcome_status": null, "persistent_id": "", "id": 117625124, "location_subtype": "", "month": "2024-03"}, {"category": "anti-social-behaviour", "location_type": "Force", "location": {"latitude": "53.359044", "street": {"id": 1716913, "name": "On or near Hartopp Close"}, "longitude": "-1.453833"}, "context": "", "outcome_status": null, "persistent_id": "", "id": 117625123, "location_subtype": "", "month": "2024-03"}, {"category": "anti-social-behaviour", "location_type": "Force", "location": {"latitude": "53.355915", "street": {"id": 1716033, "name": "On or near Canterbury Road"}, "longitude": "-1.465667"}, "context": "", "outcome_status": null, "persistent_id": "", "id": 117625121, "location_subtype": "", "month": "2024-03"}, {"category": "anti-social-behaviour", "location_type": "Force", "location": {"latitude": "53.394398", "street": {"id": 1716114, "name": "On or near Parking Area"}, "longitude": "-1.466103"}, "context": "", "outcome_status": null, "persistent_id": "", "id": 117625117, "location_subtype": "", "month": "2024-03"}, {"category": "anti-social-behaviour", "location_type": "Force", "location": {"latitude": "53.382540", "street": {"id": 1718918, "name": "On or near James Street"}, "longitude": "-1.413888"}, "context": "", "outcome_status": null, "persistent_id": "", "id": 117627675, "location_subtype": "", "month": "2024-03"}, {"category": "anti-social-behaviour", "location_type": "Force", "location": {"latitude": "53.412598", "street": {"id": 1717993, "name": "On or near Sandstone Drive"}, "longitude": "-1.432581"}, "context": "", "outcome_status": null, "persistent_id": "", "id": 117627672, "location_subtype": "", "month": "2024-03"}, {"category": "anti-social-behaviour", "location_type": "Force", "location": {"latitude": "53.417841", "street": {"id": 1714129, "name": "On or near Pollard Avenue"}, "longitude": "-1.486678"}, "context": "", "outcome_status": null, "persistent_id": "", "id": 117627657, "location_subtype": "", "month": "2024-03"}, {"category": "anti-social-behaviour", "location_type": "Force", "location": {"latitude": "53.426137", "street": {"id": 1714485, "name": "On or near Buchanan Drive"}, "longitude": "-1.482485"}, "context": "", "outcome_status": null, "persistent_id": "", "id": 117627658, "location_subtype": "", "month": "2024-03"}, {"category": "anti-social-behaviour", "location_type": "Force", "location": {"latitude": "53.376549", "street": {"id": 1714717, "name": "On or near Headford Mews"}, "longitude": "-1.481087"}, "context": "", "outcome_status": null, "persistent_id": "", "id": 117627659, "location_subtype": "", "month": "2024-03"}, {"category": "anti-social-behaviour", "location_type": "Force", "location": {"latitude": "53.383162", "street": {"id": 1715909, "name": "On or near York Street"}, "longitude": "-1.468182"}, "context": "", "outcome_status": null, "persistent_id": "", "id": 117627663, "location_subtype": "", "month": "2024-03"}, {"category": "anti-social-behaviour", "location_type": "Force", "location": {"latitude": "53.430380", "street": {"id": 1716380, "name": "On or near Martin Crescent"}, "longitude": "-1.462281"}, "context": "", "outcome_status": null, "persistent_id": "", "id": 117627666, "location_subtype": "", "month": "2024-03"}, {"category": "anti-social-behaviour", "location_type": "Force", "location": {"latitude": "53.378498", "street": {"id": 1717093, "name": "On or near Sports/recreation Area"}, "longitude": "-1.448139"}, "context": "", "outcome_status": null, "persistent_id": "", "id": 117627670, "location_subtype": "", "month": "2024-03"}, {"category": "anti-social-behaviour", "location_type": "Force", "location": {"latitude": "53.310459", "street": {"id": 2220918, "name": "On or near Castle View"}, "longitude": "-1.359644"}, "context": "", "outcome_status": null, "persistent_id": "", "id": 117655350, "location_subtype": "", "month": "2024-03"}, {"category": "anti-social-behaviour", "location_type": "Force", "location": {"latitude": "53.311651", "street": {"id": 2216144, "name": "On or near Eckington Road"}, "longitude": "-1.447188"}, "context": "", "outcome_status": null, "persistent_id": "", "id": 117654545, "location_subtype": "", "month": "2024-03"}, {"category": "anti-social-behaviour", "location_type": "Force", "location": {"latitude": "53.308591", "street": {"id": 2216865, "name": "On or near Ash Lane"}, "longitude": "-1.434876"}, "context": "", "outcome_status": null, "persistent_id": "", "id": 117654393, "location_subtype": "", "month": "2024-03"}, {"category": "anti-social-behaviour", "location_type": "Force", "location": {"latitude": "53.428012", "street": {"id": 1721274, "name": "On or near Down's Row"}, "longitude": "-1.355908"}, "context": "", "outcome_status": null, "persistent_id": "", "id": 117626727, "location_subtype": "", "month": "2024-03"}, {"category": "anti-social-behaviour", "location_type": "Force", "location": {"latitude": "53.425883", "street": {"id": 1721218, "name": "On or near Chapel Lane"}, "longitude": "-1.357881"}, "context": "", "outcome_status": null, "persistent_id": "", "id": 117626725, "location_subtype": "", "month": "2024-03"}, {"category": "anti-social-behaviour", "location_type": "Force", "location": {"latitude": "53.474799", "street": {"id": 1720731, "name": "On or near Stubbin Road"}, "longitude": "-1.367991"}, "context": "", "outcome_status": null, "persistent_id": "", "id": 117626724, "location_subtype": "", "month": "2024-03"}, {"category": "anti-social-behaviour", "location_type": "Force", "location": {"latitude": "53.347465", "street": {"id": 1720132, "name": "On or near Dyke Vale Place"}, "longitude": "-1.381742"}, "context": "", "outcome_status": null, "persistent_id": "", "id": 117626722, "location_subtype": "", "month": "2024-03"}, {"category": "anti-social-behaviour", "location_type": "Force", "location": {"latitude": "53.375867", "street": {"id": 1719657, "name": "On or near Handsworth Road"}, "longitude": "-1.393522"}, "context": "", "outcome_status": null, "persistent_id": "", "id": 117626720, "location_subtype": "", "month": "2024-03"}, {"category": "anti-social-behaviour", "location_type": "Force", "location": {"latitude": "53.377541", "street": {"id": 1719589, "name": "On or near Oakley Road"}, "longitude": "-1.393964"}, "context": "", "outcome_status": null, "persistent_id": "", "id": 117626719, "location_subtype": "", "month": "2024-03"}, {"category": "anti-social-behaviour", "location_type": "Force", "location": {"latitude": "53.382970", "street": {"id": 1715070, "name": "On or near Broad Lane"}, "longitude": "-1.477656"}, "context": "", "outcome_status": null, "persistent_id": "", "id": 117627154, "location_subtype": "", "month": "2024-03"}, {"category": "anti-social-behaviour", "location_type": "Force", "location": {"latitude": "53.372774", "street": {"id": 1714584, "name": "On or near Harrow Street"}, "longitude": "-1.480982"}, "context": "", "outcome_status": null, "persistent_id": "", "id": 117627153, "location_subtype": "", "month": "2024-03"}, {"category": "anti-social-behaviour", "location_type": "Force", "location": {"latitude": "53.415686", "street": {"id": 1714461, "name": "On or near Donovan Close"}, "longitude": "-1.483168"}, "context": "", "outcome_status": null, "persistent_id": "", "id": 117627150, "location_subtype": "", "month": "2024-03"}, {"category": "anti-social-behaviour", "location_type": "Force", "location": {"latitude": "53.419571", "street": {"id": 1713842, "name": "On or near Cookson Close"}, "longitude": "-1.492089"}, "context": "", "outcome_status": null, "persistent_id": "", "id": 117627147, "location_subtype": "", "month": "2024-03"}, {"category": "anti-social-behaviour", "location_type": "Force", "location": {"latitude": "53.400386", "street": {"id": 1713590, "name": "On or near Swamp Walk"}, "longitude": "-1.495356"}, "context": "", "outcome_status": null, "persistent_id": "", "id": 117627146, "location_subtype": "", "month": "2024-03"}, {"category": "anti-social-behaviour", "location_type": "Force", "location": {"latitude": "53.388425", "street": {"id": 1713337, "name": "On or near Bates Street"}, "longitude": "-1.500324"}, "context": "", "outcome_status": null, "persistent_id": "", "id": 117627145, "location_subtype": "", "month": "2024-03"}, {"category": "anti-social-behaviour", "location_type": "Force", "location": {"latitude": "53.409871", "street": {"id": 1718089, "name": "On or near Farcroft Grove"}, "longitude": "-1.431760"}, "context": "", "outcome_status": null, "persistent_id": "", "id": 117626711, "location_subtype": "", "month": "2024-03"}, {"category": "anti-social-behaviour", "location_type": "Force", "location": {"latitude": "53.356839", "street": {"id": 1717121, "name": "On or near Newfield Green Road"}, "longitude": "-1.449308"}, "context": "", "outcome_status": null, "persistent_id": "", "id": 117626708, "location_subtype": "", "month": "2024-03"}, {"category": "anti-social-behaviour", "location_type": "Force", "location": {"latitude": "53.426616", "street": {"id": 1716117, "name": "On or near Lindsay Drive"}, "longitude": "-1.464781"}, "context": "", "outcome_status": null, "persistent_id": "", "id": 117626706, "location_subtype": "", "month": "2024-03"}, {"category": "anti-social-behaviour", "location_type": "Force", "location": {"latitude": "53.382133", "street": {"id": 1715928, "name": "On or near George Street"}, "longitude": "-1.467068"}, "context": "", "outcome_status": null, "persistent_id": "", "id": 117626705, "location_subtype": "", "month": "2024-03"}, {"category": "anti-social-behaviour", "location_type": "Force", "location": {"latitude": "53.371189", "street": {"id": 1715541, "name": "On or near Petrol Station"}, "longitude": "-1.472149"}, "context": "", "outcome_status": null, "persistent_id": "", "id": 117626703, "location_subtype": "", "month": "2024-03"}, {"category": "anti-social-behaviour", "location_type": "Force", "location": {"latitude": "53.368278", "street": {"id": 1714215, "name": "On or near Grange Crescent Road"}, "longitude": "-1.486973"}, "context": "", "outcome_status": null, "persistent_id": "", "id": 117626698, "location_subtype": "", "month": "2024-03"}, {"category": "anti-social-behaviour", "location_type": "Force", "location": {"latitude": "53.401523", "street": {"id": 1713721, "name": "On or near Petrol Station"}, "longitude": "-1.494365"}, "context": "", "outcome_status": null, "persistent_id": "", "id": 117626695, "location_subtype": "", "month": "2024-03"}, {"category": "anti-social-behaviour", "location_type": "Force", "location": {"latitude": "53.421651", "street": {"id": 1713605, "name": "On or near Carrville Drive"}, "longitude": "-1.494984"}, "context": "", "outcome_status": null, "persistent_id": "", "id": 117626694, "location_subtype": "", "month": "2024-03"}, {"category": "anti-social-behaviour", "location_type": "Force", "location": {"latitude": "53.382697", "street": {"id": 1715851, "name": "On or near East Parade"}, "longitude": "-1.468624"}, "context": "", "outcome_status": null, "persistent_id": "", "id": 117621445, "location_subtype": "", "month": "2024-03"}, {"category": "anti-social-behaviour", "location_type": "Force", "location": {"latitude": "53.435607", "street": {"id": 1722413, "name": "On or near East Crescent"}, "longitude": "-1.329722"}, "context": "", "outcome_status": null, "persistent_id": "", "id": 117621464, "location_subtype": "", "month": "2024-03"}, {"category": "anti-social-behaviour", "location_type": "Force", "location": {"latitude": "53.363493", "street": {"id": 1713334, "name": "On or near Brincliffe Crescent"}, "longitude": "-1.499007"}, "context": "", "outcome_status": null, "persistent_id": "", "id": 117626693, "location_subtype": "", "month": "2024-03"}, {"category": "anti-social-behaviour", "location_type": "Force", "location": {"latitude": "53.400114", "street": {"id": 1713270, "name": "On or near Manvers Road"}, "longitude": "-1.501390"}, "context": "", "outcome_status": null, "persistent_id": "", "id": 117626691, "location_subtype": "", "month": "2024-03"}, {"category": "anti-social-behaviour", "location_type": "Force", "location": {"latitude": "53.351916", "street": {"id": 1718593, "name": "On or near B6063"}, "longitude": "-1.419566"}, "context": "", "outcome_status": null, "persistent_id": "", "id": 117622375, "location_subtype": "", "month": "2024-03"}, {"category": "anti-social-behaviour", "location_type": "Force", "location": {"latitude": "53.429626", "street": {"id": 1717732, "name": "On or near Keppel Place"}, "longitude": "-1.437156"}, "context": "", "outcome_status": null, "persistent_id": "", "id": 117622374, "location_subtype": "", "month": "2024-03"}, {"category": "anti-social-behaviour", "location_type": "Force", "location": {"latitude": "53.357097", "street": {"id": 1715089, "name": "On or near Little London Place"}, "longitude": "-1.476755"}, "context": "", "outcome_status": null, "persistent_id": "", "id": 117624634, "location_subtype": "", "month": "2024-03"}, {"category": "anti-social-behaviour", "location_type": "Force", "location": {"latitude": "53.434473", "street": {"id": 1719777, "name": "On or near Manor Approach"}, "longitude": "-1.389949"}, "context": "", "outcome_status": null, "persistent_id": "", "id": 117623707, "location_subtype": "", "month": "2024-03"}, {"category": "anti-social-behaviour", "location_type": "Force", "location": {"latitude": "53.383629", "street": {"id": 1716093, "name": "On or near Angel Street"}, "longitude": "-1.465952"}, "context": "", "outcome_status": null, "persistent_id": "", "id": 117624172, "location_subtype": "", "month": "2024-03"}, {"category": "anti-social-behaviour", "location_type": "Force", "location": {"latitude": "53.367301", "street": {"id": 1718039, "name": "On or near Cary Grove"}, "longitude": "-1.431816"}, "context": "", "outcome_status": null, "persistent_id": "", "id": 117624183, "location_subtype": "", "month": "2024-03"}, {"category": "anti-social-behaviour", "location_type": "Force", "location": {"latitude": "53.364040", "street": {"id": 1717796, "name": "On or near Cradock Road"}, "longitude": "-1.437945"}, "context": "", "outcome_status": null, "persistent_id": "", "id": 117624182, "location_subtype": "", "month": "2024-03"}, {"category": "anti-social-behaviour", "location_type": "Force", "location": {"latitude": "53.373831", "street": {"id": 1717713, "name": "On or near Swift Way"}, "longitude": "-1.440326"}, "context": "", "outcome_status": null, "persistent_id": "", "id": 117624181, "location_subtype": "", "month": "2024-03"}, {"category": "anti-social-behaviour", "location_type": "Force", "location": {"latitude": "53.355915", "street": {"id": 1716033, "name": "On or near Canterbury Road"}, "longitude": "-1.465667"}, "context": "", "outcome_status": null, "persistent_id": "", "id": 117625120, "location_subtype": "", "month": "2024-03"}, {"category": "anti-social-behaviour", "location_type": "Force", "location": {"latitude": "53.379702", "street": {"id": 1716052, "name": "On or near Arundel Gate"}, "longitude": "-1.466241"}, "context": "", "outcome_status": null, "persistent_id": "", "id": 117625119, "location_subtype": "", "month": "2024-03"}, {"category": "anti-social-behaviour", "location_type": "Force", "location": {"latitude": "53.361235", "street": {"id": 1719688, "name": "On or near Smelter Wood Crescent"}, "longitude": "-1.392001"}, "context": "", "outcome_status": null, "persistent_id": "", "id": 117625143, "location_subtype": "", "month": "2024-03"}, {"category": "anti-social-behaviour", "location_type": "Force", "location": {"latitude": "53.368997", "street": {"id": 1713775, "name": "On or near Snuff Mill Lane"}, "longitude": "-1.493142"}, "context": "", "outcome_status": null, "persistent_id": "", "id": 117626199, "location_subtype": "", "month": "2024-03"}, {"category": "anti-social-behaviour", "location_type": "Force", "location": {"latitude": "53.409496", "street": {"id": 1713466, "name": "On or near Barker's Place"}, "longitude": "-1.498753"}, "context": "", "outcome_status": null, "persistent_id": "", "id": 117626198, "location_subtype": "", "month": "2024-03"}, {"category": "anti-social-behaviour", "location_type": "Force", "location": {"latitude": "53.472078", "street": {"id": 1713500, "name": "On or near Potters Gate"}, "longitude": "-1.497323"}, "context": "", "outcome_status": null, "persistent_id": "", "id": 117626197, "location_subtype": "", "month": "2024-03"}, {"category": "anti-social-behaviour", "location_type": "Force", "location": {"latitude": "53.371707", "street": {"id": 1714335, "name": "On or near Pear Street"}, "longitude": "-1.485790"}, "context": "", "outcome_status": null, "persistent_id": "", "id": 117626201, "location_subtype": "", "month": "2024-03"}, {"category": "anti-social-behaviour", "location_type": "Force", "location": {"latitude": "53.335594", "street": {"id": 1716335, "name": "On or near Norton Church Road"}, "longitude": "-1.462121"}, "context": "", "outcome_status": null, "persistent_id": "", "id": 117626215, "location_subtype": "", "month": "2024-03"}, {"category": "anti-social-behaviour", "location_type": "Force", "location": {"latitude": "53.460772", "street": {"id": 1716062, "name": "On or near Falding Street"}, "longitude": "-1.464518"}, "context": "", "outcome_status": null, "persistent_id": "", "id": 117626214, "location_subtype": "", "month": "2024-03"}, {"category": "anti-social-behaviour", "location_type": "Force", "location": {"latitude": "53.382289", "street": {"id": 1716088, "name": "On or near Parking Area"}, "longitude": "-1.465818"}, "context": "", "outcome_status": null, "persistent_id": "", "id": 117626213, "location_subtype": "", "month": "2024-03"}, {"category": "anti-social-behaviour", "location_type": "Force", "location": {"latitude": "53.382912", "street": {"id": 1716031, "name": "On or near High Street"}, "longitude": "-1.466381"}, "context": "", "outcome_status": null, "persistent_id": "", "id": 117626212, "location_subtype": "", "month": "2024-03"}, {"category": "anti-social-behaviour", "location_type": "Force", "location": {"latitude": "53.359880", "street": {"id": 1716719, "name": "On or near Hallyburton Drive"}, "longitude": "-1.455790"}, "context": "", "outcome_status": null, "persistent_id": "", "id": 117626218, "location_subtype": "", "month": "2024-03"}, {"category": "anti-social-behaviour", "location_type": "Force", "location": {"latitude": "53.374358", "street": {"id": 1716581, "name": "On or near Castle Croft Drive"}, "longitude": "-1.459289"}, "context": "", "outcome_status": null, "persistent_id": "", "id": 117626217, "location_subtype": "", "month": "2024-03"}, {"category": "anti-social-behaviour", "location_type": "Force", "location": {"latitude": "53.330685", "street": {"id": 1714328, "name": "On or near Humphrey Road"}, "longitude": "-1.484436"}, "context": "", "outcome_status": null, "persistent_id": "", "id": 117627152, "location_subtype": "", "month": "2024-03"}, {"category": "anti-social-behaviour", "location_type": "Force", "location": {"latitude": "53.378406", "street": {"id": 1715329, "name": "On or near Parking Area"}, "longitude": "-1.473954"}, "context": "", "outcome_status": null, "persistent_id": "", "id": 117627157, "location_subtype": "", "month": "2024-03"}, {"category": "anti-social-behaviour", "location_type": "Force", "location": {"latitude": "53.383992", "street": {"id": 1715802, "name": "On or near St Peter's Close"}, "longitude": "-1.468804"}, "context": "", "outcome_status": null, "persistent_id": "", "id": 117627158, "location_subtype": "", "month": "2024-03"}, {"category": "anti-social-behaviour", "location_type": "Force", "location": {"latitude": "53.365471", "street": {"id": 1717604, "name": "On or near Brimmesfield Drive"}, "longitude": "-1.442194"}, "context": "", "outcome_status": null, "persistent_id": "", "id": 117617760, "location_subtype": "", "month": "2024-03"}, {"category": "anti-social-behaviour", "location_type": "Force", "location": {"latitude": "53.340802", "street": {"id": 1717565, "name": "On or near Landseer Place"}, "longitude": "-1.443372"}, "context": "", "outcome_status": null, "persistent_id": "", "id": 117617758, "location_subtype": "", "month": "2024-03"}, {"category": "anti-social-behaviour", "location_type": "Force", "location": {"latitude": "53.468728", "street": {"id": 1722351, "name": "On or near North Street"}, "longitude": "-1.330993"}, "context": "", "outcome_status": null, "persistent_id": "", "id": 117627695, "location_subtype": "", "month": "2024-03"}, {"category": "anti-social-behaviour", "location_type": "Force", "location": {"latitude": "53.481414", "street": {"id": 1710948, "name": "On or near Supermarket"}, "longitude": "-1.590955"}, "context": "", "outcome_status": null, "persistent_id": "", "id": 117618967, "location_subtype": "", "month": "2024-03"}, {"category": "anti-social-behaviour", "location_type": "Force", "location": {"latitude": "53.354304", "street": {"id": 1714874, "name": "On or near Binfield Road"}, "longitude": "-1.479509"}, "context": "", "outcome_status": null, "persistent_id": "", "id": 117618975, "location_subtype": "", "month": "2024-03"}, {"category": "anti-social-behaviour", "location_type": "Force", "location": {"latitude": "53.439484", "street": {"id": 1719409, "name": "On or near Supermarket"}, "longitude": "-1.400254"}, "context": "", "outcome_status": null, "persistent_id": "", "id": 117618989, "location_subtype": "", "month": "2024-03"}, {"category": "anti-social-behaviour", "location_type": "Force", "location": {"latitude": "53.339250", "street": {"id": 1718258, "name": "On or near Charnock Dale Road"}, "longitude": "-1.423252"}, "context": "", "outcome_status": null, "persistent_id": "", "id": 117618988, "location_subtype": "", "month": "2024-03"}, {"category": "anti-social-behaviour", "location_type": "Force", "location": {"latitude": "53.443721", "street": {"id": 1719675, "name": "On or near Bower Close"}, "longitude": "-1.393098"}, "context": "", "outcome_status": null, "persistent_id": "", "id": 117618991, "location_subtype": "", "month": "2024-03"}, {"category": "anti-social-behaviour", "location_type": "Force", "location": {"latitude": "53.351045", "street": {"id": 1719455, "name": "On or near Alport Avenue"}, "longitude": "-1.397990"}, "context": "", "outcome_status": null, "persistent_id": "", "id": 117618990, "location_subtype": "", "month": "2024-03"}, {"category": "anti-social-behaviour", "location_type": "Force", "location": {"latitude": "53.365765", "street": {"id": 1712751, "name": "On or near Carrington Road"}, "longitude": "-1.509155"}, "context": "", "outcome_status": null, "persistent_id": "", "id": 117619449, "location_subtype": "", "month": "2024-03"}, {"category": "anti-social-behaviour", "location_type": "Force", "location": {"latitude": "53.430174", "street": {"id": 1713817, "name": "On or near Cowper Crescent"}, "longitude": "-1.493257"}, "context": "", "outcome_status": null, "persistent_id": "", "id": 117619455, "location_subtype": "", "month": "2024-03"}, {"category": "anti-social-behaviour", "location_type": "Force", "location": {"latitude": "53.368385", "street": {"id": 1713541, "name": "On or near Hickmott Road"}, "longitude": "-1.497282"}, "context": "", "outcome_status": null, "persistent_id": "", "id": 117619453, "location_subtype": "", "month": "2024-03"}, {"category": "anti-social-behaviour", "location_type": "Force", "location": {"latitude": "53.421062", "street": {"id": 1721575, "name": "On or near Moorgate Lane"}, "longitude": "-1.348986"}, "context": "", "outcome_status": null, "persistent_id": "", "id": 117619483, "location_subtype": "", "month": "2024-03"}, {"category": "anti-social-behaviour", "location_type": "Force", "location": {"latitude": "53.421062", "street": {"id": 1721575, "name": "On or near Moorgate Lane"}, "longitude": "-1.348986"}, "context": "", "outcome_status": null, "persistent_id": "", "id": 117619482, "location_subtype": "", "month": "2024-03"}, {"category": "anti-social-behaviour", "location_type": "Force", "location": {"latitude": "53.370097", "street": {"id": 1722899, "name": "On or near Heighton View"}, "longitude": "-1.317013"}, "context": "", "outcome_status": null, "persistent_id": "", "id": 117624675, "location_subtype": "", "month": "2024-03"}, {"category": "anti-social-behaviour", "location_type": "Force", "location": {"latitude": "53.385737", "street": {"id": 1712976, "name": "On or near Cobden View Road"}, "longitude": "-1.504625"}, "context": "", "outcome_status": null, "persistent_id": "", "id": 117620499, "location_subtype": "", "month": "2024-03"}, {"category": "anti-social-behaviour", "location_type": "Force", "location": {"latitude": "53.340865", "street": {"id": 1718015, "name": "On or near Rosser Avenue"}, "longitude": "-1.431882"}, "context": "", "outcome_status": null, "persistent_id": "", "id": 117620525, "location_subtype": "", "month": "2024-03"}, {"category": "anti-social-behaviour", "location_type": "Force", "location": {"latitude": "53.407385", "street": {"id": 1717508, "name": "On or near Petrol Station"}, "longitude": "-1.442808"}, "context": "", "outcome_status": null, "persistent_id": "", "id": 117620524, "location_subtype": "", "month": "2024-03"}, {"category": "anti-social-behaviour", "location_type": "Force", "location": {"latitude": "53.461102", "street": {"id": 1722279, "name": "On or near Roundwood Court"}, "longitude": "-1.333493"}, "context": "", "outcome_status": null, "persistent_id": "", "id": 117620540, "location_subtype": "", "month": "2024-03"}, {"category": "anti-social-behaviour", "location_type": "Force", "location": {"latitude": "53.451489", "street": {"id": 1720732, "name": "On or near Ash View"}, "longitude": "-1.369271"}, "context": "", "outcome_status": null, "persistent_id": "", "id": 117620536, "location_subtype": "", "month": "2024-03"}, {"category": "anti-social-behaviour", "location_type": "Force", "location": {"latitude": "53.342071", "street": {"id": 1722095, "name": "On or near Portland Road"}, "longitude": "-1.339645"}, "context": "", "outcome_status": null, "persistent_id": "", "id": 117624674, "location_subtype": "", "month": "2024-03"}, {"category": "anti-social-behaviour", "location_type": "Force", "location": {"latitude": "53.347617", "street": {"id": 1715778, "name": "On or near Brindley Close"}, "longitude": "-1.469331"}, "context": "", "outcome_status": null, "persistent_id": "", "id": 117621019, "location_subtype": "", "month": "2024-03"}, {"category": "anti-social-behaviour", "location_type": "Force", "location": {"latitude": "53.383162", "street": {"id": 1715909, "name": "On or near York Street"}, "longitude": "-1.468182"}, "context": "", "outcome_status": null, "persistent_id": "", "id": 117621018, "location_subtype": "", "month": "2024-03"}, {"category": "anti-social-behaviour", "location_type": "Force", "location": {"latitude": "53.410249", "street": {"id": 1718069, "name": "On or near Beacon Croft"}, "longitude": "-1.431966"}, "context": "", "outcome_status": null, "persistent_id": "", "id": 117621040, "location_subtype": "", "month": "2024-03"}, {"category": "anti-social-behaviour", "location_type": "Force", "location": {"latitude": "53.394213", "street": {"id": 1717984, "name": "On or near Ferguson Street"}, "longitude": "-1.433803"}, "context": "", "outcome_status": null, "persistent_id": "", "id": 117621039, "location_subtype": "", "month": "2024-03"}, {"category": "anti-social-behaviour", "location_type": "Force", "location": {"latitude": "53.432706", "street": {"id": 1719752, "name": "On or near Ewers Road"}, "longitude": "-1.390666"}, "context": "", "outcome_status": null, "persistent_id": "", "id": 117621046, "location_subtype": "", "month": "2024-03"}, {"category": "anti-social-behaviour", "location_type": "Force", "location": {"latitude": "53.429890", "street": {"id": 1719600, "name": "On or near South Street"}, "longitude": "-1.393656"}, "context": "", "outcome_status": null, "persistent_id": "", "id": 117621045, "location_subtype": "", "month": "2024-03"}, {"category": "anti-social-behaviour", "location_type": "Force", "location": {"latitude": "53.443226", "street": {"id": 1722686, "name": "On or near Petrol Station"}, "longitude": "-1.321261"}, "context": "", "outcome_status": null, "persistent_id": "", "id": 117621049, "location_subtype": "", "month": "2024-03"}, {"category": "anti-social-behaviour", "location_type": "Force", "location": {"latitude": "53.455026", "street": {"id": 1722041, "name": "On or near Griffiths Close"}, "longitude": "-1.340094"}, "context": "", "outcome_status": null, "persistent_id": "", "id": 117624673, "location_subtype": "", "month": "2024-03"}, {"category": "anti-social-behaviour", "location_type": "Force", "location": {"latitude": "53.346169", "street": {"id": 1721265, "name": "On or near Sevenairs Road"}, "longitude": "-1.350908"}, "context": "", "outcome_status": null, "persistent_id": "", "id": 117624672, "location_subtype": "", "month": "2024-03"}, {"category": "anti-social-behaviour", "location_type": "Force", "location": {"latitude": "53.433833", "street": {"id": 1721396, "name": "On or near Supermarket"}, "longitude": "-1.353592"}, "context": "", "outcome_status": null, "persistent_id": "", "id": 117624671, "location_subtype": "", "month": "2024-03"}, {"category": "anti-social-behaviour", "location_type": "Force", "location": {"latitude": "53.433054", "street": {"id": 1721368, "name": "On or near Henry Street"}, "longitude": "-1.354146"}, "context": "", "outcome_status": null, "persistent_id": "", "id": 117624670, "location_subtype": "", "month": "2024-03"}, {"category": "anti-social-behaviour", "location_type": "Force", "location": {"latitude": "53.326068", "street": {"id": 1721069, "name": "On or near Shipman Court"}, "longitude": "-1.360612"}, "context": "", "outcome_status": null, "persistent_id": "", "id": 117624669, "location_subtype": "", "month": "2024-03"}, {"category": "anti-social-behaviour", "location_type": "Force", "location": {"latitude": "53.368182", "street": {"id": 1722956, "name": "On or near Parking Area"}, "longitude": "-1.315451"}, "context": "", "outcome_status": null, "persistent_id": "", "id": 117629215, "location_subtype": "", "month": "2024-03"}, {"category": "anti-social-behaviour", "location_type": "Force", "location": {"latitude": "53.433054", "street": {"id": 1721368, "name": "On or near Henry Street"}, "longitude": "-1.354146"}, "context": "", "outcome_status": null, "persistent_id": "", "id": 117629212, "location_subtype": "", "month": "2024-03"}, {"category": "anti-social-behaviour", "location_type": "Force", "location": {"latitude": "53.428035", "street": {"id": 1720890, "name": "On or near Parking Area"}, "longitude": "-1.358632"}, "context": "", "outcome_status": null, "persistent_id": "", "id": 117629211, "location_subtype": "", "month": "2024-03"}, {"category": "anti-social-behaviour", "location_type": "Force", "location": {"latitude": "53.358381", "street": {"id": 1720704, "name": "On or near Parking Area"}, "longitude": "-1.368708"}, "context": "", "outcome_status": null, "persistent_id": "", "id": 117629210, "location_subtype": "", "month": "2024-03"}, {"category": "anti-social-behaviour", "location_type": "Force", "location": {"latitude": "53.355721", "street": {"id": 1720698, "name": "On or near Skelton Drive"}, "longitude": "-1.370400"}, "context": "", "outcome_status": null, "persistent_id": "", "id": 117629209, "location_subtype": "", "month": "2024-03"}, {"category": "anti-social-behaviour", "location_type": "Force", "location": {"latitude": "53.347467", "street": {"id": 1720062, "name": "On or near Dyke Vale Close"}, "longitude": "-1.383740"}, "context": "", "outcome_status": null, "persistent_id": "", "id": 117629208, "location_subtype": "", "month": "2024-03"}, {"category": "anti-social-behaviour", "location_type": "Force", "location": {"latitude": "53.355923", "street": {"id": 1719545, "name": "On or near Haxby Place"}, "longitude": "-1.395578"}, "context": "", "outcome_status": null, "persistent_id": "", "id": 117629207, "location_subtype": "", "month": "2024-03"}, {"category": "anti-social-behaviour", "location_type": "Force", "location": {"latitude": "53.360832", "street": {"id": 1717761, "name": "On or near Northern Avenue"}, "longitude": "-1.438153"}, "context": "", "outcome_status": null, "persistent_id": "", "id": 117629205, "location_subtype": "", "month": "2024-03"}, {"category": "anti-social-behaviour", "location_type": "Force", "location": {"latitude": "53.423960", "street": {"id": 1717145, "name": "On or near Hatfield House Lane"}, "longitude": "-1.449992"}, "context": "", "outcome_status": null, "persistent_id": "", "id": 117629203, "location_subtype": "", "month": "2024-03"}, {"category": "anti-social-behaviour", "location_type": "Force", "location": {"latitude": "53.406812", "street": {"id": 1717027, "name": "On or near Skinnerthorpe Road"}, "longitude": "-1.452424"}, "context": "", "outcome_status": null, "persistent_id": "", "id": 117629202, "location_subtype": "", "month": "2024-03"}, {"category": "anti-social-behaviour", "location_type": "Force", "location": {"latitude": "53.395448", "street": {"id": 1716946, "name": "On or near Maxwell Way"}, "longitude": "-1.453878"}, "context": "", "outcome_status": null, "persistent_id": "", "id": 117629199, "location_subtype": "", "month": "2024-03"}, {"category": "anti-social-behaviour", "location_type": "Force", "location": {"latitude": "53.401571", "street": {"id": 1716672, "name": "On or near College Court"}, "longitude": "-1.458132"}, "context": "", "outcome_status": null, "persistent_id": "", "id": 117629198, "location_subtype": "", "month": "2024-03"}, {"category": "anti-social-behaviour", "location_type": "Force", "location": {"latitude": "53.444049", "street": {"id": 1716175, "name": "On or near Park/open Space"}, "longitude": "-1.463767"}, "context": "", "outcome_status": null, "persistent_id": "", "id": 117629197, "location_subtype": "", "month": "2024-03"}, {"category": "anti-social-behaviour", "location_type": "Force", "location": {"latitude": "53.375524", "street": {"id": 1715804, "name": "On or near Matilda Street"}, "longitude": "-1.468743"}, "context": "", "outcome_status": null, "persistent_id": "", "id": 117629196, "location_subtype": "", "month": "2024-03"}, {"category": "anti-social-behaviour", "location_type": "Force", "location": {"latitude": "53.384102", "street": {"id": 1715453, "name": "On or near White Croft"}, "longitude": "-1.473403"}, "context": "", "outcome_status": null, "persistent_id": "", "id": 117629195, "location_subtype": "", "month": "2024-03"}, {"category": "anti-social-behaviour", "location_type": "Force", "location": {"latitude": "53.322805", "street": {"id": 1714638, "name": "On or near Toppham Way"}, "longitude": "-1.480958"}, "context": "", "outcome_status": null, "persistent_id": "", "id": 117629194, "location_subtype": "", "month": "2024-03"}, {"category": "anti-social-behaviour", "location_type": "Force", "location": {"latitude": "53.367398", "street": {"id": 1713960, "name": "On or near Westbrook Bank"}, "longitude": "-1.491312"}, "context": "", "outcome_status": null, "persistent_id": "", "id": 117629192, "location_subtype": "", "month": "2024-03"}, {"category": "anti-social-behaviour", "location_type": "Force", "location": {"latitude": "53.388386", "street": {"id": 1713972, "name": "On or near Ashberry Road"}, "longitude": "-1.491288"}, "context": "", "outcome_status": null, "persistent_id": "", "id": 117629191, "location_subtype": "", "month": "2024-03"}, {"category": "anti-social-behaviour", "location_type": "Force", "location": {"latitude": "53.404464", "street": {"id": 1713558, "name": "On or near Owlerton Green"}, "longitude": "-1.497022"}, "context": "", "outcome_status": null, "persistent_id": "", "id": 117629190, "location_subtype": "", "month": "2024-03"}, {"category": "anti-social-behaviour", "location_type": "Force", "location": {"latitude": "53.376492", "street": {"id": 1713250, "name": "On or near Ashdell Lane"}, "longitude": "-1.501395"}, "context": "", "outcome_status": null, "persistent_id": "", "id": 117629189, "location_subtype": "", "month": "2024-03"}, {"category": "anti-social-behaviour", "location_type": "Force", "location": {"latitude": "53.378389", "street": {"id": 1713277, "name": "On or near Hoole Lane"}, "longitude": "-1.501433"}, "context": "", "outcome_status": null, "persistent_id": "", "id": 117629188, "location_subtype": "", "month": "2024-03"}, {"category": "anti-social-behaviour", "location_type": "Force", "location": {"latitude": "53.426566", "street": {"id": 1712686, "name": "On or near Midhurst Road"}, "longitude": "-1.505340"}, "context": "", "outcome_status": null, "persistent_id": "", "id": 117629187, "location_subtype": "", "month": "2024-03"}, {"category": "anti-social-behaviour", "location_type": "Force", "location": {"latitude": "53.417259", "street": {"id": 1712694, "name": "On or near Winn Drive"}, "longitude": "-1.510864"}, "context": "", "outcome_status": null, "persistent_id": "", "id": 117629186, "location_subtype": "", "month": "2024-03"}, {"category": "anti-social-behaviour", "location_type": "Force", "location": {"latitude": "53.409818", "street": {"id": 1712457, "name": "On or near Wadsley Park Crescent"}, "longitude": "-1.515793"}, "context": "", "outcome_status": null, "persistent_id": "", "id": 117629185, "location_subtype": "", "month": "2024-03"}, {"category": "anti-social-behaviour", "location_type": "Force", "location": {"latitude": "53.433197", "street": {"id": 1722533, "name": "On or near The Lanes"}, "longitude": "-1.324793"}, "context": "", "outcome_status": null, "persistent_id": "", "id": 117628671, "location_subtype": "", "month": "2024-03"}, {"category": "anti-social-behaviour", "location_type": "Force", "location": {"latitude": "53.464269", "street": {"id": 1722451, "name": "On or near Supermarket"}, "longitude": "-1.329147"}, "context": "", "outcome_status": null, "persistent_id": "", "id": 117628669, "location_subtype": "", "month": "2024-03"}, {"category": "anti-social-behaviour", "location_type": "Force", "location": {"latitude": "53.337568", "street": {"id": 1722049, "name": "On or near Willingham Gardens"}, "longitude": "-1.339625"}, "context": "", "outcome_status": null, "persistent_id": "", "id": 117628668, "location_subtype": "", "month": "2024-03"}, {"category": "anti-social-behaviour", "location_type": "Force", "location": {"latitude": "53.447956", "street": {"id": 1721922, "name": "On or near Sports/recreation Area"}, "longitude": "-1.342615"}, "context": "", "outcome_status": null, "persistent_id": "", "id": 117628667, "location_subtype": "", "month": "2024-03"}, {"category": "anti-social-behaviour", "location_type": "Force", "location": {"latitude": "53.473864", "street": {"id": 1721836, "name": "On or near Kempwell Drive"}, "longitude": "-1.342905"}, "context": "", "outcome_status": null, "persistent_id": "", "id": 117628666, "location_subtype": "", "month": "2024-03"}, {"category": "anti-social-behaviour", "location_type": "Force", "location": {"latitude": "53.397519", "street": {"id": 1721227, "name": "On or near Grange Farm Close"}, "longitude": "-1.357000"}, "context": "", "outcome_status": null, "persistent_id": "", "id": 117628665, "location_subtype": "", "month": "2024-03"}, {"category": "anti-social-behaviour", "location_type": "Force", "location": {"latitude": "53.370587", "street": {"id": 1720463, "name": "On or near Ballifield Drive"}, "longitude": "-1.375396"}, "context": "", "outcome_status": null, "persistent_id": "", "id": 117628664, "location_subtype": "", "month": "2024-03"}, {"category": "anti-social-behaviour", "location_type": "Force", "location": {"latitude": "53.429578", "street": {"id": 1720191, "name": "On or near Hartington Road"}, "longitude": "-1.380176"}, "context": "", "outcome_status": null, "persistent_id": "", "id": 117628663, "location_subtype": "", "month": "2024-03"}, {"category": "anti-social-behaviour", "location_type": "Force", "location": {"latitude": "53.365585", "street": {"id": 1719424, "name": "On or near Richmond Road"}, "longitude": "-1.400866"}, "context": "", "outcome_status": null, "persistent_id": "", "id": 117628661, "location_subtype": "", "month": "2024-03"}, {"category": "anti-social-behaviour", "location_type": "Force", "location": {"latitude": "53.420442", "street": {"id": 1718604, "name": "On or near Vauxhall Road"}, "longitude": "-1.418724"}, "context": "", "outcome_status": null, "persistent_id": "", "id": 117628658, "location_subtype": "", "month": "2024-03"}, {"category": "anti-social-behaviour", "location_type": "Force", "location": {"latitude": "53.423416", "street": {"id": 1718566, "name": "On or near Dara Street"}, "longitude": "-1.418608"}, "context": "", "outcome_status": null, "persistent_id": "", "id": 117628657, "location_subtype": "", "month": "2024-03"}, {"category": "anti-social-behaviour", "location_type": "Force", "location": {"latitude": "53.420442", "street": {"id": 1718604, "name": "On or near Vauxhall Road"}, "longitude": "-1.418724"}, "context": "", "outcome_status": null, "persistent_id": "", "id": 117628656, "location_subtype": "", "month": "2024-03"}, {"category": "anti-social-behaviour", "location_type": "Force", "location": {"latitude": "53.433346", "street": {"id": 1717980, "name": "On or near Ecclesfield Road"}, "longitude": "-1.431116"}, "context": "", "outcome_status": null, "persistent_id": "", "id": 117628654, "location_subtype": "", "month": "2024-03"}, {"category": "anti-social-behaviour", "location_type": "Force", "location": {"latitude": "53.360336", "street": {"id": 1717646, "name": "On or near Errington Way"}, "longitude": "-1.441705"}, "context": "", "outcome_status": null, "persistent_id": "", "id": 117628652, "location_subtype": "", "month": "2024-03"}, {"category": "anti-social-behaviour", "location_type": "Force", "location": {"latitude": "53.407723", "street": {"id": 1717401, "name": "On or near Rushby Street"}, "longitude": "-1.445177"}, "context": "", "outcome_status": null, "persistent_id": "", "id": 117628651, "location_subtype": "", "month": "2024-03"}, {"category": "anti-social-behaviour", "location_type": "Force", "location": {"latitude": "53.392647", "street": {"id": 1716766, "name": "On or near Earsham Street"}, "longitude": "-1.456666"}, "context": "", "outcome_status": null, "persistent_id": "", "id": 117628649, "location_subtype": "", "month": "2024-03"}, {"category": "anti-social-behaviour", "location_type": "Force", "location": {"latitude": "53.380414", "street": {"id": 1716005, "name": "On or near Theatre/concert Hall"}, "longitude": "-1.466623"}, "context": "", "outcome_status": null, "persistent_id": "", "id": 117628647, "location_subtype": "", "month": "2024-03"}, {"category": "anti-social-behaviour", "location_type": "Force", "location": {"latitude": "53.382133", "street": {"id": 1715928, "name": "On or near George Street"}, "longitude": "-1.467068"}, "context": "", "outcome_status": null, "persistent_id": "", "id": 117628646, "location_subtype": "", "month": "2024-03"}, {"category": "anti-social-behaviour", "location_type": "Force", "location": {"latitude": "53.381809", "street": {"id": 1715708, "name": "On or near Shopping Area"}, "longitude": "-1.468581"}, "context": "", "outcome_status": null, "persistent_id": "", "id": 117628644, "location_subtype": "", "month": "2024-03"}, {"category": "anti-social-behaviour", "location_type": "Force", "location": {"latitude": "53.396652", "street": {"id": 1715534, "name": "On or near Wood Fold"}, "longitude": "-1.469744"}, "context": "", "outcome_status": null, "persistent_id": "", "id": 117628643, "location_subtype": "", "month": "2024-03"}, {"category": "anti-social-behaviour", "location_type": "Force", "location": {"latitude": "53.377755", "street": {"id": 1715554, "name": "On or near Furnival Gate"}, "longitude": "-1.471061"}, "context": "", "outcome_status": null, "persistent_id": "", "id": 117628642, "location_subtype": "", "month": "2024-03"}, {"category": "anti-social-behaviour", "location_type": "Force", "location": {"latitude": "53.380041", "street": {"id": 1715348, "name": "On or near Carver Street"}, "longitude": "-1.473829"}, "context": "", "outcome_status": null, "persistent_id": "", "id": 117628641, "location_subtype": "", "month": "2024-03"}, {"category": "anti-social-behaviour", "location_type": "Force", "location": {"latitude": "53.379969", "street": {"id": 1714845, "name": "On or near Nightclub"}, "longitude": "-1.479653"}, "context": "", "outcome_status": null, "persistent_id": "", "id": 117628640, "location_subtype": "", "month": "2024-03"}, {"category": "anti-social-behaviour", "location_type": "Force", "location": {"latitude": "53.371014", "street": {"id": 1714454, "name": "On or near Hallamshire Court"}, "longitude": "-1.483649"}, "context": "", "outcome_status": null, "persistent_id": "", "id": 117628637, "location_subtype": "", "month": "2024-03"}, {"category": "anti-social-behaviour", "location_type": "Force", "location": {"latitude": "53.396068", "street": {"id": 1713230, "name": "On or near Elliottville Street"}, "longitude": "-1.501121"}, "context": "", "outcome_status": null, "persistent_id": "", "id": 117628633, "location_subtype": "", "month": "2024-03"}, {"category": "anti-social-behaviour", "location_type": "Force", "location": {"latitude": "53.378389", "street": {"id": 1713277, "name": "On or near Hoole Lane"}, "longitude": "-1.501433"}, "context": "", "outcome_status": null, "persistent_id": "", "id": 117628632, "location_subtype": "", "month": "2024-03"}, {"category": "anti-social-behaviour", "location_type": "Force", "location": {"latitude": "53.443332", "street": {"id": 1713231, "name": "On or near Lump Lane"}, "longitude": "-1.501441"}, "context": "", "outcome_status": null, "persistent_id": "", "id": 117628631, "location_subtype": "", "month": "2024-03"}, {"category": "anti-social-behaviour", "location_type": "Force", "location": {"latitude": "53.381140", "street": {"id": 1713104, "name": "On or near Weston View"}, "longitude": "-1.503716"}, "context": "", "outcome_status": null, "persistent_id": "", "id": 117628630, "location_subtype": "", "month": "2024-03"}, {"category": "anti-social-behaviour", "location_type": "Force", "location": {"latitude": "53.445150", "street": {"id": 1712986, "name": "On or near Woodhead Road"}, "longitude": "-1.504160"}, "context": "", "outcome_status": null, "persistent_id": "", "id": 117628629, "location_subtype": "", "month": "2024-03"}, {"category": "anti-social-behaviour", "location_type": "Force", "location": {"latitude": "53.389195", "street": {"id": 1711820, "name": "On or near Liberty Drive"}, "longitude": "-1.532958"}, "context": "", "outcome_status": null, "persistent_id": "", "id": 117628628, "location_subtype": "", "month": "2024-03"}, {"category": "anti-social-behaviour", "location_type": "Force", "location": {"latitude": "53.470507", "street": {"id": 1711320, "name": "On or near Smithy Fold Lane"}, "longitude": "-1.530997"}, "context": "", "outcome_status": null, "persistent_id": "", "id": 117628627, "location_subtype": "", "month": "2024-03"}, {"category": "anti-social-behaviour", "location_type": "Force", "location": {"latitude": "53.452089", "street": {"id": 1711314, "name": "On or near Broom Royd"}, "longitude": "-1.554510"}, "context": "", "outcome_status": null, "persistent_id": "", "id": 117628626, "location_subtype": "", "month": "2024-03"}, {"category": "anti-social-behaviour", "location_type": "Force", "location": {"latitude": "53.366972", "street": {"id": 1710705, "name": "On or near Park/open Space"}, "longitude": "-1.599040"}, "context": "", "outcome_status": null, "persistent_id": "", "id": 117628623, "location_subtype": "", "month": "2024-03"}, {"category": "anti-social-behaviour", "location_type": "Force", "location": {"latitude": "53.475534", "street": {"id": 1710979, "name": "On or near Broomfield Lane"}, "longitude": "-1.585196"}, "context": "", "outcome_status": null, "persistent_id": "", "id": 117630999, "location_subtype": "", "month": "2024-03"}, {"category": "anti-social-behaviour", "location_type": "Force", "location": {"latitude": "53.416250", "street": {"id": 1712218, "name": "On or near Queenswood Gate"}, "longitude": "-1.521332"}, "context": "", "outcome_status": null, "persistent_id": "", "id": 117631000, "location_subtype": "", "month": "2024-03"}, {"category": "anti-social-behaviour", "location_type": "Force", "location": {"latitude": "53.414765", "street": {"id": 1712272, "name": "On or near Dykewood Drive"}, "longitude": "-1.520898"}, "context": "", "outcome_status": null, "persistent_id": "", "id": 117631001, "location_subtype": "", "month": "2024-03"}, {"category": "anti-social-behaviour", "location_type": "Force", "location": {"latitude": "53.371594", "street": {"id": 1712243, "name": "On or near Fulwood Road"}, "longitude": "-1.521277"}, "context": "", "outcome_status": null, "persistent_id": "", "id": 117631002, "location_subtype": "", "month": "2024-03"}, {"category": "anti-social-behaviour", "location_type": "Force", "location": {"latitude": "53.425187", "street": {"id": 1717021, "name": "On or near Valentine Road"}, "longitude": "-1.452880"}, "context": "", "outcome_status": null, "persistent_id": "", "id": 117631021, "location_subtype": "", "month": "2024-03"}, {"category": "anti-social-behaviour", "location_type": "Force", "location": {"latitude": "53.432508", "street": {"id": 1717108, "name": "On or near Dickinson Road"}, "longitude": "-1.447835"}, "context": "", "outcome_status": null, "persistent_id": "", "id": 117631024, "location_subtype": "", "month": "2024-03"}, {"category": "anti-social-behaviour", "location_type": "Force", "location": {"latitude": "53.378498", "street": {"id": 1717093, "name": "On or near Sports/recreation Area"}, "longitude": "-1.448139"}, "context": "", "outcome_status": null, "persistent_id": "", "id": 117631025, "location_subtype": "", "month": "2024-03"}, {"category": "anti-social-behaviour", "location_type": "Force", "location": {"latitude": "53.478136", "street": {"id": 1710860, "name": "On or near Pot House Lane"}, "longitude": "-1.599605"}, "context": "", "outcome_status": null, "persistent_id": "", "id": 117631492, "location_subtype": "", "month": "2024-03"}, {"category": "anti-social-behaviour", "location_type": "Force", "location": {"latitude": "53.403973", "street": {"id": 1713351, "name": "On or near Hawksley Mews"}, "longitude": "-1.499781"}, "context": "", "outcome_status": null, "persistent_id": "", "id": 117631493, "location_subtype": "", "month": "2024-03"}, {"category": "anti-social-behaviour", "location_type": "Force", "location": {"latitude": "53.379483", "street": {"id": 1713475, "name": "On or near Moor Oaks Road"}, "longitude": "-1.498669"}, "context": "", "outcome_status": null, "persistent_id": "", "id": 117631494, "location_subtype": "", "month": "2024-03"}, {"category": "anti-social-behaviour", "location_type": "Force", "location": {"latitude": "53.371762", "street": {"id": 1713731, "name": "On or near Southgrove Road"}, "longitude": "-1.494537"}, "context": "", "outcome_status": null, "persistent_id": "", "id": 117631495, "location_subtype": "", "month": "2024-03"}, {"category": "anti-social-behaviour", "location_type": "Force", "location": {"latitude": "53.401523", "street": {"id": 1713721, "name": "On or near Petrol Station"}, "longitude": "-1.494365"}, "context": "", "outcome_status": null, "persistent_id": "", "id": 117631496, "location_subtype": "", "month": "2024-03"}, {"category": "anti-social-behaviour", "location_type": "Force", "location": {"latitude": "53.326879", "street": {"id": 1714243, "name": "On or near Torwood Drive"}, "longitude": "-1.485548"}, "context": "", "outcome_status": null, "persistent_id": "", "id": 117631498, "location_subtype": "", "month": "2024-03"}, {"category": "anti-social-behaviour", "location_type": "Force", "location": {"latitude": "53.380878", "street": {"id": 1715356, "name": "On or near Parking Area"}, "longitude": "-1.474059"}, "context": "", "outcome_status": null, "persistent_id": "", "id": 117631500, "location_subtype": "", "month": "2024-03"}, {"category": "anti-social-behaviour", "location_type": "Force", "location": {"latitude": "53.384198", "street": {"id": 1715684, "name": "On or near Paradise Lane"}, "longitude": "-1.470560"}, "context": "", "outcome_status": null, "persistent_id": "", "id": 117631501, "location_subtype": "", "month": "2024-03"}, {"category": "anti-social-behaviour", "location_type": "Force", "location": {"latitude": "53.378409", "street": {"id": 1715992, "name": "On or near Howard Lane"}, "longitude": "-1.466603"}, "context": "", "outcome_status": null, "persistent_id": "", "id": 117631503, "location_subtype": "", "month": "2024-03"}, {"category": "anti-social-behaviour", "location_type": "Force", "location": {"latitude": "53.445560", "street": {"id": 1716303, "name": "On or near Washington Road"}, "longitude": "-1.461833"}, "context": "", "outcome_status": null, "persistent_id": "", "id": 117631504, "location_subtype": "", "month": "2024-03"}, {"category": "anti-social-behaviour", "location_type": "Force", "location": {"latitude": "53.322954", "street": {"id": 1716557, "name": "On or near Selly Oak Road"}, "longitude": "-1.459758"}, "context": "", "outcome_status": null, "persistent_id": "", "id": 117631505, "location_subtype": "", "month": "2024-03"}, {"category": "anti-social-behaviour", "location_type": "Force", "location": {"latitude": "53.411735", "street": {"id": 1717299, "name": "On or near Addison Road"}, "longitude": "-1.445922"}, "context": "", "outcome_status": null, "persistent_id": "", "id": 117631508, "location_subtype": "", "month": "2024-03"}, {"category": "anti-social-behaviour", "location_type": "Force", "location": {"latitude": "53.361311", "street": {"id": 1717320, "name": "On or near Framlingham Place"}, "longitude": "-1.446441"}, "context": "", "outcome_status": null, "persistent_id": "", "id": 117631509, "location_subtype": "", "month": "2024-03"}, {"category": "anti-social-behaviour", "location_type": "Force", "location": {"latitude": "53.361793", "street": {"id": 1717573, "name": "On or near Algar Drive"}, "longitude": "-1.441942"}, "context": "", "outcome_status": null, "persistent_id": "", "id": 117631510, "location_subtype": "", "month": "2024-03"}, {"category": "anti-social-behaviour", "location_type": "Force", "location": {"latitude": "53.360473", "street": {"id": 1717721, "name": "On or near Errington Avenue"}, "longitude": "-1.440291"}, "context": "", "outcome_status": null, "persistent_id": "", "id": 117631511, "location_subtype": "", "month": "2024-03"}, {"category": "anti-social-behaviour", "location_type": "Force", "location": {"latitude": "53.355032", "street": {"id": 1717690, "name": "On or near Paddock Crescent"}, "longitude": "-1.439716"}, "context": "", "outcome_status": null, "persistent_id": "", "id": 117631513, "location_subtype": "", "month": "2024-03"}, {"category": "anti-social-behaviour", "location_type": "Force", "location": {"latitude": "53.368213", "street": {"id": 1717716, "name": "On or near City Road"}, "longitude": "-1.440310"}, "context": "", "outcome_status": null, "persistent_id": "", "id": 117631514, "location_subtype": "", "month": "2024-03"}, {"category": "anti-social-behaviour", "location_type": "Force", "location": {"latitude": "53.429626", "street": {"id": 1717732, "name": "On or near Keppel Place"}, "longitude": "-1.437156"}, "context": "", "outcome_status": null, "persistent_id": "", "id": 117631515, "location_subtype": "", "month": "2024-03"}, {"category": "anti-social-behaviour", "location_type": "Force", "location": {"latitude": "53.375226", "street": {"id": 1718129, "name": "On or near Supermarket"}, "longitude": "-1.429441"}, "context": "", "outcome_status": null, "persistent_id": "", "id": 117631027, "location_subtype": "", "month": "2024-03"}, {"category": "anti-social-behaviour", "location_type": "Force", "location": {"latitude": "53.368514", "street": {"id": 1718132, "name": "On or near Queen Mary Rise"}, "longitude": "-1.428027"}, "context": "", "outcome_status": null, "persistent_id": "", "id": 117631028, "location_subtype": "", "month": "2024-03"}, {"category": "anti-social-behaviour", "location_type": "Force", "location": {"latitude": "53.348996", "street": {"id": 1718581, "name": "On or near Sports/recreation Area"}, "longitude": "-1.419499"}, "context": "", "outcome_status": null, "persistent_id": "", "id": 117631029, "location_subtype": "", "month": "2024-03"}, {"category": "anti-social-behaviour", "location_type": "Force", "location": {"latitude": "53.389657", "street": {"id": 1718779, "name": "On or near Malvern Road"}, "longitude": "-1.415369"}, "context": "", "outcome_status": null, "persistent_id": "", "id": 117631030, "location_subtype": "", "month": "2024-03"}, {"category": "anti-social-behaviour", "location_type": "Force", "location": {"latitude": "53.452262", "street": {"id": 1718776, "name": "On or near Scholes Lane"}, "longitude": "-1.413275"}, "context": "", "outcome_status": null, "persistent_id": "", "id": 117631031, "location_subtype": "", "month": "2024-03"}, {"category": "anti-social-behaviour", "location_type": "Force", "location": {"latitude": "53.416522", "street": {"id": 1718912, "name": "On or near Meadowhall Interchange"}, "longitude": "-1.413015"}, "context": "", "outcome_status": null, "persistent_id": "", "id": 117631032, "location_subtype": "", "month": "2024-03"}, {"category": "anti-social-behaviour", "location_type": "Force", "location": {"latitude": "53.453849", "street": {"id": 1719723, "name": "On or near Lapwater Road"}, "longitude": "-1.389114"}, "context": "", "outcome_status": null, "persistent_id": "", "id": 117631033, "location_subtype": "", "month": "2024-03"}, {"category": "anti-social-behaviour", "location_type": "Force", "location": {"latitude": "53.429578", "street": {"id": 1720191, "name": "On or near Hartington Road"}, "longitude": "-1.380176"}, "context": "", "outcome_status": null, "persistent_id": "", "id": 117631034, "location_subtype": "", "month": "2024-03"}, {"category": "anti-social-behaviour", "location_type": "Force", "location": {"latitude": "53.346548", "street": {"id": 1720208, "name": "On or near Cotleigh Road"}, "longitude": "-1.379938"}, "context": "", "outcome_status": null, "persistent_id": "", "id": 117631035, "location_subtype": "", "month": "2024-03"}, {"category": "anti-social-behaviour", "location_type": "Force", "location": {"latitude": "53.433833", "street": {"id": 1721396, "name": "On or near Supermarket"}, "longitude": "-1.353592"}, "context": "", "outcome_status": null, "persistent_id": "", "id": 117631036, "location_subtype": "", "month": "2024-03"}, {"category": "anti-social-behaviour", "location_type": "Force", "location": {"latitude": "53.425429", "street": {"id": 1721651, "name": "On or near Ramsden Road"}, "longitude": "-1.348723"}, "context": "", "outcome_status": null, "persistent_id": "", "id": 117631037, "location_subtype": "", "month": "2024-03"}, {"category": "anti-social-behaviour", "location_type": "Force", "location": {"latitude": "53.343028", "street": {"id": 1721726, "name": "On or near Drake House Lane West"}, "longitude": "-1.346960"}, "context": "", "outcome_status": null, "persistent_id": "", "id": 117631038, "location_subtype": "", "month": "2024-03"}, {"category": "anti-social-behaviour", "location_type": "Force", "location": {"latitude": "53.466727", "street": {"id": 1722039, "name": "On or near Petrol Station"}, "longitude": "-1.339641"}, "context": "", "outcome_status": null, "persistent_id": "", "id": 117631039, "location_subtype": "", "month": "2024-03"}, {"category": "anti-social-behaviour", "location_type": "Force", "location": {"latitude": "53.434934", "street": {"id": 1722450, "name": "On or near Far Place"}, "longitude": "-1.328438"}, "context": "", "outcome_status": null, "persistent_id": "", "id": 117631041, "location_subtype": "", "month": "2024-03"}, {"category": "anti-social-behaviour", "location_type": "Force", "location": {"latitude": "53.420249", "street": {"id": 1723337, "name": "On or near Shopping Area"}, "longitude": "-1.306159"}, "context": "", "outcome_status": null, "persistent_id": "", "id": 117628147, "location_subtype": "", "month": "2024-03"}, {"category": "anti-social-behaviour", "location_type": "Force", "location": {"latitude": "53.356307", "street": {"id": 1718215, "name": "On or near Ridgeway Drive"}, "longitude": "-1.428025"}, "context": "", "outcome_status": null, "persistent_id": "", "id": 117628130, "location_subtype": "", "month": "2024-03"}, {"category": "anti-social-behaviour", "location_type": "Force", "location": {"latitude": "53.356307", "street": {"id": 1718215, "name": "On or near Ridgeway Drive"}, "longitude": "-1.428025"}, "context": "", "outcome_status": null, "persistent_id": "", "id": 117628129, "location_subtype": "", "month": "2024-03"}, {"category": "anti-social-behaviour", "location_type": "Force", "location": {"latitude": "53.350268", "street": {"id": 1717785, "name": "On or near Spring Close View"}, "longitude": "-1.437811"}, "context": "", "outcome_status": null, "persistent_id": "", "id": 117628128, "location_subtype": "", "month": "2024-03"}, {"category": "anti-social-behaviour", "location_type": "Force", "location": {"latitude": "53.368213", "street": {"id": 1717716, "name": "On or near City Road"}, "longitude": "-1.440310"}, "context": "", "outcome_status": null, "persistent_id": "", "id": 117628127, "location_subtype": "", "month": "2024-03"}, {"category": "anti-social-behaviour", "location_type": "Force", "location": {"latitude": "53.359384", "street": {"id": 1717472, "name": "On or near Berners Drive"}, "longitude": "-1.443716"}, "context": "", "outcome_status": null, "persistent_id": "", "id": 117628126, "location_subtype": "", "month": "2024-03"}, {"category": "anti-social-behaviour", "location_type": "Force", "location": {"latitude": "53.391608", "street": {"id": 1716716, "name": "On or near Hallcar Street"}, "longitude": "-1.457416"}, "context": "", "outcome_status": null, "persistent_id": "", "id": 117628125, "location_subtype": "", "month": "2024-03"}, {"category": "anti-social-behaviour", "location_type": "Force", "location": {"latitude": "53.429220", "street": {"id": 1716373, "name": "On or near Colley Drive"}, "longitude": "-1.462039"}, "context": "", "outcome_status": null, "persistent_id": "", "id": 117628124, "location_subtype": "", "month": "2024-03"}, {"category": "anti-social-behaviour", "location_type": "Force", "location": {"latitude": "53.320651", "street": {"id": 1716130, "name": "On or near White Thorns View"}, "longitude": "-1.465327"}, "context": "", "outcome_status": null, "persistent_id": "", "id": 117628122, "location_subtype": "", "month": "2024-03"}, {"category": "anti-social-behaviour", "location_type": "Force", "location": {"latitude": "53.358402", "street": {"id": 1716153, "name": "On or near Gerard Street"}, "longitude": "-1.464975"}, "context": "", "outcome_status": null, "persistent_id": "", "id": 117628121, "location_subtype": "", "month": "2024-03"}, {"category": "anti-social-behaviour", "location_type": "Force", "location": {"latitude": "53.382912", "street": {"id": 1716031, "name": "On or near High Street"}, "longitude": "-1.466381"}, "context": "", "outcome_status": null, "persistent_id": "", "id": 117628120, "location_subtype": "", "month": "2024-03"}, {"category": "anti-social-behaviour", "location_type": "Force", "location": {"latitude": "53.430097", "street": {"id": 1715901, "name": "On or near Colley Road"}, "longitude": "-1.467176"}, "context": "", "outcome_status": null, "persistent_id": "", "id": 117628119, "location_subtype": "", "month": "2024-03"}, {"category": "anti-social-behaviour", "location_type": "Force", "location": {"latitude": "53.380604", "street": {"id": 1715626, "name": "On or near Barker's Pool"}, "longitude": "-1.471025"}, "context": "", "outcome_status": null, "persistent_id": "", "id": 117628118, "location_subtype": "", "month": "2024-03"}, {"category": "anti-social-behaviour", "location_type": "Force", "location": {"latitude": "53.402860", "street": {"id": 1715223, "name": "On or near Sports/recreation Area"}, "longitude": "-1.474001"}, "context": "", "outcome_status": null, "persistent_id": "", "id": 117628117, "location_subtype": "", "month": "2024-03"}, {"category": "anti-social-behaviour", "location_type": "Force", "location": {"latitude": "53.337394", "street": {"id": 1722370, "name": "On or near Farmoor Gardens"}, "longitude": "-1.329415"}, "context": "", "outcome_status": null, "persistent_id": "", "id": 117631042, "location_subtype": "", "month": "2024-03"}, {"category": "anti-social-behaviour", "location_type": "Force", "location": {"latitude": "53.365434", "street": {"id": 1722617, "name": "On or near Nursery Road"}, "longitude": "-1.323730"}, "context": "", "outcome_status": null, "persistent_id": "", "id": 117631043, "location_subtype": "", "month": "2024-03"}, {"category": "anti-social-behaviour", "location_type": "Force", "location": {"latitude": "53.441615", "street": {"id": 1722693, "name": "On or near Lady Oak Way"}, "longitude": "-1.320760"}, "context": "", "outcome_status": null, "persistent_id": "", "id": 117631044, "location_subtype": "", "month": "2024-03"}, {"category": "anti-social-behaviour", "location_type": "Force", "location": {"latitude": "53.337394", "street": {"id": 1722370, "name": "On or near Farmoor Gardens"}, "longitude": "-1.329415"}, "context": "", "outcome_status": null, "persistent_id": "", "id": 117631045, "location_subtype": "", "month": "2024-03"}, {"category": "anti-social-behaviour", "location_type": "Force", "location": {"latitude": "53.339645", "street": {"id": 1722407, "name": "On or near Meadow Gate Avenue"}, "longitude": "-1.330086"}, "context": "", "outcome_status": null, "persistent_id": "", "id": 117631046, "location_subtype": "", "month": "2024-03"}, {"category": "anti-social-behaviour", "location_type": "Force", "location": {"latitude": "53.433892", "street": {"id": 1717718, "name": "On or near Woolley Wood Road"}, "longitude": "-1.438259"}, "context": "", "outcome_status": null, "persistent_id": "", "id": 117621038, "location_subtype": "", "month": "2024-03"}, {"category": "anti-social-behaviour", "location_type": "Force", "location": {"latitude": "53.432121", "street": {"id": 1717848, "name": "On or near Keppel Road"}, "longitude": "-1.436295"}, "context": "", "outcome_status": null, "persistent_id": "", "id": 117621037, "location_subtype": "", "month": "2024-03"}, {"category": "anti-social-behaviour", "location_type": "Force", "location": {"latitude": "53.364578", "street": {"id": 1717643, "name": "On or near Spring Lane"}, "longitude": "-1.441665"}, "context": "", "outcome_status": null, "persistent_id": "", "id": 117621035, "location_subtype": "", "month": "2024-03"}, {"category": "anti-social-behaviour", "location_type": "Force", "location": {"latitude": "53.422097", "street": {"id": 1717556, "name": "On or near Sports/recreation Area"}, "longitude": "-1.441369"}, "context": "", "outcome_status": null, "persistent_id": "", "id": 117621034, "location_subtype": "", "month": "2024-03"}, {"category": "anti-social-behaviour", "location_type": "Force", "location": {"latitude": "53.411500", "street": {"id": 1717638, "name": "On or near Wensley Gardens"}, "longitude": "-1.441863"}, "context": "", "outcome_status": null, "persistent_id": "", "id": 117621033, "location_subtype": "", "month": "2024-03"}, {"category": "anti-social-behaviour", "location_type": "Force", "location": {"latitude": "53.418150", "street": {"id": 1717639, "name": "On or near Heather Road"}, "longitude": "-1.441400"}, "context": "", "outcome_status": null, "persistent_id": "", "id": 117621032, "location_subtype": "", "month": "2024-03"}, {"category": "anti-social-behaviour", "location_type": "Force", "location": {"latitude": "53.361793", "street": {"id": 1717573, "name": "On or near Algar Drive"}, "longitude": "-1.441942"}, "context": "", "outcome_status": null, "persistent_id": "", "id": 117621031, "location_subtype": "", "month": "2024-03"}, {"category": "anti-social-behaviour", "location_type": "Force", "location": {"latitude": "53.384087", "street": {"id": 1717242, "name": "On or near Aston Street"}, "longitude": "-1.446251"}, "context": "", "outcome_status": null, "persistent_id": "", "id": 117621030, "location_subtype": "", "month": "2024-03"}, {"category": "anti-social-behaviour", "location_type": "Force", "location": {"latitude": "53.417683", "street": {"id": 1717175, "name": "On or near West Quadrant"}, "longitude": "-1.449351"}, "context": "", "outcome_status": null, "persistent_id": "", "id": 117621029, "location_subtype": "", "month": "2024-03"}, {"category": "anti-social-behaviour", "location_type": "Force", "location": {"latitude": "53.369438", "street": {"id": 1716954, "name": "On or near Sports/recreation Area"}, "longitude": "-1.450363"}, "context": "", "outcome_status": null, "persistent_id": "", "id": 117621028, "location_subtype": "", "month": "2024-03"}, {"category": "anti-social-behaviour", "location_type": "Force", "location": {"latitude": "53.387499", "street": {"id": 1716848, "name": "On or near Sussex Street"}, "longitude": "-1.455078"}, "context": "", "outcome_status": null, "persistent_id": "", "id": 117621027, "location_subtype": "", "month": "2024-03"}, {"category": "anti-social-behaviour", "location_type": "Force", "location": {"latitude": "53.398824", "street": {"id": 1716955, "name": "On or near Sedan Street"}, "longitude": "-1.453068"}, "context": "", "outcome_status": null, "persistent_id": "", "id": 117621025, "location_subtype": "", "month": "2024-03"}, {"category": "anti-social-behaviour", "location_type": "Force", "location": {"latitude": "53.381415", "street": {"id": 1716827, "name": "On or near Bernard Street"}, "longitude": "-1.455396"}, "context": "", "outcome_status": null, "persistent_id": "", "id": 117621024, "location_subtype": "", "month": "2024-03"}, {"category": "anti-social-behaviour", "location_type": "Force", "location": {"latitude": "53.474220", "street": {"id": 1713352, "name": "On or near Ashwood Road"}, "longitude": "-1.500236"}, "context": "", "outcome_status": null, "persistent_id": "", "id": 117621005, "location_subtype": "", "month": "2024-03"}, {"category": "anti-social-behaviour", "location_type": "Force", "location": {"latitude": "53.415794", "street": {"id": 1713202, "name": "On or near Niagara Road"}, "longitude": "-1.502200"}, "context": "", "outcome_status": null, "persistent_id": "", "id": 117621004, "location_subtype": "", "month": "2024-03"}, {"category": "anti-social-behaviour", "location_type": "Force", "location": {"latitude": "53.384381", "street": {"id": 1712893, "name": "On or near Pickmere Road"}, "longitude": "-1.507121"}, "context": "", "outcome_status": null, "persistent_id": "", "id": 117621003, "location_subtype": "", "month": "2024-03"}, {"category": "anti-social-behaviour", "location_type": "Force", "location": {"latitude": "53.318799", "street": {"id": 1712156, "name": "On or near Milldale Road"}, "longitude": "-1.524855"}, "context": "", "outcome_status": null, "persistent_id": "", "id": 117621002, "location_subtype": "", "month": "2024-03"}, {"category": "anti-social-behaviour", "location_type": "Force", "location": {"latitude": "53.470507", "street": {"id": 1711320, "name": "On or near Smithy Fold Lane"}, "longitude": "-1.530997"}, "context": "", "outcome_status": null, "persistent_id": "", "id": 117621000, "location_subtype": "", "month": "2024-03"}, {"category": "anti-social-behaviour", "location_type": "Force", "location": {"latitude": "53.318436", "street": {"id": 1711900, "name": "On or near Oakbank Court"}, "longitude": "-1.530818"}, "context": "", "outcome_status": null, "persistent_id": "", "id": 117620999, "location_subtype": "", "month": "2024-03"}, {"category": "anti-social-behaviour", "location_type": "Force", "location": {"latitude": "53.430867", "street": {"id": 1720039, "name": "On or near Clara Place"}, "longitude": "-1.384356"}, "context": "", "outcome_status": null, "persistent_id": "", "id": 117631980, "location_subtype": "", "month": "2024-03"}, {"category": "anti-social-behaviour", "location_type": "Force", "location": {"latitude": "53.455949", "street": {"id": 1720143, "name": "On or near Goodwin Road"}, "longitude": "-1.381584"}, "context": "", "outcome_status": null, "persistent_id": "", "id": 117631981, "location_subtype": "", "month": "2024-03"}, {"category": "anti-social-behaviour", "location_type": "Force", "location": {"latitude": "53.443134", "street": {"id": 1720082, "name": "On or near Fenton Road"}, "longitude": "-1.382161"}, "context": "", "outcome_status": null, "persistent_id": "", "id": 117631982, "location_subtype": "", "month": "2024-03"}, {"category": "anti-social-behaviour", "location_type": "Force", "location": {"latitude": "53.355721", "street": {"id": 1720698, "name": "On or near Skelton Drive"}, "longitude": "-1.370400"}, "context": "", "outcome_status": null, "persistent_id": "", "id": 117631984, "location_subtype": "", "month": "2024-03"}, {"category": "anti-social-behaviour", "location_type": "Force", "location": {"latitude": "53.431690", "street": {"id": 1721341, "name": "On or near College Lane"}, "longitude": "-1.354633"}, "context": "", "outcome_status": null, "persistent_id": "", "id": 117631985, "location_subtype": "", "month": "2024-03"}, {"category": "anti-social-behaviour", "location_type": "Force", "location": {"latitude": "53.438135", "street": {"id": 1721694, "name": "On or near Jennings Close"}, "longitude": "-1.347957"}, "context": "", "outcome_status": null, "persistent_id": "", "id": 117631987, "location_subtype": "", "month": "2024-03"}, {"category": "anti-social-behaviour", "location_type": "Force", "location": {"latitude": "53.338244", "street": {"id": 1721649, "name": "On or near Nathan Grove"}, "longitude": "-1.348175"}, "context": "", "outcome_status": null, "persistent_id": "", "id": 117631988, "location_subtype": "", "month": "2024-03"}, {"category": "anti-social-behaviour", "location_type": "Force", "location": {"latitude": "53.452533", "street": {"id": 1721778, "name": "On or near Greasbrough Road"}, "longitude": "-1.346005"}, "context": "", "outcome_status": null, "persistent_id": "", "id": 117631989, "location_subtype": "", "month": "2024-03"}, {"category": "anti-social-behaviour", "location_type": "Force", "location": {"latitude": "53.342054", "street": {"id": 1722178, "name": "On or near Ashdown Gardens"}, "longitude": "-1.336476"}, "context": "", "outcome_status": null, "persistent_id": "", "id": 117631990, "location_subtype": "", "month": "2024-03"}, {"category": "anti-social-behaviour", "location_type": "Force", "location": {"latitude": "53.364064", "street": {"id": 1722217, "name": "On or near Sheffield Road"}, "longitude": "-1.334316"}, "context": "", "outcome_status": null, "persistent_id": "", "id": 117631991, "location_subtype": "", "month": "2024-03"}, {"category": "anti-social-behaviour", "location_type": "Force", "location": {"latitude": "53.338556", "street": {"id": 1722245, "name": "On or near Wychwood Glen"}, "longitude": "-1.334758"}, "context": "", "outcome_status": null, "persistent_id": "", "id": 117631992, "location_subtype": "", "month": "2024-03"}, {"category": "anti-social-behaviour", "location_type": "Force", "location": {"latitude": "53.335681", "street": {"id": 1722329, "name": "On or near Bedgebury Close"}, "longitude": "-1.331634"}, "context": "", "outcome_status": null, "persistent_id": "", "id": 117631993, "location_subtype": "", "month": "2024-03"}, {"category": "anti-social-behaviour", "location_type": "Force", "location": {"latitude": "53.403713", "street": {"id": 1722456, "name": "On or near The Green"}, "longitude": "-1.326192"}, "context": "", "outcome_status": null, "persistent_id": "", "id": 117619990, "location_subtype": "", "month": "2024-03"}, {"category": "anti-social-behaviour", "location_type": "Force", "location": {"latitude": "53.440177", "street": {"id": 1722410, "name": "On or near Oak Meadows"}, "longitude": "-1.327196"}, "context": "", "outcome_status": null, "persistent_id": "", "id": 117619989, "location_subtype": "", "month": "2024-03"}, {"category": "anti-social-behaviour", "location_type": "Force", "location": {"latitude": "53.436130", "street": {"id": 1722207, "name": "On or near Bishopstoke Court"}, "longitude": "-1.336472"}, "context": "", "outcome_status": null, "persistent_id": "", "id": 117619988, "location_subtype": "", "month": "2024-03"}, {"category": "anti-social-behaviour", "location_type": "Force", "location": {"latitude": "53.327301", "street": {"id": 1721896, "name": "On or near James Walton Court"}, "longitude": "-1.342696"}, "context": "", "outcome_status": null, "persistent_id": "", "id": 117619987, "location_subtype": "", "month": "2024-03"}, {"category": "anti-social-behaviour", "location_type": "Force", "location": {"latitude": "53.392549", "street": {"id": 1719042, "name": "On or near Greenland Court"}, "longitude": "-1.411149"}, "context": "", "outcome_status": null, "persistent_id": "", "id": 117619973, "location_subtype": "", "month": "2024-03"}, {"category": "anti-social-behaviour", "location_type": "Force", "location": {"latitude": "53.370389", "street": {"id": 1718981, "name": "On or near Castlebeck Avenue"}, "longitude": "-1.412492"}, "context": "", "outcome_status": null, "persistent_id": "", "id": 117619972, "location_subtype": "", "month": "2024-03"}, {"category": "anti-social-behaviour", "location_type": "Force", "location": {"latitude": "53.422755", "street": {"id": 1718564, "name": "On or near Elmview Road"}, "longitude": "-1.419309"}, "context": "", "outcome_status": null, "persistent_id": "", "id": 117619970, "location_subtype": "", "month": "2024-03"}, {"category": "anti-social-behaviour", "location_type": "Force", "location": {"latitude": "53.406792", "street": {"id": 1717710, "name": "On or near Upwell Lane"}, "longitude": "-1.438465"}, "context": "", "outcome_status": null, "persistent_id": "", "id": 117619968, "location_subtype": "", "month": "2024-03"}, {"category": "anti-social-behaviour", "location_type": "Force", "location": {"latitude": "53.418908", "street": {"id": 1717214, "name": "On or near Shopping Area"}, "longitude": "-1.448670"}, "context": "", "outcome_status": null, "persistent_id": "", "id": 117619967, "location_subtype": "", "month": "2024-03"}, {"category": "anti-social-behaviour", "location_type": "Force", "location": {"latitude": "53.374105", "street": {"id": 1716951, "name": "On or near Tylney Road"}, "longitude": "-1.449086"}, "context": "", "outcome_status": null, "persistent_id": "", "id": 117619966, "location_subtype": "", "month": "2024-03"}, {"category": "anti-social-behaviour", "location_type": "Force", "location": {"latitude": "53.383629", "street": {"id": 1716093, "name": "On or near Angel Street"}, "longitude": "-1.465952"}, "context": "", "outcome_status": null, "persistent_id": "", "id": 117619964, "location_subtype": "", "month": "2024-03"}, {"category": "anti-social-behaviour", "location_type": "Force", "location": {"latitude": "53.422099", "street": {"id": 1715343, "name": "On or near Adrian Crescent"}, "longitude": "-1.471654"}, "context": "", "outcome_status": null, "persistent_id": "", "id": 117619963, "location_subtype": "", "month": "2024-03"}, {"category": "anti-social-behaviour", "location_type": "Force", "location": {"latitude": "53.387028", "street": {"id": 1715142, "name": "On or near Shepherd Street"}, "longitude": "-1.476434"}, "context": "", "outcome_status": null, "persistent_id": "", "id": 117619961, "location_subtype": "", "month": "2024-03"}, {"category": "anti-social-behaviour", "location_type": "Force", "location": {"latitude": "53.449722", "street": {"id": 1714826, "name": "On or near Elliot Lane"}, "longitude": "-1.478058"}, "context": "", "outcome_status": null, "persistent_id": "", "id": 117619960, "location_subtype": "", "month": "2024-03"}, {"category": "anti-social-behaviour", "location_type": "Force", "location": {"latitude": "53.420608", "street": {"id": 1714603, "name": "On or near Kyle Close"}, "longitude": "-1.482341"}, "context": "", "outcome_status": null, "persistent_id": "", "id": 117619959, "location_subtype": "", "month": "2024-03"}, {"category": "anti-social-behaviour", "location_type": "Force", "location": {"latitude": "53.346177", "street": {"id": 1713594, "name": "On or near Marriott Lane"}, "longitude": "-1.495816"}, "context": "", "outcome_status": null, "persistent_id": "", "id": 117619958, "location_subtype": "", "month": "2024-03"}, {"category": "anti-social-behaviour", "location_type": "Force", "location": {"latitude": "53.386870", "street": {"id": 1719002, "name": "On or near Parking Area"}, "longitude": "-1.411709"}, "context": "", "outcome_status": null, "persistent_id": "", "id": 117620529, "location_subtype": "", "month": "2024-03"}, {"category": "anti-social-behaviour", "location_type": "Force", "location": {"latitude": "53.341524", "street": {"id": 1718517, "name": "On or near Charnock Grove"}, "longitude": "-1.421239"}, "context": "", "outcome_status": null, "persistent_id": "", "id": 117620528, "location_subtype": "", "month": "2024-03"}, {"category": "anti-social-behaviour", "location_type": "Force", "location": {"latitude": "53.421253", "street": {"id": 1718527, "name": "On or near Jardine Street"}, "longitude": "-1.421105"}, "context": "", "outcome_status": null, "persistent_id": "", "id": 117620527, "location_subtype": "", "month": "2024-03"}, {"category": "anti-social-behaviour", "location_type": "Force", "location": {"latitude": "53.368392", "street": {"id": 1717369, "name": "On or near St Aidan's Avenue"}, "longitude": "-1.445973"}, "context": "", "outcome_status": null, "persistent_id": "", "id": 117620522, "location_subtype": "", "month": "2024-03"}, {"category": "anti-social-behaviour", "location_type": "Force", "location": {"latitude": "53.381415", "street": {"id": 1716827, "name": "On or near Bernard Street"}, "longitude": "-1.455396"}, "context": "", "outcome_status": null, "persistent_id": "", "id": 117620520, "location_subtype": "", "month": "2024-03"}, {"category": "anti-social-behaviour", "location_type": "Force", "location": {"latitude": "53.380312", "street": {"id": 1716813, "name": "On or near School Lane"}, "longitude": "-1.455936"}, "context": "", "outcome_status": null, "persistent_id": "", "id": 117620519, "location_subtype": "", "month": "2024-03"}, {"category": "anti-social-behaviour", "location_type": "Force", "location": {"latitude": "53.413627", "street": {"id": 1716586, "name": "On or near Longley Hall Way"}, "longitude": "-1.458580"}, "context": "", "outcome_status": null, "persistent_id": "", "id": 117620518, "location_subtype": "", "month": "2024-03"}, {"category": "anti-social-behaviour", "location_type": "Force", "location": {"latitude": "53.355656", "street": {"id": 1716392, "name": "On or near Meersbrook Road"}, "longitude": "-1.461899"}, "context": "", "outcome_status": null, "persistent_id": "", "id": 117620517, "location_subtype": "", "month": "2024-03"}, {"category": "anti-social-behaviour", "location_type": "Force", "location": {"latitude": "53.401117", "street": {"id": 1716273, "name": "On or near Firshill Close"}, "longitude": "-1.463040"}, "context": "", "outcome_status": null, "persistent_id": "", "id": 117620516, "location_subtype": "", "month": "2024-03"}, {"category": "anti-social-behaviour", "location_type": "Force", "location": {"latitude": "53.382295", "street": {"id": 1716136, "name": "On or near Esperanto Place"}, "longitude": "-1.465186"}, "context": "", "outcome_status": null, "persistent_id": "", "id": 117620515, "location_subtype": "", "month": "2024-03"}, {"category": "anti-social-behaviour", "location_type": "Force", "location": {"latitude": "53.379702", "street": {"id": 1716052, "name": "On or near Arundel Gate"}, "longitude": "-1.466241"}, "context": "", "outcome_status": null, "persistent_id": "", "id": 117620514, "location_subtype": "", "month": "2024-03"}, {"category": "anti-social-behaviour", "location_type": "Force", "location": {"latitude": "53.475534", "street": {"id": 1711175, "name": "On or near Rookery Bank"}, "longitude": "-1.567387"}, "context": "", "outcome_status": null, "persistent_id": "", "id": 117620496, "location_subtype": "", "month": "2024-03"}, {"category": "anti-social-behaviour", "location_type": "Force", "location": {"latitude": "53.345546", "street": {"id": 1719654, "name": "On or near Jermyn Way"}, "longitude": "-1.393021"}, "context": "", "outcome_status": null, "persistent_id": "", "id": 117630252, "location_subtype": "", "month": "2024-03"}, {"category": "anti-social-behaviour", "location_type": "Force", "location": {"latitude": "53.479026", "street": {"id": 1714425, "name": "On or near Park/open Space"}, "longitude": "-1.482678"}, "context": "", "outcome_status": null, "persistent_id": "", "id": 117631956, "location_subtype": "", "month": "2024-03"}, {"category": "anti-social-behaviour", "location_type": "Force", "location": {"latitude": "53.338287", "street": {"id": 1714332, "name": "On or near Harbord Road"}, "longitude": "-1.483714"}, "context": "", "outcome_status": null, "persistent_id": "", "id": 117631957, "location_subtype": "", "month": "2024-03"}, {"category": "anti-social-behaviour", "location_type": "Force", "location": {"latitude": "53.364714", "street": {"id": 1712871, "name": "On or near Supermarket"}, "longitude": "-1.507240"}, "context": "", "outcome_status": null, "persistent_id": "", "id": 117622768, "location_subtype": "", "month": "2024-03"}, {"category": "anti-social-behaviour", "location_type": "Force", "location": {"latitude": "53.353903", "street": {"id": 1713217, "name": "On or near Knab Close"}, "longitude": "-1.501328"}, "context": "", "outcome_status": null, "persistent_id": "", "id": 117622769, "location_subtype": "", "month": "2024-03"}, {"category": "anti-social-behaviour", "location_type": "Force", "location": {"latitude": "53.399239", "street": {"id": 1713774, "name": "On or near Langsett Road"}, "longitude": "-1.494211"}, "context": "", "outcome_status": null, "persistent_id": "", "id": 117622770, "location_subtype": "", "month": "2024-03"}, {"category": "anti-social-behaviour", "location_type": "Force", "location": {"latitude": "53.421217", "street": {"id": 1714035, "name": "On or near Meynell Crescent"}, "longitude": "-1.490038"}, "context": "", "outcome_status": null, "persistent_id": "", "id": 117622771, "location_subtype": "", "month": "2024-03"}, {"category": "anti-social-behaviour", "location_type": "Force", "location": {"latitude": "53.469819", "street": {"id": 1714258, "name": "On or near Entwhistle Road"}, "longitude": "-1.484033"}, "context": "", "outcome_status": null, "persistent_id": "", "id": 117622774, "location_subtype": "", "month": "2024-03"}, {"category": "anti-social-behaviour", "location_type": "Force", "location": {"latitude": "53.335680", "street": {"id": 1714496, "name": "On or near Petrol Station"}, "longitude": "-1.481628"}, "context": "", "outcome_status": null, "persistent_id": "", "id": 117622775, "location_subtype": "", "month": "2024-03"}, {"category": "anti-social-behaviour", "location_type": "Force", "location": {"latitude": "53.322805", "street": {"id": 1714638, "name": "On or near Toppham Way"}, "longitude": "-1.480958"}, "context": "", "outcome_status": null, "persistent_id": "", "id": 117622776, "location_subtype": "", "month": "2024-03"}, {"category": "anti-social-behaviour", "location_type": "Force", "location": {"latitude": "53.378717", "street": {"id": 1715016, "name": "On or near Eldon Street"}, "longitude": "-1.477317"}, "context": "", "outcome_status": null, "persistent_id": "", "id": 117622777, "location_subtype": "", "month": "2024-03"}, {"category": "anti-social-behaviour", "location_type": "Force", "location": {"latitude": "53.375907", "street": {"id": 1715573, "name": "On or near Parking Area"}, "longitude": "-1.472001"}, "context": "", "outcome_status": null, "persistent_id": "", "id": 117622779, "location_subtype": "", "month": "2024-03"}, {"category": "anti-social-behaviour", "location_type": "Force", "location": {"latitude": "53.358755", "street": {"id": 1716083, "name": "On or near Gerard Close"}, "longitude": "-1.465466"}, "context": "", "outcome_status": null, "persistent_id": "", "id": 117622780, "location_subtype": "", "month": "2024-03"}, {"category": "anti-social-behaviour", "location_type": "Force", "location": {"latitude": "53.368182", "street": {"id": 1722956, "name": "On or near Parking Area"}, "longitude": "-1.315451"}, "context": "", "outcome_status": null, "persistent_id": "", "id": 117619490, "location_subtype": "", "month": "2024-03"}, {"category": "anti-social-behaviour", "location_type": "Force", "location": {"latitude": "53.404827", "street": {"id": 1722531, "name": "On or near Turner Lane"}, "longitude": "-1.326144"}, "context": "", "outcome_status": null, "persistent_id": "", "id": 117619488, "location_subtype": "", "month": "2024-03"}, {"category": "anti-social-behaviour", "location_type": "Force", "location": {"latitude": "53.441365", "street": {"id": 1722426, "name": "On or near Sycamore Road"}, "longitude": "-1.325958"}, "context": "", "outcome_status": null, "persistent_id": "", "id": 117619487, "location_subtype": "", "month": "2024-03"}, {"category": "anti-social-behaviour", "location_type": "Force", "location": {"latitude": "53.447657", "street": {"id": 1722236, "name": "On or near Waddington Way"}, "longitude": "-1.335450"}, "context": "", "outcome_status": null, "persistent_id": "", "id": 117619486, "location_subtype": "", "month": "2024-03"}, {"category": "anti-social-behaviour", "location_type": "Force", "location": {"latitude": "53.459372", "street": {"id": 1722027, "name": "On or near Wedgewood Close"}, "longitude": "-1.340900"}, "context": "", "outcome_status": null, "persistent_id": "", "id": 117619485, "location_subtype": "", "month": "2024-03"}, {"category": "anti-social-behaviour", "location_type": "Force", "location": {"latitude": "53.437880", "street": {"id": 1721792, "name": "On or near Milton Road"}, "longitude": "-1.345703"}, "context": "", "outcome_status": null, "persistent_id": "", "id": 117619484, "location_subtype": "", "month": "2024-03"}, {"category": "anti-social-behaviour", "location_type": "Force", "location": {"latitude": "53.473415", "street": {"id": 1720999, "name": "On or near Durnan Grove"}, "longitude": "-1.363040"}, "context": "", "outcome_status": null, "persistent_id": "", "id": 117619481, "location_subtype": "", "month": "2024-03"}, {"category": "anti-social-behaviour", "location_type": "Force", "location": {"latitude": "53.431258", "street": {"id": 1720872, "name": "On or near Vine Close"}, "longitude": "-1.366364"}, "context": "", "outcome_status": null, "persistent_id": "", "id": 117619480, "location_subtype": "", "month": "2024-03"}, {"category": "anti-social-behaviour", "location_type": "Force", "location": {"latitude": "53.375867", "street": {"id": 1719657, "name": "On or near Handsworth Road"}, "longitude": "-1.393522"}, "context": "", "outcome_status": null, "persistent_id": "", "id": 117619478, "location_subtype": "", "month": "2024-03"}, {"category": "anti-social-behaviour", "location_type": "Force", "location": {"latitude": "53.453640", "street": {"id": 1719676, "name": "On or near Town Lane"}, "longitude": "-1.392385"}, "context": "", "outcome_status": null, "persistent_id": "", "id": 117619477, "location_subtype": "", "month": "2024-03"}, {"category": "anti-social-behaviour", "location_type": "Force", "location": {"latitude": "53.423416", "street": {"id": 1718566, "name": "On or near Dara Street"}, "longitude": "-1.418608"}, "context": "", "outcome_status": null, "persistent_id": "", "id": 117619476, "location_subtype": "", "month": "2024-03"}, {"category": "anti-social-behaviour", "location_type": "Force", "location": {"latitude": "53.344149", "street": {"id": 1718259, "name": "On or near Brierfield Road"}, "longitude": "-1.426941"}, "context": "", "outcome_status": null, "persistent_id": "", "id": 117619475, "location_subtype": "", "month": "2024-03"}, {"category": "anti-social-behaviour", "location_type": "Force", "location": {"latitude": "53.394877", "street": {"id": 1718169, "name": "On or near Worksop Road"}, "longitude": "-1.427930"}, "context": "", "outcome_status": null, "persistent_id": "", "id": 117619474, "location_subtype": "", "month": "2024-03"}, {"category": "anti-social-behaviour", "location_type": "Force", "location": {"latitude": "53.360117", "street": {"id": 1718237, "name": "On or near Parking Area"}, "longitude": "-1.427749"}, "context": "", "outcome_status": null, "persistent_id": "", "id": 117619473, "location_subtype": "", "month": "2024-03"}, {"category": "anti-social-behaviour", "location_type": "Force", "location": {"latitude": "53.398246", "street": {"id": 1717498, "name": "On or near Atlas Way"}, "longitude": "-1.442758"}, "context": "", "outcome_status": null, "persistent_id": "", "id": 117619472, "location_subtype": "", "month": "2024-03"}, {"category": "anti-social-behaviour", "location_type": "Force", "location": {"latitude": "53.360336", "street": {"id": 1717646, "name": "On or near Errington Way"}, "longitude": "-1.441705"}, "context": "", "outcome_status": null, "persistent_id": "", "id": 117619471, "location_subtype": "", "month": "2024-03"}, {"category": "anti-social-behaviour", "location_type": "Force", "location": {"latitude": "53.382912", "street": {"id": 1716031, "name": "On or near High Street"}, "longitude": "-1.466381"}, "context": "", "outcome_status": null, "persistent_id": "", "id": 117622781, "location_subtype": "", "month": "2024-03"}, {"category": "anti-social-behaviour", "location_type": "Force", "location": {"latitude": "53.446242", "street": {"id": 1716192, "name": "On or near Whitley View"}, "longitude": "-1.463496"}, "context": "", "outcome_status": null, "persistent_id": "", "id": 117622782, "location_subtype": "", "month": "2024-03"}, {"category": "anti-social-behaviour", "location_type": "Force", "location": {"latitude": "53.401117", "street": {"id": 1716273, "name": "On or near Firshill Close"}, "longitude": "-1.463040"}, "context": "", "outcome_status": null, "persistent_id": "", "id": 117622784, "location_subtype": "", "month": "2024-03"}, {"category": "anti-social-behaviour", "location_type": "Force", "location": {"latitude": "53.374358", "street": {"id": 1716581, "name": "On or near Castle Croft Drive"}, "longitude": "-1.459289"}, "context": "", "outcome_status": null, "persistent_id": "", "id": 117622786, "location_subtype": "", "month": "2024-03"}, {"category": "anti-social-behaviour", "location_type": "Force", "location": {"latitude": "53.390082", "street": {"id": 1716756, "name": "On or near Petrol Station"}, "longitude": "-1.455811"}, "context": "", "outcome_status": null, "persistent_id": "", "id": 117622787, "location_subtype": "", "month": "2024-03"}, {"category": "anti-social-behaviour", "location_type": "Force", "location": {"latitude": "53.398763", "street": {"id": 1716797, "name": "On or near Malton Street"}, "longitude": "-1.455325"}, "context": "", "outcome_status": null, "persistent_id": "", "id": 117622788, "location_subtype": "", "month": "2024-03"}, {"category": "anti-social-behaviour", "location_type": "Force", "location": {"latitude": "53.406812", "street": {"id": 1717027, "name": "On or near Skinnerthorpe Road"}, "longitude": "-1.452424"}, "context": "", "outcome_status": null, "persistent_id": "", "id": 117622789, "location_subtype": "", "month": "2024-03"}, {"category": "anti-social-behaviour", "location_type": "Force", "location": {"latitude": "53.418425", "street": {"id": 1717026, "name": "On or near Tideswell Road"}, "longitude": "-1.452410"}, "context": "", "outcome_status": null, "persistent_id": "", "id": 117622790, "location_subtype": "", "month": "2024-03"}, {"category": "anti-social-behaviour", "location_type": "Force", "location": {"latitude": "53.378498", "street": {"id": 1717093, "name": "On or near Sports/recreation Area"}, "longitude": "-1.448139"}, "context": "", "outcome_status": null, "persistent_id": "", "id": 117622791, "location_subtype": "", "month": "2024-03"}, {"category": "anti-social-behaviour", "location_type": "Force", "location": {"latitude": "53.352626", "street": {"id": 1718090, "name": "On or near Park/open Space"}, "longitude": "-1.430246"}, "context": "", "outcome_status": null, "persistent_id": "", "id": 117622792, "location_subtype": "", "month": "2024-03"}, {"category": "anti-social-behaviour", "location_type": "Force", "location": {"latitude": "53.389544", "street": {"id": 1718540, "name": "On or near Flaxby Road"}, "longitude": "-1.419836"}, "context": "", "outcome_status": null, "persistent_id": "", "id": 117622793, "location_subtype": "", "month": "2024-03"}, {"category": "anti-social-behaviour", "location_type": "Force", "location": {"latitude": "53.421225", "street": {"id": 1718969, "name": "On or near M1"}, "longitude": "-1.409911"}, "context": "", "outcome_status": null, "persistent_id": "", "id": 117622797, "location_subtype": "", "month": "2024-03"}, {"category": "anti-social-behaviour", "location_type": "Force", "location": {"latitude": "53.388930", "street": {"id": 1719109, "name": "On or near York Road"}, "longitude": "-1.410192"},