[{"category": "anti-social-behaviour", "location_type": "Force", "location": {"latitude": "53.375867", "street": {"id": 1719657, "name": "On or near Handsworth Road"}, "longitude": "-1.393522"}, "context": "", "outcome_status": null, "persistent_id": "", "id": 119786676, "location_subtype": "", "month": "2024-06"}, {"category": "anti-social-behaviour", "location_type": "Force", "location": {"latitude": "53.449969", "street": {"id": 1720334, "name": "On or near Woodside Walk"}, "longitude": "-1.375949"}, "context": "", "outcome_status": null, "persistent_id": "", "id": 119786681, "location_subtype": "", "month": "2024-06"}, {"category": "anti-social-behaviour", "location_type": "Force", "location": {"latitude": "53.401911", "street": {"id": 1720528, "name": "On or near Manor Crescent"}, "longitude": "-1.371613"}, "context": "", "outcome_status": null, "persistent_id": "", "id": 119786683, "location_subtype": "", "month": "2024-06"}, {"category": "anti-social-behaviour", "location_type": "Force", "location": {"latitude": "53.414274", "street": {"id": 1719599, "name": "On or near St Lawrence Road"}, "longitude": "-1.394992"}, "context": "", "outcome_status": null, "persistent_id": "", "id": 119790644, "location_subtype": "", "month": "2024-06"}, {"category": "anti-social-behaviour", "location_type": "Force", "location": {"latitude": "53.440636", "street": {"id": 1722599, "name": "On or near Petrol Station"}, "longitude": "-1.322567"}, "context": "", "outcome_status": null, "persistent_id": "", "id": 119787704, "location_subtype": "", "month": "2024-06"}, {"category": "anti-social-behaviour", "location_type": "Force", "location": {"latitude": "53.426713", "street": {"id": 1719420, "name": "On or near Thornton Terrace"}, "longitude": "-1.398111"}, "context": "", "outcome_status": null, "persistent_id": "", "id": 119790642, "location_subtype": "", "month": "2024-06"}, {"category": "anti-social-behaviour", "location_type": "Force", "location": {"latitude": "53.354530", "street": {"id": 1719131, "name": "On or near Wadsworth Road"}, "longitude": "-1.408308"}, "context": "", "outcome_status": null, "persistent_id": "", "id": 119790641, "location_subtype": "", "month": "2024-06"}, {"category": "anti-social-behaviour", "location_type": "Force", "location": {"latitude": "53.417613", "street": {"id": 1718929, "name": "On or near Parking Area"}, "longitude": "-1.413812"}, "context": "", "outcome_status": null, "persistent_id": "", "id": 119790639, "location_subtype": "", "month": "2024-06"}, {"category": "anti-social-behaviour", "location_type": "Force", "location": {"latitude": "53.421652", "street": {"id": 1718677, "name": "On or near Eccles Street"}, "longitude": "-1.418030"}, "context": "", "outcome_status": null, "persistent_id": "", "id": 119790637, "location_subtype": "", "month": "2024-06"}, {"category": "anti-social-behaviour", "location_type": "Force", "location": {"latitude": "53.387744", "street": {"id": 1713835, "name": "On or near Wellfield Close"}, "longitude": "-1.492363"}, "context": "", "outcome_status": null, "persistent_id": "", "id": 119790567, "location_subtype": "", "month": "2024-06"}, {"category": "anti-social-behaviour", "location_type": "Force", "location": {"latitude": "53.391977", "street": {"id": 1713435, "name": "On or near Parking Area"}, "longitude": "-1.498673"}, "context": "", "outcome_status": null, "persistent_id": "", "id": 119790563, "location_subtype": "", "month": "2024-06"}, {"category": "anti-social-behaviour", "location_type": "Force", "location": {"latitude": "53.379601", "street": {"id": 1712363, "name": "On or near Manchester Road"}, "longitude": "-1.518662"}, "context": "", "outcome_status": null, "persistent_id": "", "id": 119790562, "location_subtype": "", "month": "2024-06"}, {"category": "anti-social-behaviour", "location_type": "Force", "location": {"latitude": "53.443226", "street": {"id": 1722686, "name": "On or near Petrol Station"}, "longitude": "-1.321261"}, "context": "", "outcome_status": null, "persistent_id": "", "id": 119790659, "location_subtype": "", "month": "2024-06"}, {"category": "anti-social-behaviour", "location_type": "Force", "location": {"latitude": "53.424979", "street": {"id": 1722299, "name": "On or near Middle Lane South"}, "longitude": "-1.332402"}, "context": "", "outcome_status": null, "persistent_id": "", "id": 119790657, "location_subtype": "", "month": "2024-06"}, {"category": "anti-social-behaviour", "location_type": "Force", "location": {"latitude": "53.435812", "street": {"id": 1722102, "name": "On or near Cranworth Close"}, "longitude": "-1.339157"}, "context": "", "outcome_status": null, "persistent_id": "", "id": 119790655, "location_subtype": "", "month": "2024-06"}, {"category": "anti-social-behaviour", "location_type": "Force", "location": {"latitude": "53.438598", "street": {"id": 1721627, "name": "On or near Hardwicke Road"}, "longitude": "-1.347258"}, "context": "", "outcome_status": null, "persistent_id": "", "id": 119790652, "location_subtype": "", "month": "2024-06"}, {"category": "anti-social-behaviour", "location_type": "Force", "location": {"latitude": "53.407898", "street": {"id": 1719952, "name": "On or near Ackworth Drive"}, "longitude": "-1.385560"}, "context": "", "outcome_status": null, "persistent_id": "", "id": 119790650, "location_subtype": "", "month": "2024-06"}, {"category": "anti-social-behaviour", "location_type": "Force", "location": {"latitude": "53.370937", "street": {"id": 1723024, "name": "On or near Aston Close"}, "longitude": "-1.314565"}, "context": "", "outcome_status": null, "persistent_id": "", "id": 119789656, "location_subtype": "", "month": "2024-06"}, {"category": "anti-social-behaviour", "location_type": "Force", "location": {"latitude": "53.410166", "street": {"id": 1722785, "name": "On or near Park Avenue"}, "longitude": "-1.318087"}, "context": "", "outcome_status": null, "persistent_id": "", "id": 119789654, "location_subtype": "", "month": "2024-06"}, {"category": "anti-social-behaviour", "location_type": "Force", "location": {"latitude": "53.404720", "street": {"id": 1722572, "name": "On or near School Hill"}, "longitude": "-1.324597"}, "context": "", "outcome_status": null, "persistent_id": "", "id": 119789652, "location_subtype": "", "month": "2024-06"}, {"category": "anti-social-behaviour", "location_type": "Force", "location": {"latitude": "53.409783", "street": {"id": 1722062, "name": "On or near Norfolk Way"}, "longitude": "-1.339545"}, "context": "", "outcome_status": null, "persistent_id": "", "id": 119789650, "location_subtype": "", "month": "2024-06"}, {"category": "anti-social-behaviour", "location_type": "Force", "location": {"latitude": "53.411105", "street": {"id": 1721927, "name": "On or near Queensway"}, "longitude": "-1.343000"}, "context": "", "outcome_status": null, "persistent_id": "", "id": 119789649, "location_subtype": "", "month": "2024-06"}, {"category": "anti-social-behaviour", "location_type": "Force", "location": {"latitude": "53.436626", "street": {"id": 1721578, "name": "On or near Lindley Street"}, "longitude": "-1.349817"}, "context": "", "outcome_status": null, "persistent_id": "", "id": 119789647, "location_subtype": "", "month": "2024-06"}, {"category": "anti-social-behaviour", "location_type": "Force", "location": {"latitude": "53.433833", "street": {"id": 1721396, "name": "On or near Supermarket"}, "longitude": "-1.353592"}, "context": "", "outcome_status": null, "persistent_id": "", "id": 119789645, "location_subtype": "", "month": "2024-06"}, {"category": "anti-social-behaviour", "location_type": "Force", "location": {"latitude": "53.431910", "street": {"id": 1721188, "name": "On or near Bridgegate"}, "longitude": "-1.357098"}, "context": "", "outcome_status": null, "persistent_id": "", "id": 119789643, "location_subtype": "", "month": "2024-06"}, {"category": "anti-social-behaviour", "location_type": "Force", "location": {"latitude": "53.428035", "street": {"id": 1720890, "name": "On or near Parking Area"}, "longitude": "-1.358632"}, "context": "", "outcome_status": null, "persistent_id": "", "id": 119789641, "location_subtype": "", "month": "2024-06"}, {"category": "anti-social-behaviour", "location_type": "Force", "location": {"latitude": "53.395007", "street": {"id": 1720908, "name": "On or near Nursery Drive"}, "longitude": "-1.364632"}, "context": "", "outcome_status": null, "persistent_id": "", "id": 119789639, "location_subtype": "", "month": "2024-06"}, {"category": "anti-social-behaviour", "location_type": "Force", "location": {"latitude": "53.404791", "street": {"id": 1720844, "name": "On or near Field View"}, "longitude": "-1.367239"}, "context": "", "outcome_status": null, "persistent_id": "", "id": 119789638, "location_subtype": "", "month": "2024-06"}, {"category": "anti-social-behaviour", "location_type": "Force", "location": {"latitude": "53.431263", "street": {"id": 1719939, "name": "On or near Upper Clara Street"}, "longitude": "-1.386232"}, "context": "", "outcome_status": null, "persistent_id": "", "id": 119789636, "location_subtype": "", "month": "2024-06"}, {"category": "anti-social-behaviour", "location_type": "Force", "location": {"latitude": "53.375867", "street": {"id": 1719657, "name": "On or near Handsworth Road"}, "longitude": "-1.393522"}, "context": "", "outcome_status": null, "persistent_id": "", "id": 119789632, "location_subtype": "", "month": "2024-06"}, {"category": "anti-social-behaviour", "location_type": "Force", "location": {"latitude": "53.364827", "street": {"id": 1719203, "name": "On or near Aughton Crescent"}, "longitude": "-1.407429"}, "context": "", "outcome_status": null, "persistent_id": "", "id": 119789630, "location_subtype": "", "month": "2024-06"}, {"category": "anti-social-behaviour", "location_type": "Force", "location": {"latitude": "53.371932", "street": {"id": 1719003, "name": "On or near Saxonlea Court"}, "longitude": "-1.411884"}, "context": "", "outcome_status": null, "persistent_id": "", "id": 119789628, "location_subtype": "", "month": "2024-06"}, {"category": "anti-social-behaviour", "location_type": "Force", "location": {"latitude": "53.347663", "street": {"id": 1718660, "name": "On or near Supermarket"}, "longitude": "-1.417889"}, "context": "", "outcome_status": null, "persistent_id": "", "id": 119789626, "location_subtype": "", "month": "2024-06"}, {"category": "anti-social-behaviour", "location_type": "Force", "location": {"latitude": "53.371053", "street": {"id": 1712165, "name": "On or near Marr Terrace"}, "longitude": "-1.523147"}, "context": "", "outcome_status": null, "persistent_id": "", "id": 119789561, "location_subtype": "", "month": "2024-06"}, {"category": "anti-social-behaviour", "location_type": "Force", "location": {"latitude": "53.387587", "street": {"id": 1713943, "name": "On or near Crookesmoor Drive"}, "longitude": "-1.491312"}, "context": "", "outcome_status": null, "persistent_id": "", "id": 119788552, "location_subtype": "", "month": "2024-06"}, {"category": "anti-social-behaviour", "location_type": "Force", "location": {"latitude": "53.423057", "street": {"id": 1714210, "name": "On or near Wordsworth Crescent"}, "longitude": "-1.485291"}, "context": "", "outcome_status": null, "persistent_id": "", "id": 119788556, "location_subtype": "", "month": "2024-06"}, {"category": "anti-social-behaviour", "location_type": "Force", "location": {"latitude": "53.391048", "street": {"id": 1714693, "name": "On or near Bedford Street"}, "longitude": "-1.481046"}, "context": "", "outcome_status": null, "persistent_id": "", "id": 119788560, "location_subtype": "", "month": "2024-06"}, {"category": "anti-social-behaviour", "location_type": "Force", "location": {"latitude": "53.391235", "street": {"id": 1715106, "name": "On or near Adelaide Lane"}, "longitude": "-1.476638"}, "context": "", "outcome_status": null, "persistent_id": "", "id": 119788562, "location_subtype": "", "month": "2024-06"}, {"category": "anti-social-behaviour", "location_type": "Force", "location": {"latitude": "53.382893", "street": {"id": 1715110, "name": "On or near Boden Lane"}, "longitude": "-1.476379"}, "context": "", "outcome_status": null, "persistent_id": "", "id": 119788569, "location_subtype": "", "month": "2024-06"}, {"category": "anti-social-behaviour", "location_type": "Force", "location": {"latitude": "53.379832", "street": {"id": 1715247, "name": "On or near Rockingham Street"}, "longitude": "-1.475319"}, "context": "", "outcome_status": null, "persistent_id": "", "id": 119788571, "location_subtype": "", "month": "2024-06"}, {"category": "anti-social-behaviour", "location_type": "Force", "location": {"latitude": "53.377008", "street": {"id": 1715673, "name": "On or near Parking Area"}, "longitude": "-1.470860"}, "context": "", "outcome_status": null, "persistent_id": "", "id": 119788575, "location_subtype": "", "month": "2024-06"}, {"category": "anti-social-behaviour", "location_type": "Force", "location": {"latitude": "53.382697", "street": {"id": 1715851, "name": "On or near East Parade"}, "longitude": "-1.468624"}, "context": "", "outcome_status": null, "persistent_id": "", "id": 119788578, "location_subtype": "", "month": "2024-06"}, {"category": "anti-social-behaviour", "location_type": "Force", "location": {"latitude": "53.321567", "street": {"id": 1715958, "name": "On or near Whinacre Close"}, "longitude": "-1.467237"}, "context": "", "outcome_status": null, "persistent_id": "", "id": 119788580, "location_subtype": "", "month": "2024-06"}, {"category": "anti-social-behaviour", "location_type": "Force", "location": {"latitude": "53.322100", "street": {"id": 1716250, "name": "On or near Dyche Road"}, "longitude": "-1.463732"}, "context": "", "outcome_status": null, "persistent_id": "", "id": 119788581, "location_subtype": "", "month": "2024-06"}, {"category": "anti-social-behaviour", "location_type": "Force", "location": {"latitude": "53.379702", "street": {"id": 1716052, "name": "On or near Arundel Gate"}, "longitude": "-1.466241"}, "context": "", "outcome_status": null, "persistent_id": "", "id": 119788583, "location_subtype": "", "month": "2024-06"}, {"category": "anti-social-behaviour", "location_type": "Force", "location": {"latitude": "53.370621", "street": {"id": 1716334, "name": "On or near Petrol Station"}, "longitude": "-1.461416"}, "context": "", "outcome_status": null, "persistent_id": "", "id": 119788585, "location_subtype": "", "month": "2024-06"}, {"category": "anti-social-behaviour", "location_type": "Force", "location": {"latitude": "53.354596", "street": {"id": 1711950, "name": "On or near Barnet Road"}, "longitude": "-1.530286"}, "context": "", "outcome_status": null, "persistent_id": "", "id": 119789559, "location_subtype": "", "month": "2024-06"}, {"category": "anti-social-behaviour", "location_type": "Force", "location": {"latitude": "53.329270", "street": {"id": 1711166, "name": "On or near Whitelow Lane"}, "longitude": "-1.559829"}, "context": "", "outcome_status": null, "persistent_id": "", "id": 119789555, "location_subtype": "", "month": "2024-06"}, {"category": "anti-social-behaviour", "location_type": "Force", "location": {"latitude": "53.305217", "street": {"id": 2215471, "name": "On or near Haddon Close"}, "longitude": "-1.461227"}, "context": "", "outcome_status": null, "persistent_id": "", "id": 119717608, "location_subtype": "", "month": "2024-06"}, {"category": "anti-social-behaviour", "location_type": "Force", "location": {"latitude": "53.304173", "street": {"id": 2213879, "name": "On or near Bubnell Road"}, "longitude": "-1.489677"}, "context": "", "outcome_status": null, "persistent_id": "", "id": 119715420, "location_subtype": "", "month": "2024-06"}, {"category": "anti-social-behaviour", "location_type": "Force", "location": {"latitude": "53.304278", "street": {"id": 2213848, "name": "On or near Cruck Close"}, "longitude": "-1.490982"}, "context": "", "outcome_status": null, "persistent_id": "", "id": 119716247, "location_subtype": "", "month": "2024-06"}, {"category": "anti-social-behaviour", "location_type": "Force", "location": {"latitude": "53.309496", "street": {"id": 2221029, "name": "On or near Market Street"}, "longitude": "-1.356222"}, "context": "", "outcome_status": null, "persistent_id": "", "id": 119715639, "location_subtype": "", "month": "2024-06"}, {"category": "anti-social-behaviour", "location_type": "Force", "location": {"latitude": "53.304173", "street": {"id": 2213879, "name": "On or near Bubnell Road"}, "longitude": "-1.489677"}, "context": "", "outcome_status": null, "persistent_id": "", "id": 119716866, "location_subtype": "", "month": "2024-06"}, {"category": "anti-social-behaviour", "location_type": "Force", "location": {"latitude": "53.304133", "street": {"id": 2213562, "name": "On or near Cromarty Rise"}, "longitude": "-1.494960"}, "context": "", "outcome_status": null, "persistent_id": "", "id": 119717294, "location_subtype": "", "month": "2024-06"}, {"category": "anti-social-behaviour", "location_type": "Force", "location": {"latitude": "53.322214", "street": {"id": 2219033, "name": "On or near Ridgeway Moor"}, "longitude": "-1.398966"}, "context": "", "outcome_status": null, "persistent_id": "", "id": 119719075, "location_subtype": "", "month": "2024-06"}, {"category": "anti-social-behaviour", "location_type": "Force", "location": {"latitude": "53.367414", "street": {"id": 1715726, "name": "On or near Alderson Road North"}, "longitude": "-1.470287"}, "context": "", "outcome_status": null, "persistent_id": "", "id": 119776915, "location_subtype": "", "month": "2024-06"}, {"category": "anti-social-behaviour", "location_type": "Force", "location": {"latitude": "53.381171", "street": {"id": 1715659, "name": "On or near Conference/exhibition Centre"}, "longitude": "-1.471064"}, "context": "", "outcome_status": null, "persistent_id": "", "id": 119776913, "location_subtype": "", "month": "2024-06"}, {"category": "anti-social-behaviour", "location_type": "Force", "location": {"latitude": "53.402860", "street": {"id": 1715223, "name": "On or near Sports/recreation Area"}, "longitude": "-1.474001"}, "context": "", "outcome_status": null, "persistent_id": "", "id": 119776909, "location_subtype": "", "month": "2024-06"}, {"category": "anti-social-behaviour", "location_type": "Force", "location": {"latitude": "53.375992", "street": {"id": 1715234, "name": "On or near Parking Area"}, "longitude": "-1.474825"}, "context": "", "outcome_status": null, "persistent_id": "", "id": 119776905, "location_subtype": "", "month": "2024-06"}, {"category": "anti-social-behaviour", "location_type": "Force", "location": {"latitude": "53.362942", "street": {"id": 1714989, "name": "On or near Chippinghouse Road"}, "longitude": "-1.477375"}, "context": "", "outcome_status": null, "persistent_id": "", "id": 119776903, "location_subtype": "", "month": "2024-06"}, {"category": "anti-social-behaviour", "location_type": "Force", "location": {"latitude": "53.361865", "street": {"id": 1714870, "name": "On or near Brookfield Road"}, "longitude": "-1.479687"}, "context": "", "outcome_status": null, "persistent_id": "", "id": 119776902, "location_subtype": "", "month": "2024-06"}, {"category": "anti-social-behaviour", "location_type": "Force", "location": {"latitude": "53.415343", "street": {"id": 1722615, "name": "On or near Stag Close"}, "longitude": "-1.322698"}, "context": "", "outcome_status": null, "persistent_id": "", "id": 119775919, "location_subtype": "", "month": "2024-06"}, {"category": "anti-social-behaviour", "location_type": "Force", "location": {"latitude": "53.420905", "street": {"id": 1722363, "name": "On or near Durham Place"}, "longitude": "-1.330390"}, "context": "", "outcome_status": null, "persistent_id": "", "id": 119775918, "location_subtype": "", "month": "2024-06"}, {"category": "anti-social-behaviour", "location_type": "Force", "location": {"latitude": "53.433833", "street": {"id": 1721396, "name": "On or near Supermarket"}, "longitude": "-1.353592"}, "context": "", "outcome_status": null, "persistent_id": "", "id": 119775917, "location_subtype": "", "month": "2024-06"}, {"category": "anti-social-behaviour", "location_type": "Force", "location": {"latitude": "53.430500", "street": {"id": 1721243, "name": "On or near High Street"}, "longitude": "-1.355614"}, "context": "", "outcome_status": null, "persistent_id": "", "id": 119775916, "location_subtype": "", "month": "2024-06"}, {"category": "anti-social-behaviour", "location_type": "Force", "location": {"latitude": "53.469720", "street": {"id": 1721363, "name": "On or near Scovell Avenue"}, "longitude": "-1.354478"}, "context": "", "outcome_status": null, "persistent_id": "", "id": 119775915, "location_subtype": "", "month": "2024-06"}, {"category": "anti-social-behaviour", "location_type": "Force", "location": {"latitude": "53.322644", "street": {"id": 1721185, "name": "On or near Ralston Place"}, "longitude": "-1.357270"}, "context": "", "outcome_status": null, "persistent_id": "", "id": 119775914, "location_subtype": "", "month": "2024-06"}, {"category": "anti-social-behaviour", "location_type": "Force", "location": {"latitude": "53.356504", "street": {"id": 1721161, "name": "On or near Trenton Close"}, "longitude": "-1.358924"}, "context": "", "outcome_status": null, "persistent_id": "", "id": 119775913, "location_subtype": "", "month": "2024-06"}, {"category": "anti-social-behaviour", "location_type": "Force", "location": {"latitude": "53.398161", "street": {"id": 1721045, "name": "On or near Chiltern Rise"}, "longitude": "-1.359397"}, "context": "", "outcome_status": null, "persistent_id": "", "id": 119775912, "location_subtype": "", "month": "2024-06"}, {"category": "anti-social-behaviour", "location_type": "Force", "location": {"latitude": "53.358381", "street": {"id": 1720704, "name": "On or near Parking Area"}, "longitude": "-1.368708"}, "context": "", "outcome_status": null, "persistent_id": "", "id": 119775911, "location_subtype": "", "month": "2024-06"}, {"category": "anti-social-behaviour", "location_type": "Force", "location": {"latitude": "53.435336", "street": {"id": 1720642, "name": "On or near Rodger Street"}, "longitude": "-1.369134"}, "context": "", "outcome_status": null, "persistent_id": "", "id": 119775910, "location_subtype": "", "month": "2024-06"}, {"category": "anti-social-behaviour", "location_type": "Force", "location": {"latitude": "53.431357", "street": {"id": 1720117, "name": "On or near Meadow Street"}, "longitude": "-1.381685"}, "context": "", "outcome_status": null, "persistent_id": "", "id": 119775908, "location_subtype": "", "month": "2024-06"}, {"category": "anti-social-behaviour", "location_type": "Force", "location": {"latitude": "53.406812", "street": {"id": 1717027, "name": "On or near Skinnerthorpe Road"}, "longitude": "-1.452424"}, "context": "", "outcome_status": null, "persistent_id": "", "id": 119775894, "location_subtype": "", "month": "2024-06"}, {"category": "anti-social-behaviour", "location_type": "Force", "location": {"latitude": "53.436379", "street": {"id": 1722514, "name": "On or near East Road"}, "longitude": "-1.326383"}, "context": "", "outcome_status": null, "persistent_id": "", "id": 119788635, "location_subtype": "", "month": "2024-06"}, {"category": "anti-social-behaviour", "location_type": "Force", "location": {"latitude": "53.431463", "street": {"id": 1722585, "name": "On or near Sheridan Drive"}, "longitude": "-1.323330"}, "context": "", "outcome_status": null, "persistent_id": "", "id": 119788637, "location_subtype": "", "month": "2024-06"}, {"category": "anti-social-behaviour", "location_type": "Force", "location": {"latitude": "53.382697", "street": {"id": 1715851, "name": "On or near East Parade"}, "longitude": "-1.468624"}, "context": "", "outcome_status": null, "persistent_id": "", "id": 119775890, "location_subtype": "", "month": "2024-06"}, {"category": "anti-social-behaviour", "location_type": "Force", "location": {"latitude": "53.402821", "street": {"id": 1715588, "name": "On or near Batworth Road"}, "longitude": "-1.470269"}, "context": "", "outcome_status": null, "persistent_id": "", "id": 119775888, "location_subtype": "", "month": "2024-06"}, {"category": "anti-social-behaviour", "location_type": "Force", "location": {"latitude": "53.407733", "street": {"id": 1713019, "name": "On or near Keyworth Road"}, "longitude": "-1.504851"}, "context": "", "outcome_status": null, "persistent_id": "", "id": 119788550, "location_subtype": "", "month": "2024-06"}, {"category": "anti-social-behaviour", "location_type": "Force", "location": {"latitude": "53.422761", "street": {"id": 1718551, "name": "On or near Oakes Street"}, "longitude": "-1.420543"}, "context": "", "outcome_status": null, "persistent_id": "", "id": 119775406, "location_subtype": "", "month": "2024-06"}, {"category": "anti-social-behaviour", "location_type": "Force", "location": {"latitude": "53.392405", "street": {"id": 1716494, "name": "On or near Kilton Place"}, "longitude": "-1.460774"}, "context": "", "outcome_status": null, "persistent_id": "", "id": 119775396, "location_subtype": "", "month": "2024-06"}, {"category": "anti-social-behaviour", "location_type": "Force", "location": {"latitude": "53.322100", "street": {"id": 1716250, "name": "On or near Dyche Road"}, "longitude": "-1.463732"}, "context": "", "outcome_status": null, "persistent_id": "", "id": 119775394, "location_subtype": "", "month": "2024-06"}, {"category": "anti-social-behaviour", "location_type": "Force", "location": {"latitude": "53.395583", "street": {"id": 1716195, "name": "On or near Cranworth Place"}, "longitude": "-1.463892"}, "context": "", "outcome_status": null, "persistent_id": "", "id": 119775393, "location_subtype": "", "month": "2024-06"}, {"category": "anti-social-behaviour", "location_type": "Force", "location": {"latitude": "53.361758", "street": {"id": 1716109, "name": "On or near Alexandra Road"}, "longitude": "-1.465699"}, "context": "", "outcome_status": null, "persistent_id": "", "id": 119775392, "location_subtype": "", "month": "2024-06"}, {"category": "anti-social-behaviour", "location_type": "Force", "location": {"latitude": "53.322100", "street": {"id": 1716250, "name": "On or near Dyche Road"}, "longitude": "-1.463732"}, "context": "", "outcome_status": null, "persistent_id": "", "id": 119775391, "location_subtype": "", "month": "2024-06"}, {"category": "anti-social-behaviour", "location_type": "Force", "location": {"latitude": "53.391683", "street": {"id": 1714522, "name": "On or near Cross Bedford Street"}, "longitude": "-1.482391"}, "context": "", "outcome_status": null, "persistent_id": "", "id": 119775378, "location_subtype": "", "month": "2024-06"}, {"category": "anti-social-behaviour", "location_type": "Force", "location": {"latitude": "53.389336", "street": {"id": 1714421, "name": "On or near Upperthorpe Road"}, "longitude": "-1.484179"}, "context": "", "outcome_status": null, "persistent_id": "", "id": 119775376, "location_subtype": "", "month": "2024-06"}, {"category": "anti-social-behaviour", "location_type": "Force", "location": {"latitude": "53.469417", "street": {"id": 1713653, "name": "On or near Briary Avenue"}, "longitude": "-1.495080"}, "context": "", "outcome_status": null, "persistent_id": "", "id": 119775375, "location_subtype": "", "month": "2024-06"}, {"category": "anti-social-behaviour", "location_type": "Force", "location": {"latitude": "53.394665", "street": {"id": 1714151, "name": "On or near Wood Street"}, "longitude": "-1.488175"}, "context": "", "outcome_status": null, "persistent_id": "", "id": 119772396, "location_subtype": "", "month": "2024-06"}, {"category": "anti-social-behaviour", "location_type": "Force", "location": {"latitude": "53.382536", "street": {"id": 1714721, "name": "On or near Siddall Street"}, "longitude": "-1.481089"}, "context": "", "outcome_status": null, "persistent_id": "", "id": 119772397, "location_subtype": "", "month": "2024-06"}, {"category": "anti-social-behaviour", "location_type": "Force", "location": {"latitude": "53.392886", "street": {"id": 1712975, "name": "On or near Heavygate Avenue"}, "longitude": "-1.505264"}, "context": "", "outcome_status": null, "persistent_id": "", "id": 119775374, "location_subtype": "", "month": "2024-06"}, {"category": "anti-social-behaviour", "location_type": "Force", "location": {"latitude": "53.411155", "street": {"id": 1712308, "name": "On or near Rydalhurst Avenue"}, "longitude": "-1.519675"}, "context": "", "outcome_status": null, "persistent_id": "", "id": 119775372, "location_subtype": "", "month": "2024-06"}, {"category": "anti-social-behaviour", "location_type": "Force", "location": {"latitude": "53.351993", "street": {"id": 1712081, "name": "On or near Bents Road"}, "longitude": "-1.524486"}, "context": "", "outcome_status": null, "persistent_id": "", "id": 119775371, "location_subtype": "", "month": "2024-06"}, {"category": "anti-social-behaviour", "location_type": "Force", "location": {"latitude": "53.477079", "street": {"id": 1710927, "name": "On or near Grayson Close"}, "longitude": "-1.592564"}, "context": "", "outcome_status": null, "persistent_id": "", "id": 119775370, "location_subtype": "", "month": "2024-06"}, {"category": "anti-social-behaviour", "location_type": "Force", "location": {"latitude": "53.356289", "street": {"id": 1719664, "name": "On or near Haxby Close"}, "longitude": "-1.393439"}, "context": "", "outcome_status": null, "persistent_id": "", "id": 119780400, "location_subtype": "", "month": "2024-06"}, {"category": "anti-social-behaviour", "location_type": "Force", "location": {"latitude": "53.384970", "street": {"id": 1716956, "name": "On or near B6071"}, "longitude": "-1.452419"}, "context": "", "outcome_status": null, "persistent_id": "", "id": 119779494, "location_subtype": "", "month": "2024-06"}, {"category": "anti-social-behaviour", "location_type": "Force", "location": {"latitude": "53.405650", "street": {"id": 1713350, "name": "On or near Park View Road"}, "longitude": "-1.498873"}, "context": "", "outcome_status": null, "persistent_id": "", "id": 119778568, "location_subtype": "", "month": "2024-06"}, {"category": "anti-social-behaviour", "location_type": "Force", "location": {"latitude": "53.387158", "street": {"id": 1713491, "name": "On or near Moor End Road"}, "longitude": "-1.498399"}, "context": "", "outcome_status": null, "persistent_id": "", "id": 119778570, "location_subtype": "", "month": "2024-06"}, {"category": "anti-social-behaviour", "location_type": "Force", "location": {"latitude": "53.469417", "street": {"id": 1713653, "name": "On or near Briary Avenue"}, "longitude": "-1.495080"}, "context": "", "outcome_status": null, "persistent_id": "", "id": 119778572, "location_subtype": "", "month": "2024-06"}, {"category": "anti-social-behaviour", "location_type": "Force", "location": {"latitude": "53.382937", "street": {"id": 1714387, "name": "On or near Brightmore Drive"}, "longitude": "-1.484437"}, "context": "", "outcome_status": null, "persistent_id": "", "id": 119776889, "location_subtype": "", "month": "2024-06"}, {"category": "anti-social-behaviour", "location_type": "Force", "location": {"latitude": "53.327210", "street": {"id": 1715229, "name": "On or near Petrol Station"}, "longitude": "-1.474764"}, "context": "", "outcome_status": null, "persistent_id": "", "id": 119775886, "location_subtype": "", "month": "2024-06"}, {"category": "anti-social-behaviour", "location_type": "Force", "location": {"latitude": "53.387499", "street": {"id": 1716848, "name": "On or near Sussex Street"}, "longitude": "-1.455078"}, "context": "", "outcome_status": null, "persistent_id": "", "id": 119783481, "location_subtype": "", "month": "2024-06"}, {"category": "anti-social-behaviour", "location_type": "Force", "location": {"latitude": "53.436176", "street": {"id": 1714965, "name": "On or near Coppin Square"}, "longitude": "-1.478148"}, "context": "", "outcome_status": null, "persistent_id": "", "id": 119775884, "location_subtype": "", "month": "2024-06"}, {"category": "anti-social-behaviour", "location_type": "Force", "location": {"latitude": "53.378067", "street": {"id": 1712359, "name": "On or near Vernon Terrace"}, "longitude": "-1.514906"}, "context": "", "outcome_status": null, "persistent_id": "", "id": 119775875, "location_subtype": "", "month": "2024-06"}, {"category": "anti-social-behaviour", "location_type": "Force", "location": {"latitude": "53.369764", "street": {"id": 1712124, "name": "On or near Hanging Water Close"}, "longitude": "-1.524469"}, "context": "", "outcome_status": null, "persistent_id": "", "id": 119775874, "location_subtype": "", "month": "2024-06"}, {"category": "anti-social-behaviour", "location_type": "Force", "location": {"latitude": "53.433054", "street": {"id": 1721368, "name": "On or near Henry Street"}, "longitude": "-1.354146"}, "context": "", "outcome_status": null, "persistent_id": "", "id": 119775412, "location_subtype": "", "month": "2024-06"}, {"category": "anti-social-behaviour", "location_type": "Force", "location": {"latitude": "53.345553", "street": {"id": 1721071, "name": "On or near Drake House Crescent"}, "longitude": "-1.358413"}, "context": "", "outcome_status": null, "persistent_id": "", "id": 119775411, "location_subtype": "", "month": "2024-06"}, {"category": "anti-social-behaviour", "location_type": "Force", "location": {"latitude": "53.374234", "street": {"id": 1719827, "name": "On or near Enfield Place"}, "longitude": "-1.388765"}, "context": "", "outcome_status": null, "persistent_id": "", "id": 119775410, "location_subtype": "", "month": "2024-06"}, {"category": "anti-social-behaviour", "location_type": "Force", "location": {"latitude": "53.422755", "street": {"id": 1718564, "name": "On or near Elmview Road"}, "longitude": "-1.419309"}, "context": "", "outcome_status": null, "persistent_id": "", "id": 119775407, "location_subtype": "", "month": "2024-06"}, {"category": "anti-social-behaviour", "location_type": "Force", "location": {"latitude": "53.431414", "street": {"id": 1722110, "name": "On or near Middle Lane"}, "longitude": "-1.338653"}, "context": "", "outcome_status": null, "persistent_id": "", "id": 119774871, "location_subtype": "", "month": "2024-06"}, {"category": "anti-social-behaviour", "location_type": "Force", "location": {"latitude": "53.428918", "street": {"id": 1721524, "name": "On or near Albion Road"}, "longitude": "-1.350687"}, "context": "", "outcome_status": null, "persistent_id": "", "id": 119774870, "location_subtype": "", "month": "2024-06"}, {"category": "anti-social-behaviour", "location_type": "Force", "location": {"latitude": "53.438803", "street": {"id": 1721326, "name": "On or near A633"}, "longitude": "-1.351936"}, "context": "", "outcome_status": null, "persistent_id": "", "id": 119774869, "location_subtype": "", "month": "2024-06"}, {"category": "anti-social-behaviour", "location_type": "Force", "location": {"latitude": "53.372528", "street": {"id": 1711307, "name": "On or near Westminster Crescent"}, "longitude": "-1.553641"}, "context": "", "outcome_status": null, "persistent_id": "", "id": 119777725, "location_subtype": "", "month": "2024-06"}, {"category": "anti-social-behaviour", "location_type": "Force", "location": {"latitude": "53.390581", "street": {"id": 1712746, "name": "On or near Sports/recreation Area"}, "longitude": "-1.509260"}, "context": "", "outcome_status": null, "persistent_id": "", "id": 119777732, "location_subtype": "", "month": "2024-06"}, {"category": "anti-social-behaviour", "location_type": "Force", "location": {"latitude": "53.433833", "street": {"id": 1721396, "name": "On or near Supermarket"}, "longitude": "-1.353592"}, "context": "", "outcome_status": null, "persistent_id": "", "id": 119774868, "location_subtype": "", "month": "2024-06"}, {"category": "anti-social-behaviour", "location_type": "Force", "location": {"latitude": "53.393502", "street": {"id": 1712926, "name": "On or near Bole Hill Close"}, "longitude": "-1.506535"}, "context": "", "outcome_status": null, "persistent_id": "", "id": 119777734, "location_subtype": "", "month": "2024-06"}, {"category": "anti-social-behaviour", "location_type": "Force", "location": {"latitude": "53.395763", "street": {"id": 1713144, "name": "On or near Parsonage Street"}, "longitude": "-1.503245"}, "context": "", "outcome_status": null, "persistent_id": "", "id": 119777735, "location_subtype": "", "month": "2024-06"}, {"category": "anti-social-behaviour", "location_type": "Force", "location": {"latitude": "53.430669", "street": {"id": 1721230, "name": "On or near Church Street"}, "longitude": "-1.357057"}, "context": "", "outcome_status": null, "persistent_id": "", "id": 119774867, "location_subtype": "", "month": "2024-06"}, {"category": "anti-social-behaviour", "location_type": "Force", "location": {"latitude": "53.423601", "street": {"id": 1721121, "name": "On or near Mill Street"}, "longitude": "-1.358172"}, "context": "", "outcome_status": null, "persistent_id": "", "id": 119774866, "location_subtype": "", "month": "2024-06"}, {"category": "anti-social-behaviour", "location_type": "Force", "location": {"latitude": "53.390405", "street": {"id": 1720876, "name": "On or near Willan Drive"}, "longitude": "-1.366490"}, "context": "", "outcome_status": null, "persistent_id": "", "id": 119774865, "location_subtype": "", "month": "2024-06"}, {"category": "anti-social-behaviour", "location_type": "Force", "location": {"latitude": "53.395292", "street": {"id": 1720817, "name": "On or near Nunnery Crescent"}, "longitude": "-1.367515"}, "context": "", "outcome_status": null, "persistent_id": "", "id": 119774864, "location_subtype": "", "month": "2024-06"}, {"category": "anti-social-behaviour", "location_type": "Force", "location": {"latitude": "53.347220", "street": {"id": 1720558, "name": "On or near Birley Spa Close"}, "longitude": "-1.372688"}, "context": "", "outcome_status": null, "persistent_id": "", "id": 119774863, "location_subtype": "", "month": "2024-06"}, {"category": "anti-social-behaviour", "location_type": "Force", "location": {"latitude": "53.373044", "street": {"id": 1722731, "name": "On or near Ambler Rise"}, "longitude": "-1.319972"}, "context": "", "outcome_status": null, "persistent_id": "", "id": 119775418, "location_subtype": "", "month": "2024-06"}, {"category": "anti-social-behaviour", "location_type": "Force", "location": {"latitude": "53.425265", "street": {"id": 1722651, "name": "On or near Woodall Road"}, "longitude": "-1.322571"}, "context": "", "outcome_status": null, "persistent_id": "", "id": 119775416, "location_subtype": "", "month": "2024-06"}, {"category": "anti-social-behaviour", "location_type": "Force", "location": {"latitude": "53.473503", "street": {"id": 1721600, "name": "On or near Hague Avenue"}, "longitude": "-1.347551"}, "context": "", "outcome_status": null, "persistent_id": "", "id": 119775414, "location_subtype": "", "month": "2024-06"}, {"category": "anti-social-behaviour", "location_type": "Force", "location": {"latitude": "53.348386", "street": {"id": 1721650, "name": "On or near Springwell Avenue"}, "longitude": "-1.348651"}, "context": "", "outcome_status": null, "persistent_id": "", "id": 119775413, "location_subtype": "", "month": "2024-06"}, {"category": "anti-social-behaviour", "location_type": "Force", "location": {"latitude": "53.357654", "street": {"id": 1716863, "name": "On or near Sports/recreation Area"}, "longitude": "-1.454555"}, "context": "", "outcome_status": null, "persistent_id": "", "id": 119774849, "location_subtype": "", "month": "2024-06"}, {"category": "anti-social-behaviour", "location_type": "Force", "location": {"latitude": "53.357654", "street": {"id": 1716863, "name": "On or near Sports/recreation Area"}, "longitude": "-1.454555"}, "context": "", "outcome_status": null, "persistent_id": "", "id": 119774848, "location_subtype": "", "month": "2024-06"}, {"category": "anti-social-behaviour", "location_type": "Force", "location": {"latitude": "53.450817", "street": {"id": 1716526, "name": "On or near Nether Lane"}, "longitude": "-1.459628"}, "context": "", "outcome_status": null, "persistent_id": "", "id": 119774847, "location_subtype": "", "month": "2024-06"}, {"category": "anti-social-behaviour", "location_type": "Force", "location": {"latitude": "53.360335", "street": {"id": 1716264, "name": "On or near Heeley Green"}, "longitude": "-1.463147"}, "context": "", "outcome_status": null, "persistent_id": "", "id": 119774846, "location_subtype": "", "month": "2024-06"}, {"category": "anti-social-behaviour", "location_type": "Force", "location": {"latitude": "53.356845", "street": {"id": 1716336, "name": "On or near Northcote Avenue"}, "longitude": "-1.462440"}, "context": "", "outcome_status": null, "persistent_id": "", "id": 119774845, "location_subtype": "", "month": "2024-06"}, {"category": "anti-social-behaviour", "location_type": "Force", "location": {"latitude": "53.329736", "street": {"id": 1716026, "name": "On or near Bochum Parkway"}, "longitude": "-1.464733"}, "context": "", "outcome_status": null, "persistent_id": "", "id": 119774844, "location_subtype": "", "month": "2024-06"}, {"category": "anti-social-behaviour", "location_type": "Force", "location": {"latitude": "53.388612", "street": {"id": 1715668, "name": "On or near Alma Street"}, "longitude": "-1.470686"}, "context": "", "outcome_status": null, "persistent_id": "", "id": 119774839, "location_subtype": "", "month": "2024-06"}, {"category": "anti-social-behaviour", "location_type": "Force", "location": {"latitude": "53.401758", "street": {"id": 1715766, "name": "On or near High View"}, "longitude": "-1.469680"}, "context": "", "outcome_status": null, "persistent_id": "", "id": 119774838, "location_subtype": "", "month": "2024-06"}, {"category": "anti-social-behaviour", "location_type": "Force", "location": {"latitude": "53.385893", "street": {"id": 1715725, "name": "On or near Parking Area"}, "longitude": "-1.469787"}, "context": "", "outcome_status": null, "persistent_id": "", "id": 119774837, "location_subtype": "", "month": "2024-06"}, {"category": "anti-social-behaviour", "location_type": "Force", "location": {"latitude": "53.392740", "street": {"id": 1713877, "name": "On or near Wales Place"}, "longitude": "-1.492108"}, "context": "", "outcome_status": null, "persistent_id": "", "id": 119774828, "location_subtype": "", "month": "2024-06"}, {"category": "anti-social-behaviour", "location_type": "Force", "location": {"latitude": "53.471781", "street": {"id": 1713313, "name": "On or near Potter Hill Lane"}, "longitude": "-1.499421"}, "context": "", "outcome_status": null, "persistent_id": "", "id": 119774826, "location_subtype": "", "month": "2024-06"}, {"category": "anti-social-behaviour", "location_type": "Force", "location": {"latitude": "53.390008", "street": {"id": 1713220, "name": "On or near Matlock Road"}, "longitude": "-1.500711"}, "context": "", "outcome_status": null, "persistent_id": "", "id": 119774825, "location_subtype": "", "month": "2024-06"}, {"category": "anti-social-behaviour", "location_type": "Force", "location": {"latitude": "53.338058", "street": {"id": 1722339, "name": "On or near Nether Oak Close"}, "longitude": "-1.332408"}, "context": "", "outcome_status": null, "persistent_id": "", "id": 119773958, "location_subtype": "", "month": "2024-06"}, {"category": "anti-social-behaviour", "location_type": "Force", "location": {"latitude": "53.411438", "street": {"id": 1722247, "name": "On or near Melrose Grove"}, "longitude": "-1.334871"}, "context": "", "outcome_status": null, "persistent_id": "", "id": 119773957, "location_subtype": "", "month": "2024-06"}, {"category": "anti-social-behaviour", "location_type": "Force", "location": {"latitude": "53.456481", "street": {"id": 1721900, "name": "On or near Ryan Place"}, "longitude": "-1.343113"}, "context": "", "outcome_status": null, "persistent_id": "", "id": 119773956, "location_subtype": "", "month": "2024-06"}, {"category": "anti-social-behaviour", "location_type": "Force", "location": {"latitude": "53.433833", "street": {"id": 1721396, "name": "On or near Supermarket"}, "longitude": "-1.353592"}, "context": "", "outcome_status": null, "persistent_id": "", "id": 119773955, "location_subtype": "", "month": "2024-06"}, {"category": "anti-social-behaviour", "location_type": "Force", "location": {"latitude": "53.430669", "street": {"id": 1721230, "name": "On or near Church Street"}, "longitude": "-1.357057"}, "context": "", "outcome_status": null, "persistent_id": "", "id": 119773953, "location_subtype": "", "month": "2024-06"}, {"category": "anti-social-behaviour", "location_type": "Force", "location": {"latitude": "53.403332", "street": {"id": 1720958, "name": "On or near Icknield Way"}, "longitude": "-1.363245"}, "context": "", "outcome_status": null, "persistent_id": "", "id": 119773952, "location_subtype": "", "month": "2024-06"}, {"category": "anti-social-behaviour", "location_type": "Force", "location": {"latitude": "53.359208", "street": {"id": 1720922, "name": "On or near Tilford Road"}, "longitude": "-1.365225"}, "context": "", "outcome_status": null, "persistent_id": "", "id": 119773951, "location_subtype": "", "month": "2024-06"}, {"category": "anti-social-behaviour", "location_type": "Force", "location": {"latitude": "53.428353", "street": {"id": 1720556, "name": "On or near Sports/recreation Area"}, "longitude": "-1.370259"}, "context": "", "outcome_status": null, "persistent_id": "", "id": 119773950, "location_subtype": "", "month": "2024-06"}, {"category": "anti-social-behaviour", "location_type": "Force", "location": {"latitude": "53.451729", "street": {"id": 1720273, "name": "On or near Loy Close"}, "longitude": "-1.379070"}, "context": "", "outcome_status": null, "persistent_id": "", "id": 119773948, "location_subtype": "", "month": "2024-06"}, {"category": "anti-social-behaviour", "location_type": "Force", "location": {"latitude": "53.386390", "street": {"id": 1716367, "name": "On or near North Bank"}, "longitude": "-1.462369"}, "context": "", "outcome_status": null, "persistent_id": "", "id": 119773937, "location_subtype": "", "month": "2024-06"}, {"category": "anti-social-behaviour", "location_type": "Force", "location": {"latitude": "53.381592", "street": {"id": 1715222, "name": "On or near Penton Street"}, "longitude": "-1.474982"}, "context": "", "outcome_status": null, "persistent_id": "", "id": 119773936, "location_subtype": "", "month": "2024-06"}, {"category": "anti-social-behaviour", "location_type": "Force", "location": {"latitude": "53.380913", "street": {"id": 1715181, "name": "On or near West Street"}, "longitude": "-1.475847"}, "context": "", "outcome_status": null, "persistent_id": "", "id": 119773935, "location_subtype": "", "month": "2024-06"}, {"category": "anti-social-behaviour", "location_type": "Force", "location": {"latitude": "53.390381", "street": {"id": 1714102, "name": "On or near Brandreth Road"}, "longitude": "-1.489068"}, "context": "", "outcome_status": null, "persistent_id": "", "id": 119773927, "location_subtype": "", "month": "2024-06"}, {"category": "anti-social-behaviour", "location_type": "Force", "location": {"latitude": "53.428552", "street": {"id": 1713915, "name": "On or near Chaucer Close"}, "longitude": "-1.490236"}, "context": "", "outcome_status": null, "persistent_id": "", "id": 119773926, "location_subtype": "", "month": "2024-06"}, {"category": "anti-social-behaviour", "location_type": "Force", "location": {"latitude": "53.443626", "street": {"id": 1713107, "name": "On or near Turnpike Croft"}, "longitude": "-1.503124"}, "context": "", "outcome_status": null, "persistent_id": "", "id": 119773924, "location_subtype": "", "month": "2024-06"}, {"category": "anti-social-behaviour", "location_type": "Force", "location": {"latitude": "53.393111", "street": {"id": 1711953, "name": "On or near Deer Park View"}, "longitude": "-1.529938"}, "context": "", "outcome_status": null, "persistent_id": "", "id": 119773923, "location_subtype": "", "month": "2024-06"}, {"category": "anti-social-behaviour", "location_type": "Force", "location": {"latitude": "53.337961", "street": {"id": 1722218, "name": "On or near Hartland Court"}, "longitude": "-1.335939"}, "context": "", "outcome_status": null, "persistent_id": "", "id": 119774377, "location_subtype": "", "month": "2024-06"}, {"category": "anti-social-behaviour", "location_type": "Force", "location": {"latitude": "53.462720", "street": {"id": 1722244, "name": "On or near Manor Place"}, "longitude": "-1.335215"}, "context": "", "outcome_status": null, "persistent_id": "", "id": 119774376, "location_subtype": "", "month": "2024-06"}, {"category": "anti-social-behaviour", "location_type": "Force", "location": {"latitude": "53.372936", "street": {"id": 1719878, "name": "On or near Fitzalan Road"}, "longitude": "-1.388002"}, "context": "", "outcome_status": null, "persistent_id": "", "id": 119774366, "location_subtype": "", "month": "2024-06"}, {"category": "anti-social-behaviour", "location_type": "Force", "location": {"latitude": "53.371949", "street": {"id": 1719871, "name": "On or near Hendon Street"}, "longitude": "-1.386679"}, "context": "", "outcome_status": null, "persistent_id": "", "id": 119774365, "location_subtype": "", "month": "2024-06"}, {"category": "anti-social-behaviour", "location_type": "Force", "location": {"latitude": "53.443721", "street": {"id": 1719675, "name": "On or near Bower Close"}, "longitude": "-1.393098"}, "context": "", "outcome_status": null, "persistent_id": "", "id": 119774364, "location_subtype": "", "month": "2024-06"}, {"category": "anti-social-behaviour", "location_type": "Force", "location": {"latitude": "53.411818", "street": {"id": 1719232, "name": "On or near Vulcan Road"}, "longitude": "-1.407062"}, "context": "", "outcome_status": null, "persistent_id": "", "id": 119774363, "location_subtype": "", "month": "2024-06"}, {"category": "anti-social-behaviour", "location_type": "Force", "location": {"latitude": "53.464189", "street": {"id": 1718268, "name": "On or near Merlin Way"}, "longitude": "-1.426140"}, "context": "", "outcome_status": null, "persistent_id": "", "id": 119777774, "location_subtype": "", "month": "2024-06"}, {"category": "anti-social-behaviour", "location_type": "Force", "location": {"latitude": "53.414604", "street": {"id": 1718332, "name": "On or near Jenkin Close"}, "longitude": "-1.425318"}, "context": "", "outcome_status": null, "persistent_id": "", "id": 119777776, "location_subtype": "", "month": "2024-06"}, {"category": "anti-social-behaviour", "location_type": "Force", "location": {"latitude": "53.347663", "street": {"id": 1718660, "name": "On or near Supermarket"}, "longitude": "-1.417889"}, "context": "", "outcome_status": null, "persistent_id": "", "id": 119777778, "location_subtype": "", "month": "2024-06"}, {"category": "anti-social-behaviour", "location_type": "Force", "location": {"latitude": "53.378690", "street": {"id": 1718721, "name": "On or near Goore Drive"}, "longitude": "-1.417098"}, "context": "", "outcome_status": null, "persistent_id": "", "id": 119777779, "location_subtype": "", "month": "2024-06"}, {"category": "anti-social-behaviour", "location_type": "Force", "location": {"latitude": "53.352317", "street": {"id": 1718629, "name": "On or near Frith Road"}, "longitude": "-1.417037"}, "context": "", "outcome_status": null, "persistent_id": "", "id": 119774362, "location_subtype": "", "month": "2024-06"}, {"category": "anti-social-behaviour", "location_type": "Force", "location": {"latitude": "53.340418", "street": {"id": 1718598, "name": "On or near Carterhall Lane"}, "longitude": "-1.419302"}, "context": "", "outcome_status": null, "persistent_id": "", "id": 119774361, "location_subtype": "", "month": "2024-06"}, {"category": "anti-social-behaviour", "location_type": "Force", "location": {"latitude": "53.351211", "street": {"id": 1717745, "name": "On or near Sands Close"}, "longitude": "-1.439586"}, "context": "", "outcome_status": null, "persistent_id": "", "id": 119774360, "location_subtype": "", "month": "2024-06"}, {"category": "anti-social-behaviour", "location_type": "Force", "location": {"latitude": "53.350612", "street": {"id": 1717497, "name": "On or near Middle Hay View"}, "longitude": "-1.442163"}, "context": "", "outcome_status": null, "persistent_id": "", "id": 119774359, "location_subtype": "", "month": "2024-06"}, {"category": "anti-social-behaviour", "location_type": "Force", "location": {"latitude": "53.351588", "street": {"id": 1717496, "name": "On or near Middle Hay Close"}, "longitude": "-1.443172"}, "context": "", "outcome_status": null, "persistent_id": "", "id": 119774358, "location_subtype": "", "month": "2024-06"}, {"category": "anti-social-behaviour", "location_type": "Force", "location": {"latitude": "53.351775", "street": {"id": 1717328, "name": "On or near Spotswood Road"}, "longitude": "-1.446669"}, "context": "", "outcome_status": null, "persistent_id": "", "id": 119774357, "location_subtype": "", "month": "2024-06"}, {"category": "anti-social-behaviour", "location_type": "Force", "location": {"latitude": "53.409800", "street": {"id": 1717234, "name": "On or near Bolsover Road East"}, "longitude": "-1.447346"}, "context": "", "outcome_status": null, "persistent_id": "", "id": 119774356, "location_subtype": "", "month": "2024-06"}, {"category": "anti-social-behaviour", "location_type": "Force", "location": {"latitude": "53.366672", "street": {"id": 1717048, "name": "On or near Eyre Crescent"}, "longitude": "-1.451120"}, "context": "", "outcome_status": null, "persistent_id": "", "id": 119774353, "location_subtype": "", "month": "2024-06"}, {"category": "anti-social-behaviour", "location_type": "Force", "location": {"latitude": "53.414999", "street": {"id": 1716509, "name": "On or near Longley Hall Rise"}, "longitude": "-1.459842"}, "context": "", "outcome_status": null, "persistent_id": "", "id": 119774352, "location_subtype": "", "month": "2024-06"}, {"category": "anti-social-behaviour", "location_type": "Force", "location": {"latitude": "53.391878", "street": {"id": 1716305, "name": "On or near Sports/recreation Area"}, "longitude": "-1.463248"}, "context": "", "outcome_status": null, "persistent_id": "", "id": 119774350, "location_subtype": "", "month": "2024-06"}, {"category": "anti-social-behaviour", "location_type": "Force", "location": {"latitude": "53.384397", "street": {"id": 1716141, "name": "On or near Castle Green"}, "longitude": "-1.464980"}, "context": "", "outcome_status": null, "persistent_id": "", "id": 119774349, "location_subtype": "", "month": "2024-06"}, {"category": "anti-social-behaviour", "location_type": "Force", "location": {"latitude": "53.382697", "street": {"id": 1715851, "name": "On or near East Parade"}, "longitude": "-1.468624"}, "context": "", "outcome_status": null, "persistent_id": "", "id": 119774348, "location_subtype": "", "month": "2024-06"}, {"category": "anti-social-behaviour", "location_type": "Force", "location": {"latitude": "53.382697", "street": {"id": 1715851, "name": "On or near East Parade"}, "longitude": "-1.468624"}, "context": "", "outcome_status": null, "persistent_id": "", "id": 119774347, "location_subtype": "", "month": "2024-06"}, {"category": "anti-social-behaviour", "location_type": "Force", "location": {"latitude": "53.379191", "street": {"id": 1715667, "name": "On or near Pinstone Street"}, "longitude": "-1.470577"}, "context": "", "outcome_status": null, "persistent_id": "", "id": 119774346, "location_subtype": "", "month": "2024-06"}, {"category": "anti-social-behaviour", "location_type": "Force", "location": {"latitude": "53.381592", "street": {"id": 1715222, "name": "On or near Penton Street"}, "longitude": "-1.474982"}, "context": "", "outcome_status": null, "persistent_id": "", "id": 119774341, "location_subtype": "", "month": "2024-06"}, {"category": "anti-social-behaviour", "location_type": "Force", "location": {"latitude": "53.327724", "street": {"id": 1715868, "name": "On or near Shopping Area"}, "longitude": "-1.467567"}, "context": "", "outcome_status": null, "persistent_id": "", "id": 119776916, "location_subtype": "", "month": "2024-06"}, {"category": "anti-social-behaviour", "location_type": "Force", "location": {"latitude": "53.382912", "street": {"id": 1716031, "name": "On or near High Street"}, "longitude": "-1.466381"}, "context": "", "outcome_status": null, "persistent_id": "", "id": 119776918, "location_subtype": "", "month": "2024-06"}, {"category": "anti-social-behaviour", "location_type": "Force", "location": {"latitude": "53.322967", "street": {"id": 1716434, "name": "On or near Lingfoot Drive"}, "longitude": "-1.460659"}, "context": "", "outcome_status": null, "persistent_id": "", "id": 119776923, "location_subtype": "", "month": "2024-06"}, {"category": "anti-social-behaviour", "location_type": "Force", "location": {"latitude": "53.408293", "street": {"id": 1717345, "name": "On or near Page Hall Road"}, "longitude": "-1.446057"}, "context": "", "outcome_status": null, "persistent_id": "", "id": 119776928, "location_subtype": "", "month": "2024-06"}, {"category": "anti-social-behaviour", "location_type": "Force", "location": {"latitude": "53.407723", "street": {"id": 1717401, "name": "On or near Rushby Street"}, "longitude": "-1.445177"}, "context": "", "outcome_status": null, "persistent_id": "", "id": 119776930, "location_subtype": "", "month": "2024-06"}, {"category": "anti-social-behaviour", "location_type": "Force", "location": {"latitude": "53.363903", "street": {"id": 1717982, "name": "On or near A6135"}, "longitude": "-1.433664"}, "context": "", "outcome_status": null, "persistent_id": "", "id": 119776931, "location_subtype": "", "month": "2024-06"}, {"category": "anti-social-behaviour", "location_type": "Force", "location": {"latitude": "53.361726", "street": {"id": 1717969, "name": "On or near Dagnam Road"}, "longitude": "-1.433347"}, "context": "", "outcome_status": null, "persistent_id": "", "id": 119776933, "location_subtype": "", "month": "2024-06"}, {"category": "anti-social-behaviour", "location_type": "Force", "location": {"latitude": "53.356307", "street": {"id": 1718215, "name": "On or near Ridgeway Drive"}, "longitude": "-1.428025"}, "context": "", "outcome_status": null, "persistent_id": "", "id": 119776935, "location_subtype": "", "month": "2024-06"}, {"category": "anti-social-behaviour", "location_type": "Force", "location": {"latitude": "53.423416", "street": {"id": 1718566, "name": "On or near Dara Street"}, "longitude": "-1.418608"}, "context": "", "outcome_status": null, "persistent_id": "", "id": 119776937, "location_subtype": "", "month": "2024-06"}, {"category": "anti-social-behaviour", "location_type": "Force", "location": {"latitude": "53.392435", "street": {"id": 1718658, "name": "On or near Uttley Croft"}, "longitude": "-1.417286"}, "context": "", "outcome_status": null, "persistent_id": "", "id": 119776939, "location_subtype": "", "month": "2024-06"}, {"category": "anti-social-behaviour", "location_type": "Force", "location": {"latitude": "53.371932", "street": {"id": 1719003, "name": "On or near Saxonlea Court"}, "longitude": "-1.411884"}, "context": "", "outcome_status": null, "persistent_id": "", "id": 119776941, "location_subtype": "", "month": "2024-06"}, {"category": "anti-social-behaviour", "location_type": "Force", "location": {"latitude": "53.375867", "street": {"id": 1719657, "name": "On or near Handsworth Road"}, "longitude": "-1.393522"}, "context": "", "outcome_status": null, "persistent_id": "", "id": 119776943, "location_subtype": "", "month": "2024-06"}, {"category": "anti-social-behaviour", "location_type": "Force", "location": {"latitude": "53.402034", "street": {"id": 1720030, "name": "On or near Parking Area"}, "longitude": "-1.383190"}, "context": "", "outcome_status": null, "persistent_id": "", "id": 119776945, "location_subtype": "", "month": "2024-06"}, {"category": "anti-social-behaviour", "location_type": "Force", "location": {"latitude": "53.357283", "street": {"id": 1720545, "name": "On or near Skelton Grove"}, "longitude": "-1.373412"}, "context": "", "outcome_status": null, "persistent_id": "", "id": 119776946, "location_subtype": "", "month": "2024-06"}, {"category": "anti-social-behaviour", "location_type": "Force", "location": {"latitude": "53.380913", "street": {"id": 1715181, "name": "On or near West Street"}, "longitude": "-1.475847"}, "context": "", "outcome_status": null, "persistent_id": "", "id": 119774338, "location_subtype": "", "month": "2024-06"}, {"category": "anti-social-behaviour", "location_type": "Force", "location": {"latitude": "53.338283", "street": {"id": 1714518, "name": "On or near Greenhill Road"}, "longitude": "-1.482858"}, "context": "", "outcome_status": null, "persistent_id": "", "id": 119774337, "location_subtype": "", "month": "2024-06"}, {"category": "anti-social-behaviour", "location_type": "Force", "location": {"latitude": "53.376126", "street": {"id": 1714403, "name": "On or near Clarke Street"}, "longitude": "-1.485120"}, "context": "", "outcome_status": null, "persistent_id": "", "id": 119774336, "location_subtype": "", "month": "2024-06"}, {"category": "anti-social-behaviour", "location_type": "Force", "location": {"latitude": "53.359264", "street": {"id": 1714094, "name": "On or near Violet Bank Road"}, "longitude": "-1.489365"}, "context": "", "outcome_status": null, "persistent_id": "", "id": 119774335, "location_subtype": "", "month": "2024-06"}, {"category": "anti-social-behaviour", "location_type": "Force", "location": {"latitude": "53.345293", "street": {"id": 1713711, "name": "On or near Supermarket"}, "longitude": "-1.493107"}, "context": "", "outcome_status": null, "persistent_id": "", "id": 119774334, "location_subtype": "", "month": "2024-06"}, {"category": "anti-social-behaviour", "location_type": "Force", "location": {"latitude": "53.379223", "street": {"id": 1714000, "name": "On or near Shearwood Road"}, "longitude": "-1.490359"}, "context": "", "outcome_status": null, "persistent_id": "", "id": 119779463, "location_subtype": "", "month": "2024-06"}, {"category": "anti-social-behaviour", "location_type": "Force", "location": {"latitude": "53.390381", "street": {"id": 1714102, "name": "On or near Brandreth Road"}, "longitude": "-1.489068"}, "context": "", "outcome_status": null, "persistent_id": "", "id": 119779464, "location_subtype": "", "month": "2024-06"}, {"category": "anti-social-behaviour", "location_type": "Force", "location": {"latitude": "53.416027", "street": {"id": 1714378, "name": "On or near Donovan Road"}, "longitude": "-1.485045"}, "context": "", "outcome_status": null, "persistent_id": "", "id": 119779466, "location_subtype": "", "month": "2024-06"}, {"category": "anti-social-behaviour", "location_type": "Force", "location": {"latitude": "53.389336", "street": {"id": 1714421, "name": "On or near Upperthorpe Road"}, "longitude": "-1.484179"}, "context": "", "outcome_status": null, "persistent_id": "", "id": 119779469, "location_subtype": "", "month": "2024-06"}, {"category": "anti-social-behaviour", "location_type": "Force", "location": {"latitude": "53.374499", "street": {"id": 1714553, "name": "On or near Exeter Place"}, "longitude": "-1.483021"}, "context": "", "outcome_status": null, "persistent_id": "", "id": 119779471, "location_subtype": "", "month": "2024-06"}, {"category": "anti-social-behaviour", "location_type": "Force", "location": {"latitude": "53.369054", "street": {"id": 1714598, "name": "On or near Washington Road"}, "longitude": "-1.481448"}, "context": "", "outcome_status": null, "persistent_id": "", "id": 119779473, "location_subtype": "", "month": "2024-06"}, {"category": "anti-social-behaviour", "location_type": "Force", "location": {"latitude": "53.359917", "street": {"id": 1714734, "name": "On or near Belper Road"}, "longitude": "-1.480282"}, "context": "", "outcome_status": null, "persistent_id": "", "id": 119779475, "location_subtype": "", "month": "2024-06"}, {"category": "anti-social-behaviour", "location_type": "Force", "location": {"latitude": "53.384735", "street": {"id": 1714739, "name": "On or near Brownell Street"}, "longitude": "-1.480401"}, "context": "", "outcome_status": null, "persistent_id": "", "id": 119779477, "location_subtype": "", "month": "2024-06"}, {"category": "anti-social-behaviour", "location_type": "Force", "location": {"latitude": "53.445686", "street": {"id": 1716204, "name": "On or near Supermarket"}, "longitude": "-1.463924"}, "context": "", "outcome_status": null, "persistent_id": "", "id": 119779489, "location_subtype": "", "month": "2024-06"}, {"category": "anti-social-behaviour", "location_type": "Force", "location": {"latitude": "53.401756", "street": {"id": 1716713, "name": "On or near Scott Road"}, "longitude": "-1.457422"}, "context": "", "outcome_status": null, "persistent_id": "", "id": 119779492, "location_subtype": "", "month": "2024-06"}, {"category": "anti-social-behaviour", "location_type": "Force", "location": {"latitude": "53.424605", "street": {"id": 1711064, "name": "On or near Kirk Edge Road"}, "longitude": "-1.569830"}, "context": "", "outcome_status": null, "persistent_id": "", "id": 119776880, "location_subtype": "", "month": "2024-06"}, {"category": "anti-social-behaviour", "location_type": "Force", "location": {"latitude": "53.378133", "street": {"id": 1714057, "name": "On or near Ruth Square"}, "longitude": "-1.489906"}, "context": "", "outcome_status": null, "persistent_id": "", "id": 119776886, "location_subtype": "", "month": "2024-06"}, {"category": "anti-social-behaviour", "location_type": "Force", "location": {"latitude": "53.431189", "street": {"id": 1713968, "name": "On or near Mansel Road"}, "longitude": "-1.488820"}, "context": "", "outcome_status": null, "persistent_id": "", "id": 119776888, "location_subtype": "", "month": "2024-06"}, {"category": "anti-social-behaviour", "location_type": "Force", "location": {"latitude": "53.438824", "street": {"id": 1716609, "name": "On or near Town Fields Avenue"}, "longitude": "-1.458953"}, "context": "", "outcome_status": null, "persistent_id": "", "id": 119778599, "location_subtype": "", "month": "2024-06"}, {"category": "anti-social-behaviour", "location_type": "Force", "location": {"latitude": "53.415556", "street": {"id": 1716704, "name": "On or near Barnsley Road"}, "longitude": "-1.455968"}, "context": "", "outcome_status": null, "persistent_id": "", "id": 119778601, "location_subtype": "", "month": "2024-06"}, {"category": "anti-social-behaviour", "location_type": "Force", "location": {"latitude": "53.365916", "street": {"id": 1716986, "name": "On or near Park Grange Court"}, "longitude": "-1.452918"}, "context": "", "outcome_status": null, "persistent_id": "", "id": 119778604, "location_subtype": "", "month": "2024-06"}, {"category": "anti-social-behaviour", "location_type": "Force", "location": {"latitude": "53.383554", "street": {"id": 1717056, "name": "On or near St John's Road"}, "longitude": "-1.451535"}, "context": "", "outcome_status": null, "persistent_id": "", "id": 119778606, "location_subtype": "", "month": "2024-06"}, {"category": "anti-social-behaviour", "location_type": "Force", "location": {"latitude": "53.359578", "street": {"id": 1716952, "name": "On or near Hartopp Road"}, "longitude": "-1.452774"}, "context": "", "outcome_status": null, "persistent_id": "", "id": 119778608, "location_subtype": "", "month": "2024-06"}, {"category": "anti-social-behaviour", "location_type": "Force", "location": {"latitude": "53.408700", "street": {"id": 1717220, "name": "On or near Selby Road"}, "longitude": "-1.448639"}, "context": "", "outcome_status": null, "persistent_id": "", "id": 119778609, "location_subtype": "", "month": "2024-06"}, {"category": "anti-social-behaviour", "location_type": "Force", "location": {"latitude": "53.344370", "street": {"id": 1717292, "name": "On or near Gaunt Close"}, "longitude": "-1.447171"}, "context": "", "outcome_status": null, "persistent_id": "", "id": 119778611, "location_subtype": "", "month": "2024-06"}, {"category": "anti-social-behaviour", "location_type": "Force", "location": {"latitude": "53.432736", "street": {"id": 1717652, "name": "On or near Lowhouse Road"}, "longitude": "-1.440998"}, "context": "", "outcome_status": null, "persistent_id": "", "id": 119778613, "location_subtype": "", "month": "2024-06"}, {"category": "anti-social-behaviour", "location_type": "Force", "location": {"latitude": "53.361726", "street": {"id": 1717969, "name": "On or near Dagnam Road"}, "longitude": "-1.433347"}, "context": "", "outcome_status": null, "persistent_id": "", "id": 119778616, "location_subtype": "", "month": "2024-06"}, {"category": "anti-social-behaviour", "location_type": "Force", "location": {"latitude": "53.328745", "street": {"id": 1720721, "name": "On or near Moor Crescent"}, "longitude": "-1.368710"}, "context": "", "outcome_status": null, "persistent_id": "", "id": 119779523, "location_subtype": "", "month": "2024-06"}, {"category": "anti-social-behaviour", "location_type": "Force", "location": {"latitude": "53.340694", "street": {"id": 1721283, "name": "On or near Purbeck Road"}, "longitude": "-1.355677"}, "context": "", "outcome_status": null, "persistent_id": "", "id": 119779527, "location_subtype": "", "month": "2024-06"}, {"category": "anti-social-behaviour", "location_type": "Force", "location": {"latitude": "53.335752", "street": {"id": 1721385, "name": "On or near May Tree Close"}, "longitude": "-1.352733"}, "context": "", "outcome_status": null, "persistent_id": "", "id": 119779529, "location_subtype": "", "month": "2024-06"}, {"category": "anti-social-behaviour", "location_type": "Force", "location": {"latitude": "53.473503", "street": {"id": 1721600, "name": "On or near Hague Avenue"}, "longitude": "-1.347551"}, "context": "", "outcome_status": null, "persistent_id": "", "id": 119779531, "location_subtype": "", "month": "2024-06"}, {"category": "anti-social-behaviour", "location_type": "Force", "location": {"latitude": "53.339391", "street": {"id": 1721769, "name": "On or near Batesquire"}, "longitude": "-1.344312"}, "context": "", "outcome_status": null, "persistent_id": "", "id": 119779534, "location_subtype": "", "month": "2024-06"}, {"category": "anti-social-behaviour", "location_type": "Force", "location": {"latitude": "53.433903", "street": {"id": 1722184, "name": "On or near Oxford Street"}, "longitude": "-1.336823"}, "context": "", "outcome_status": null, "persistent_id": "", "id": 119779536, "location_subtype": "", "month": "2024-06"}, {"category": "anti-social-behaviour", "location_type": "Force", "location": {"latitude": "53.337784", "street": {"id": 1722270, "name": "On or near Dalby Grove"}, "longitude": "-1.333329"}, "context": "", "outcome_status": null, "persistent_id": "", "id": 119779538, "location_subtype": "", "month": "2024-06"}, {"category": "anti-social-behaviour", "location_type": "Force", "location": {"latitude": "53.432889", "street": {"id": 1723158, "name": "On or near Ridgeway Close"}, "longitude": "-1.311733"}, "context": "", "outcome_status": null, "persistent_id": "", "id": 119779543, "location_subtype": "", "month": "2024-06"}, {"category": "anti-social-behaviour", "location_type": "Force", "location": {"latitude": "53.368693", "street": {"id": 1722694, "name": "On or near Aughton Road"}, "longitude": "-1.321515"}, "context": "", "outcome_status": null, "persistent_id": "", "id": 119773553, "location_subtype": "", "month": "2024-06"}, {"category": "anti-social-behaviour", "location_type": "Force", "location": {"latitude": "53.450380", "street": {"id": 1721946, "name": "On or near Great Eastern Way"}, "longitude": "-1.341822"}, "context": "", "outcome_status": null, "persistent_id": "", "id": 119773551, "location_subtype": "", "month": "2024-06"}, {"category": "anti-social-behaviour", "location_type": "Force", "location": {"latitude": "53.416635", "street": {"id": 1721457, "name": "On or near Lawton Lane"}, "longitude": "-1.346571"}, "context": "", "outcome_status": null, "persistent_id": "", "id": 119773550, "location_subtype": "", "month": "2024-06"}, {"category": "anti-social-behaviour", "location_type": "Force", "location": {"latitude": "53.446498", "street": {"id": 1719019, "name": "On or near Hesley Mews"}, "longitude": "-1.411111"}, "context": "", "outcome_status": null, "persistent_id": "", "id": 119773531, "location_subtype": "", "month": "2024-06"}, {"category": "anti-social-behaviour", "location_type": "Force", "location": {"latitude": "53.347442", "street": {"id": 1718971, "name": "On or near Sports/recreation Area"}, "longitude": "-1.411852"}, "context": "", "outcome_status": null, "persistent_id": "", "id": 119773530, "location_subtype": "", "month": "2024-06"}, {"category": "anti-social-behaviour", "location_type": "Force", "location": {"latitude": "53.349396", "street": {"id": 1718728, "name": "On or near Jaunty Lane"}, "longitude": "-1.417062"}, "context": "", "outcome_status": null, "persistent_id": "", "id": 119773529, "location_subtype": "", "month": "2024-06"}, {"category": "anti-social-behaviour", "location_type": "Force", "location": {"latitude": "53.362079", "street": {"id": 1718702, "name": "On or near Mosborough Road"}, "longitude": "-1.417159"}, "context": "", "outcome_status": null, "persistent_id": "", "id": 119773528, "location_subtype": "", "month": "2024-06"}, {"category": "anti-social-behaviour", "location_type": "Force", "location": {"latitude": "53.346215", "street": {"id": 1718634, "name": "On or near Lister Way"}, "longitude": "-1.419223"}, "context": "", "outcome_status": null, "persistent_id": "", "id": 119773527, "location_subtype": "", "month": "2024-06"}, {"category": "anti-social-behaviour", "location_type": "Force", "location": {"latitude": "53.363903", "street": {"id": 1717982, "name": "On or near A6135"}, "longitude": "-1.433664"}, "context": "", "outcome_status": null, "persistent_id": "", "id": 119773525, "location_subtype": "", "month": "2024-06"}, {"category": "anti-social-behaviour", "location_type": "Force", "location": {"latitude": "53.373831", "street": {"id": 1717713, "name": "On or near Swift Way"}, "longitude": "-1.440326"}, "context": "", "outcome_status": null, "persistent_id": "", "id": 119773523, "location_subtype": "", "month": "2024-06"}, {"category": "anti-social-behaviour", "location_type": "Force", "location": {"latitude": "53.346054", "street": {"id": 1717327, "name": "On or near Gaunt Way"}, "longitude": "-1.445842"}, "context": "", "outcome_status": null, "persistent_id": "", "id": 119773521, "location_subtype": "", "month": "2024-06"}, {"category": "anti-social-behaviour", "location_type": "Force", "location": {"latitude": "53.375601", "street": {"id": 1716281, "name": "On or near Suffolk Road"}, "longitude": "-1.463677"}, "context": "", "outcome_status": null, "persistent_id": "", "id": 119773511, "location_subtype": "", "month": "2024-06"}, {"category": "anti-social-behaviour", "location_type": "Force", "location": {"latitude": "53.383549", "street": {"id": 1716197, "name": "On or near Shopping Area"}, "longitude": "-1.463989"}, "context": "", "outcome_status": null, "persistent_id": "", "id": 119773510, "location_subtype": "", "month": "2024-06"}, {"category": "anti-social-behaviour", "location_type": "Force", "location": {"latitude": "53.382869", "street": {"id": 1716184, "name": "On or near Fitzalan Square"}, "longitude": "-1.464879"}, "context": "", "outcome_status": null, "persistent_id": "", "id": 119773509, "location_subtype": "", "month": "2024-06"}, {"category": "anti-social-behaviour", "location_type": "Force", "location": {"latitude": "53.396324", "street": {"id": 1716028, "name": "On or near Rising Street"}, "longitude": "-1.466725"}, "context": "", "outcome_status": null, "persistent_id": "", "id": 119773508, "location_subtype": "", "month": "2024-06"}, {"category": "anti-social-behaviour", "location_type": "Force", "location": {"latitude": "53.382912", "street": {"id": 1716031, "name": "On or near High Street"}, "longitude": "-1.466381"}, "context": "", "outcome_status": null, "persistent_id": "", "id": 119773507, "location_subtype": "", "month": "2024-06"}, {"category": "anti-social-behaviour", "location_type": "Force", "location": {"latitude": "53.374339", "street": {"id": 1715617, "name": "On or near Sylvester Street"}, "longitude": "-1.470938"}, "context": "", "outcome_status": null, "persistent_id": "", "id": 119773506, "location_subtype": "", "month": "2024-06"}, {"category": "anti-social-behaviour", "location_type": "Force", "location": {"latitude": "53.380041", "street": {"id": 1715348, "name": "On or near Carver Street"}, "longitude": "-1.473829"}, "context": "", "outcome_status": null, "persistent_id": "", "id": 119773505, "location_subtype": "", "month": "2024-06"}, {"category": "anti-social-behaviour", "location_type": "Force", "location": {"latitude": "53.381700", "street": {"id": 1715309, "name": "On or near Trippet Lane"}, "longitude": "-1.474860"}, "context": "", "outcome_status": null, "persistent_id": "", "id": 119773504, "location_subtype": "", "month": "2024-06"}, {"category": "anti-social-behaviour", "location_type": "Force", "location": {"latitude": "53.424593", "street": {"id": 1714973, "name": "On or near Buchanan Road"}, "longitude": "-1.476725"}, "context": "", "outcome_status": null, "persistent_id": "", "id": 119773502, "location_subtype": "", "month": "2024-06"}, {"category": "anti-social-behaviour", "location_type": "Force", "location": {"latitude": "53.388140", "street": {"id": 1714946, "name": "On or near Hoyle Street"}, "longitude": "-1.477924"}, "context": "", "outcome_status": null, "persistent_id": "", "id": 119773501, "location_subtype": "", "month": "2024-06"}, {"category": "anti-social-behaviour", "location_type": "Force", "location": {"latitude": "53.379020", "street": {"id": 1714719, "name": "On or near Cavendish Street"}, "longitude": "-1.480846"}, "context": "", "outcome_status": null, "persistent_id": "", "id": 119773499, "location_subtype": "", "month": "2024-06"}, {"category": "anti-social-behaviour", "location_type": "Force", "location": {"latitude": "53.418665", "street": {"id": 1714639, "name": "On or near Hilltop Green"}, "longitude": "-1.482004"}, "context": "", "outcome_status": null, "persistent_id": "", "id": 119773498, "location_subtype": "", "month": "2024-06"}, {"category": "anti-social-behaviour", "location_type": "Force", "location": {"latitude": "53.454263", "street": {"id": 1710951, "name": "On or near Bank Side"}, "longitude": "-1.586623"}, "context": "", "outcome_status": null, "persistent_id": "", "id": 119780326, "location_subtype": "", "month": "2024-06"}, {"category": "anti-social-behaviour", "location_type": "Force", "location": {"latitude": "53.380792", "street": {"id": 1712493, "name": "On or near Headland Drive"}, "longitude": "-1.515251"}, "context": "", "outcome_status": null, "persistent_id": "", "id": 119780328, "location_subtype": "", "month": "2024-06"}, {"category": "anti-social-behaviour", "location_type": "Force", "location": {"latitude": "53.377385", "street": {"id": 1713208, "name": "On or near Supermarket"}, "longitude": "-1.501885"}, "context": "", "outcome_status": null, "persistent_id": "", "id": 119780331, "location_subtype": "", "month": "2024-06"}, {"category": "anti-social-behaviour", "location_type": "Force", "location": {"latitude": "53.380699", "street": {"id": 1713263, "name": "On or near Roslin Road"}, "longitude": "-1.501451"}, "context": "", "outcome_status": null, "persistent_id": "", "id": 119780333, "location_subtype": "", "month": "2024-06"}, {"category": "anti-social-behaviour", "location_type": "Force", "location": {"latitude": "53.382394", "street": {"id": 1713303, "name": "On or near Redcar Road"}, "longitude": "-1.500499"}, "context": "", "outcome_status": null, "persistent_id": "", "id": 119780335, "location_subtype": "", "month": "2024-06"}, {"category": "anti-social-behaviour", "location_type": "Force", "location": {"latitude": "53.383727", "street": {"id": 1715954, "name": "On or near Hartshead"}, "longitude": "-1.467754"}, "context": "", "outcome_status": null, "persistent_id": "", "id": 119780370, "location_subtype": "", "month": "2024-06"}, {"category": "anti-social-behaviour", "location_type": "Force", "location": {"latitude": "53.383711", "street": {"id": 1716241, "name": "On or near Haymarket"}, "longitude": "-1.464252"}, "context": "", "outcome_status": null, "persistent_id": "", "id": 119780371, "location_subtype": "", "month": "2024-06"}, {"category": "anti-social-behaviour", "location_type": "Force", "location": {"latitude": "53.427362", "street": {"id": 1716725, "name": "On or near Kinnaird Place"}, "longitude": "-1.454809"}, "context": "", "outcome_status": null, "persistent_id": "", "id": 119780373, "location_subtype": "", "month": "2024-06"}, {"category": "anti-social-behaviour", "location_type": "Force", "location": {"latitude": "53.342715", "street": {"id": 1717316, "name": "On or near Ironside Close"}, "longitude": "-1.446787"}, "context": "", "outcome_status": null, "persistent_id": "", "id": 119780379, "location_subtype": "", "month": "2024-06"}, {"category": "anti-social-behaviour", "location_type": "Force", "location": {"latitude": "53.437909", "street": {"id": 1717427, "name": "On or near Parking Area"}, "longitude": "-1.441924"}, "context": "", "outcome_status": null, "persistent_id": "", "id": 119780380, "location_subtype": "", "month": "2024-06"}, {"category": "anti-social-behaviour", "location_type": "Force", "location": {"latitude": "53.351588", "street": {"id": 1717496, "name": "On or near Middle Hay Close"}, "longitude": "-1.443172"}, "context": "", "outcome_status": null, "persistent_id": "", "id": 119780382, "location_subtype": "", "month": "2024-06"}, {"category": "anti-social-behaviour", "location_type": "Force", "location": {"latitude": "53.393260", "street": {"id": 1718126, "name": "On or near Shirland Close"}, "longitude": "-1.430042"}, "context": "", "outcome_status": null, "persistent_id": "", "id": 119780384, "location_subtype": "", "month": "2024-06"}, {"category": "anti-social-behaviour", "location_type": "Force", "location": {"latitude": "53.363862", "street": {"id": 1718209, "name": "On or near Cullabine Road"}, "longitude": "-1.428976"}, "context": "", "outcome_status": null, "persistent_id": "", "id": 119780386, "location_subtype": "", "month": "2024-06"}, {"category": "anti-social-behaviour", "location_type": "Force", "location": {"latitude": "53.339250", "street": {"id": 1718258, "name": "On or near Charnock Dale Road"}, "longitude": "-1.423252"}, "context": "", "outcome_status": null, "persistent_id": "", "id": 119780388, "location_subtype": "", "month": "2024-06"}, {"category": "anti-social-behaviour", "location_type": "Force", "location": {"latitude": "53.414604", "street": {"id": 1718332, "name": "On or near Jenkin Close"}, "longitude": "-1.425318"}, "context": "", "outcome_status": null, "persistent_id": "", "id": 119781505, "location_subtype": "", "month": "2024-06"}, {"category": "anti-social-behaviour", "location_type": "Force", "location": {"latitude": "53.451729", "street": {"id": 1720273, "name": "On or near Loy Close"}, "longitude": "-1.379070"}, "context": "", "outcome_status": null, "persistent_id": "", "id": 119781508, "location_subtype": "", "month": "2024-06"}, {"category": "anti-social-behaviour", "location_type": "Force", "location": {"latitude": "53.401703", "street": {"id": 1721072, "name": "On or near Whitehill Lane"}, "longitude": "-1.361163"}, "context": "", "outcome_status": null, "persistent_id": "", "id": 119781514, "location_subtype": "", "month": "2024-06"}, {"category": "anti-social-behaviour", "location_type": "Force", "location": {"latitude": "53.425016", "street": {"id": 1721219, "name": "On or near The Maltings"}, "longitude": "-1.357052"}, "context": "", "outcome_status": null, "persistent_id": "", "id": 119781515, "location_subtype": "", "month": "2024-06"}, {"category": "anti-social-behaviour", "location_type": "Force", "location": {"latitude": "53.452312", "street": {"id": 1721567, "name": "On or near Parking Area"}, "longitude": "-1.346731"}, "context": "", "outcome_status": null, "persistent_id": "", "id": 119781517, "location_subtype": "", "month": "2024-06"}, {"category": "anti-social-behaviour", "location_type": "Force", "location": {"latitude": "53.387344", "street": {"id": 1721404, "name": "On or near Well Lane"}, "longitude": "-1.350522"}, "context": "", "outcome_status": null, "persistent_id": "", "id": 119781519, "location_subtype": "", "month": "2024-06"}, {"category": "anti-social-behaviour", "location_type": "Force", "location": {"latitude": "53.473687", "street": {"id": 1721798, "name": "On or near Macmanus Avenue"}, "longitude": "-1.345153"}, "context": "", "outcome_status": null, "persistent_id": "", "id": 119781521, "location_subtype": "", "month": "2024-06"}, {"category": "anti-social-behaviour", "location_type": "Force", "location": {"latitude": "53.406912", "street": {"id": 1723083, "name": "On or near Milldyke Close"}, "longitude": "-1.313416"}, "context": "", "outcome_status": null, "persistent_id": "", "id": 119772984, "location_subtype": "", "month": "2024-06"}, {"category": "anti-social-behaviour", "location_type": "Force", "location": {"latitude": "53.443541", "street": {"id": 1722743, "name": "On or near Supermarket"}, "longitude": "-1.319167"}, "context": "", "outcome_status": null, "persistent_id": "", "id": 119772983, "location_subtype": "", "month": "2024-06"}, {"category": "anti-social-behaviour", "location_type": "Force", "location": {"latitude": "53.439321", "street": {"id": 1722380, "name": "On or near Rosewell Court"}, "longitude": "-1.330115"}, "context": "", "outcome_status": null, "persistent_id": "", "id": 119772982, "location_subtype": "", "month": "2024-06"}, {"category": "anti-social-behaviour", "location_type": "Force", "location": {"latitude": "53.468728", "street": {"id": 1722351, "name": "On or near North Street"}, "longitude": "-1.330993"}, "context": "", "outcome_status": null, "persistent_id": "", "id": 119772979, "location_subtype": "", "month": "2024-06"}, {"category": "anti-social-behaviour", "location_type": "Force", "location": {"latitude": "53.409463", "street": {"id": 1722220, "name": "On or near Whiston Grange"}, "longitude": "-1.335398"}, "context": "", "outcome_status": null, "persistent_id": "", "id": 119772978, "location_subtype": "", "month": "2024-06"}, {"category": "anti-social-behaviour", "location_type": "Force", "location": {"latitude": "53.477933", "street": {"id": 1714096, "name": "On or near Merbeck Drive"}, "longitude": "-1.487536"}, "context": "", "outcome_status": null, "persistent_id": "", "id": 119781475, "location_subtype": "", "month": "2024-06"}, {"category": "anti-social-behaviour", "location_type": "Force", "location": {"latitude": "53.423524", "street": {"id": 1714686, "name": "On or near Adlington Crescent"}, "longitude": "-1.481087"}, "context": "", "outcome_status": null, "persistent_id": "", "id": 119781477, "location_subtype": "", "month": "2024-06"}, {"category": "anti-social-behaviour", "location_type": "Force", "location": {"latitude": "53.379899", "street": {"id": 1714975, "name": "On or near Parking Area"}, "longitude": "-1.478325"}, "context": "", "outcome_status": null, "persistent_id": "", "id": 119781479, "location_subtype": "", "month": "2024-06"}, {"category": "anti-social-behaviour", "location_type": "Force", "location": {"latitude": "53.388971", "street": {"id": 1715469, "name": "On or near Cotton Mill Walk"}, "longitude": "-1.472621"}, "context": "", "outcome_status": null, "persistent_id": "", "id": 119781483, "location_subtype": "", "month": "2024-06"}, {"category": "anti-social-behaviour", "location_type": "Force", "location": {"latitude": "53.382697", "street": {"id": 1715851, "name": "On or near East Parade"}, "longitude": "-1.468624"}, "context": "", "outcome_status": null, "persistent_id": "", "id": 119781485, "location_subtype": "", "month": "2024-06"}, {"category": "anti-social-behaviour", "location_type": "Force", "location": {"latitude": "53.379861", "street": {"id": 1715877, "name": "On or near Cadman Lane"}, "longitude": "-1.467682"}, "context": "", "outcome_status": null, "persistent_id": "", "id": 119781487, "location_subtype": "", "month": "2024-06"}, {"category": "anti-social-behaviour", "location_type": "Force", "location": {"latitude": "53.402333", "street": {"id": 1715849, "name": "On or near Firshill Croft"}, "longitude": "-1.467778"}, "context": "", "outcome_status": null, "persistent_id": "", "id": 119781489, "location_subtype": "", "month": "2024-06"}, {"category": "anti-social-behaviour", "location_type": "Force", "location": {"latitude": "53.395583", "street": {"id": 1716195, "name": "On or near Cranworth Place"}, "longitude": "-1.463892"}, "context": "", "outcome_status": null, "persistent_id": "", "id": 119781492, "location_subtype": "", "month": "2024-06"}, {"category": "anti-social-behaviour", "location_type": "Force", "location": {"latitude": "53.438826", "street": {"id": 1716411, "name": "On or near Fernlea Grove"}, "longitude": "-1.461406"}, "context": "", "outcome_status": null, "persistent_id": "", "id": 119781494, "location_subtype": "", "month": "2024-06"}, {"category": "anti-social-behaviour", "location_type": "Force", "location": {"latitude": "53.380251", "street": {"id": 1716752, "name": "On or near Weigh Lane"}, "longitude": "-1.456523"}, "context": "", "outcome_status": null, "persistent_id": "", "id": 119781496, "location_subtype": "", "month": "2024-06"}, {"category": "anti-social-behaviour", "location_type": "Force", "location": {"latitude": "53.358225", "street": {"id": 1717545, "name": "On or near Berners Road"}, "longitude": "-1.443927"}, "context": "", "outcome_status": null, "persistent_id": "", "id": 119781499, "location_subtype": "", "month": "2024-06"}, {"category": "anti-social-behaviour", "location_type": "Force", "location": {"latitude": "53.382052", "street": {"id": 1717613, "name": "On or near Cricket Inn Crescent"}, "longitude": "-1.441527"}, "context": "", "outcome_status": null, "persistent_id": "", "id": 119781501, "location_subtype": "", "month": "2024-06"}, {"category": "anti-social-behaviour", "location_type": "Force", "location": {"latitude": "53.437602", "street": {"id": 1717896, "name": "On or near Grange Mill Lane"}, "longitude": "-1.433874"}, "context": "", "outcome_status": null, "persistent_id": "", "id": 119781503, "location_subtype": "", "month": "2024-06"}, {"category": "anti-social-behaviour", "location_type": "Force", "location": {"latitude": "53.451131", "street": {"id": 1722071, "name": "On or near Durham Way"}, "longitude": "-1.337955"}, "context": "", "outcome_status": null, "persistent_id": "", "id": 119772977, "location_subtype": "", "month": "2024-06"}, {"category": "anti-social-behaviour", "location_type": "Force", "location": {"latitude": "53.428209", "street": {"id": 1721490, "name": "On or near Sherwood Crescent"}, "longitude": "-1.350878"}, "context": "", "outcome_status": null, "persistent_id": "", "id": 119772976, "location_subtype": "", "month": "2024-06"}, {"category": "anti-social-behaviour", "location_type": "Force", "location": {"latitude": "53.406551", "street": {"id": 1719148, "name": "On or near Park/open Space"}, "longitude": "-1.408880"}, "context": "", "outcome_status": null, "persistent_id": "", "id": 119772965, "location_subtype": "", "month": "2024-06"}, {"category": "anti-social-behaviour", "location_type": "Force", "location": {"latitude": "53.386622", "street": {"id": 1718780, "name": "On or near Pollitt Close"}, "longitude": "-1.415952"}, "context": "", "outcome_status": null, "persistent_id": "", "id": 119772963, "location_subtype": "", "month": "2024-06"}, {"category": "anti-social-behaviour", "location_type": "Force", "location": {"latitude": "53.399992", "street": {"id": 1718032, "name": "On or near Don Road"}, "longitude": "-1.431756"}, "context": "", "outcome_status": null, "persistent_id": "", "id": 119772961, "location_subtype": "", "month": "2024-06"}, {"category": "anti-social-behaviour", "location_type": "Force", "location": {"latitude": "53.437602", "street": {"id": 1717896, "name": "On or near Grange Mill Lane"}, "longitude": "-1.433874"}, "context": "", "outcome_status": null, "persistent_id": "", "id": 119772960, "location_subtype": "", "month": "2024-06"}, {"category": "anti-social-behaviour", "location_type": "Force", "location": {"latitude": "53.433892", "street": {"id": 1717718, "name": "On or near Woolley Wood Road"}, "longitude": "-1.438259"}, "context": "", "outcome_status": null, "persistent_id": "", "id": 119772959, "location_subtype": "", "month": "2024-06"}, {"category": "anti-social-behaviour", "location_type": "Force", "location": {"latitude": "53.375042", "street": {"id": 1716349, "name": "On or near Granville Street"}, "longitude": "-1.461444"}, "context": "", "outcome_status": null, "persistent_id": "", "id": 119772956, "location_subtype": "", "month": "2024-06"}, {"category": "anti-social-behaviour", "location_type": "Force", "location": {"latitude": "53.408293", "street": {"id": 1717345, "name": "On or near Page Hall Road"}, "longitude": "-1.446057"}, "context": "", "outcome_status": null, "persistent_id": "", "id": 119782476, "location_subtype": "", "month": "2024-06"}, {"category": "anti-social-behaviour", "location_type": "Force", "location": {"latitude": "53.352170", "street": {"id": 1717410, "name": "On or near Spotswood Drive"}, "longitude": "-1.444771"}, "context": "", "outcome_status": null, "persistent_id": "", "id": 119782478, "location_subtype": "", "month": "2024-06"}, {"category": "anti-social-behaviour", "location_type": "Force", "location": {"latitude": "53.436852", "street": {"id": 1717488, "name": "On or near Paper Mill Road"}, "longitude": "-1.442615"}, "context": "", "outcome_status": null, "persistent_id": "", "id": 119782480, "location_subtype": "", "month": "2024-06"}, {"category": "anti-social-behaviour", "location_type": "Force", "location": {"latitude": "53.418723", "street": {"id": 1717599, "name": "On or near Lilac Road"}, "longitude": "-1.442822"}, "context": "", "outcome_status": null, "persistent_id": "", "id": 119782481, "location_subtype": "", "month": "2024-06"}, {"category": "anti-social-behaviour", "location_type": "Force", "location": {"latitude": "53.418129", "street": {"id": 1718018, "name": "On or near Maple Croft Road"}, "longitude": "-1.431364"}, "context": "", "outcome_status": null, "persistent_id": "", "id": 119782483, "location_subtype": "", "month": "2024-06"}, {"category": "anti-social-behaviour", "location_type": "Force", "location": {"latitude": "53.378230", "street": {"id": 1715670, "name": "On or near Union Street"}, "longitude": "-1.470679"}, "context": "", "outcome_status": null, "persistent_id": "", "id": 119772954, "location_subtype": "", "month": "2024-06"}, {"category": "anti-social-behaviour", "location_type": "Force", "location": {"latitude": "53.339451", "street": {"id": 1715331, "name": "On or near Bole Hill"}, "longitude": "-1.472466"}, "context": "", "outcome_status": null, "persistent_id": "", "id": 119772953, "location_subtype": "", "month": "2024-06"}, {"category": "anti-social-behaviour", "location_type": "Force", "location": {"latitude": "53.329907", "street": {"id": 1715345, "name": "On or near Little Norton Drive"}, "longitude": "-1.472989"}, "context": "", "outcome_status": null, "persistent_id": "", "id": 119772952, "location_subtype": "", "month": "2024-06"}, {"category": "anti-social-behaviour", "location_type": "Force", "location": {"latitude": "53.379832", "street": {"id": 1715247, "name": "On or near Rockingham Street"}, "longitude": "-1.475319"}, "context": "", "outcome_status": null, "persistent_id": "", "id": 119772950, "location_subtype": "", "month": "2024-06"}, {"category": "anti-social-behaviour", "location_type": "Force", "location": {"latitude": "53.382937", "street": {"id": 1714387, "name": "On or near Brightmore Drive"}, "longitude": "-1.484437"}, "context": "", "outcome_status": null, "persistent_id": "", "id": 119772948, "location_subtype": "", "month": "2024-06"}, {"category": "anti-social-behaviour", "location_type": "Force", "location": {"latitude": "53.313134", "street": {"id": 1711821, "name": "On or near Green Oak Avenue"}, "longitude": "-1.533278"}, "context": "", "outcome_status": null, "persistent_id": "", "id": 119772939, "location_subtype": "", "month": "2024-06"}, {"category": "anti-social-behaviour", "location_type": "Force", "location": {"latitude": "53.321704", "street": {"id": 1711459, "name": "On or near Old Hay Lane"}, "longitude": "-1.543588"}, "context": "", "outcome_status": null, "persistent_id": "", "id": 119772938, "location_subtype": "", "month": "2024-06"}, {"category": "anti-social-behaviour", "location_type": "Force", "location": {"latitude": "53.479843", "street": {"id": 1711051, "name": "On or near New Street"}, "longitude": "-1.578328"}, "context": "", "outcome_status": null, "persistent_id": "", "id": 119772935, "location_subtype": "", "month": "2024-06"}, {"category": "anti-social-behaviour", "location_type": "Force", "location": {"latitude": "53.424131", "street": {"id": 1722356, "name": "On or near Spenser Road"}, "longitude": "-1.331814"}, "context": "", "outcome_status": null, "persistent_id": "", "id": 119772428, "location_subtype": "", "month": "2024-06"}, {"category": "anti-social-behaviour", "location_type": "Force", "location": {"latitude": "53.348330", "street": {"id": 1719406, "name": "On or near Smalldale Road"}, "longitude": "-1.401529"}, "context": "", "outcome_status": null, "persistent_id": "", "id": 119772421, "location_subtype": "", "month": "2024-06"}, {"category": "anti-social-behaviour", "location_type": "Force", "location": {"latitude": "53.421652", "street": {"id": 1718677, "name": "On or near Eccles Street"}, "longitude": "-1.418030"}, "context": "", "outcome_status": null, "persistent_id": "", "id": 119780389, "location_subtype": "", "month": "2024-06"}, {"category": "anti-social-behaviour", "location_type": "Force", "location": {"latitude": "53.371887", "street": {"id": 1718725, "name": "On or near Supermarket"}, "longitude": "-1.417401"}, "context": "", "outcome_status": null, "persistent_id": "", "id": 119780391, "location_subtype": "", "month": "2024-06"}, {"category": "anti-social-behaviour", "location_type": "Force", "location": {"latitude": "53.348265", "street": {"id": 1719205, "name": "On or near Fox Lane View"}, "longitude": "-1.408259"}, "context": "", "outcome_status": null, "persistent_id": "", "id": 119772419, "location_subtype": "", "month": "2024-06"}, {"category": "anti-social-behaviour", "location_type": "Force", "location": {"latitude": "53.344616", "street": {"id": 1718871, "name": "On or near Jaunty View"}, "longitude": "-1.412095"}, "context": "", "outcome_status": null, "persistent_id": "", "id": 119772418, "location_subtype": "", "month": "2024-06"}, {"category": "anti-social-behaviour", "location_type": "Force", "location": {"latitude": "53.394765", "street": {"id": 1718993, "name": "On or near Palmer Road"}, "longitude": "-1.412292"}, "context": "", "outcome_status": null, "persistent_id": "", "id": 119772416, "location_subtype": "", "month": "2024-06"}, {"category": "anti-social-behaviour", "location_type": "Force", "location": {"latitude": "53.383108", "street": {"id": 1718850, "name": "On or near Colister Drive"}, "longitude": "-1.414376"}, "context": "", "outcome_status": null, "persistent_id": "", "id": 119772415, "location_subtype": "", "month": "2024-06"},