[{"category": "anti-social-behaviour", "location_type": "Force", "location": {"latitude": "53.429090", "street": {"id": 1720796, "name": "On or near Providence Street"}, "longitude": "-1.367601"}, "context": "", "outcome_status": null, "persistent_id": "", "id": 130078293, "location_subtype": "", "month": "2025-07"}, {"category": "anti-social-behaviour", "location_type": "Force", "location": {"latitude": "53.435336", "street": {"id": 1720642, "name": "On or near Rodger Street"}, "longitude": "-1.369134"}, "context": "", "outcome_status": null, "persistent_id": "", "id": 130081325, "location_subtype": "", "month": "2025-07"}, {"category": "anti-social-behaviour", "location_type": "Force", "location": {"latitude": "53.454840", "street": {"id": 1720741, "name": "On or near Main Street"}, "longitude": "-1.368890"}, "context": "", "outcome_status": null, "persistent_id": "", "id": 130081324, "location_subtype": "", "month": "2025-07"}, {"category": "anti-social-behaviour", "location_type": "Force", "location": {"latitude": "53.430172", "street": {"id": 1720332, "name": "On or near Ferham Park Avenue"}, "longitude": "-1.378632"}, "context": "", "outcome_status": null, "persistent_id": "", "id": 130081321, "location_subtype": "", "month": "2025-07"}, {"category": "anti-social-behaviour", "location_type": "Force", "location": {"latitude": "53.431357", "street": {"id": 1720117, "name": "On or near Meadow Street"}, "longitude": "-1.381685"}, "context": "", "outcome_status": null, "persistent_id": "", "id": 130081320, "location_subtype": "", "month": "2025-07"}, {"category": "anti-social-behaviour", "location_type": "Force", "location": {"latitude": "53.346367", "street": {"id": 1719995, "name": "On or near Spring Water Drive"}, "longitude": "-1.384973"}, "context": "", "outcome_status": null, "persistent_id": "", "id": 130081319, "location_subtype": "", "month": "2025-07"}, {"category": "anti-social-behaviour", "location_type": "Force", "location": {"latitude": "53.453849", "street": {"id": 1719723, "name": "On or near Lapwater Road"}, "longitude": "-1.389114"}, "context": "", "outcome_status": null, "persistent_id": "", "id": 130081317, "location_subtype": "", "month": "2025-07"}, {"category": "anti-social-behaviour", "location_type": "Force", "location": {"latitude": "53.343995", "street": {"id": 1719809, "name": "On or near Fern View Close"}, "longitude": "-1.390309"}, "context": "", "outcome_status": null, "persistent_id": "", "id": 130081316, "location_subtype": "", "month": "2025-07"}, {"category": "anti-social-behaviour", "location_type": "Force", "location": {"latitude": "53.360844", "street": {"id": 1719741, "name": "On or near Smelter Wood Rise"}, "longitude": "-1.391181"}, "context": "", "outcome_status": null, "persistent_id": "", "id": 130081315, "location_subtype": "", "month": "2025-07"}, {"category": "anti-social-behaviour", "location_type": "Force", "location": {"latitude": "53.429247", "street": {"id": 1719567, "name": "On or near Bennett Street"}, "longitude": "-1.396179"}, "context": "", "outcome_status": null, "persistent_id": "", "id": 130081314, "location_subtype": "", "month": "2025-07"}, {"category": "anti-social-behaviour", "location_type": "Force", "location": {"latitude": "53.351045", "street": {"id": 1719455, "name": "On or near Alport Avenue"}, "longitude": "-1.397990"}, "context": "", "outcome_status": null, "persistent_id": "", "id": 130081313, "location_subtype": "", "month": "2025-07"}, {"category": "anti-social-behaviour", "location_type": "Force", "location": {"latitude": "53.414122", "street": {"id": 1719387, "name": "On or near Town Street"}, "longitude": "-1.400455"}, "context": "", "outcome_status": null, "persistent_id": "", "id": 130081312, "location_subtype": "", "month": "2025-07"}, {"category": "anti-social-behaviour", "location_type": "Force", "location": {"latitude": "53.390612", "street": {"id": 1711775, "name": "On or near Hall Park Hill"}, "longitude": "-1.534536"}, "context": "", "outcome_status": null, "persistent_id": "", "id": 130081832, "location_subtype": "", "month": "2025-07"}, {"category": "anti-social-behaviour", "location_type": "Force", "location": {"latitude": "53.436115", "street": {"id": 1717525, "name": "On or near Butterthwaite Crescent"}, "longitude": "-1.442655"}, "context": "", "outcome_status": null, "persistent_id": "", "id": 130081302, "location_subtype": "", "month": "2025-07"}, {"category": "anti-social-behaviour", "location_type": "Force", "location": {"latitude": "53.384087", "street": {"id": 1717242, "name": "On or near Aston Street"}, "longitude": "-1.446251"}, "context": "", "outcome_status": null, "persistent_id": "", "id": 130081301, "location_subtype": "", "month": "2025-07"}, {"category": "anti-social-behaviour", "location_type": "Force", "location": {"latitude": "53.386764", "street": {"id": 1716743, "name": "On or near Blast Lane"}, "longitude": "-1.455673"}, "context": "", "outcome_status": null, "persistent_id": "", "id": 130081300, "location_subtype": "", "month": "2025-07"}, {"category": "anti-social-behaviour", "location_type": "Force", "location": {"latitude": "53.311020", "street": {"id": 1711807, "name": "On or near Rowan Tree Dell"}, "longitude": "-1.532896"}, "context": "", "outcome_status": null, "persistent_id": "", "id": 130081833, "location_subtype": "", "month": "2025-07"}, {"category": "anti-social-behaviour", "location_type": "Force", "location": {"latitude": "53.426925", "street": {"id": 1716597, "name": "On or near Parking Area"}, "longitude": "-1.457554"}, "context": "", "outcome_status": null, "persistent_id": "", "id": 130081299, "location_subtype": "", "month": "2025-07"}, {"category": "anti-social-behaviour", "location_type": "Force", "location": {"latitude": "53.390433", "street": {"id": 1711844, "name": "On or near Fairbarn Place"}, "longitude": "-1.532358"}, "context": "", "outcome_status": null, "persistent_id": "", "id": 130081834, "location_subtype": "", "month": "2025-07"}, {"category": "anti-social-behaviour", "location_type": "Force", "location": {"latitude": "53.466921", "street": {"id": 1716228, "name": "On or near Coppice Rise"}, "longitude": "-1.462738"}, "context": "", "outcome_status": null, "persistent_id": "", "id": 130081298, "location_subtype": "", "month": "2025-07"}, {"category": "anti-social-behaviour", "location_type": "Force", "location": {"latitude": "53.393591", "street": {"id": 1716316, "name": "On or near Richmond Street"}, "longitude": "-1.462489"}, "context": "", "outcome_status": null, "persistent_id": "", "id": 130081297, "location_subtype": "", "month": "2025-07"}, {"category": "anti-social-behaviour", "location_type": "Force", "location": {"latitude": "53.387172", "street": {"id": 1716203, "name": "On or near Joiner Street"}, "longitude": "-1.464374"}, "context": "", "outcome_status": null, "persistent_id": "", "id": 130081296, "location_subtype": "", "month": "2025-07"}, {"category": "anti-social-behaviour", "location_type": "Force", "location": {"latitude": "53.461650", "street": {"id": 1715968, "name": "On or near Market Place"}, "longitude": "-1.465832"}, "context": "", "outcome_status": null, "persistent_id": "", "id": 130081294, "location_subtype": "", "month": "2025-07"}, {"category": "anti-social-behaviour", "location_type": "Force", "location": {"latitude": "53.409764", "street": {"id": 1712555, "name": "On or near Braemore Road"}, "longitude": "-1.513447"}, "context": "", "outcome_status": null, "persistent_id": "", "id": 130081835, "location_subtype": "", "month": "2025-07"}, {"category": "anti-social-behaviour", "location_type": "Force", "location": {"latitude": "53.390581", "street": {"id": 1712746, "name": "On or near Sports/recreation Area"}, "longitude": "-1.509260"}, "context": "", "outcome_status": null, "persistent_id": "", "id": 130081836, "location_subtype": "", "month": "2025-07"}, {"category": "anti-social-behaviour", "location_type": "Force", "location": {"latitude": "53.379899", "street": {"id": 1714975, "name": "On or near Parking Area"}, "longitude": "-1.478325"}, "context": "", "outcome_status": null, "persistent_id": "", "id": 130081841, "location_subtype": "", "month": "2025-07"}, {"category": "anti-social-behaviour", "location_type": "Force", "location": {"latitude": "53.387130", "street": {"id": 1715953, "name": "On or near Millsands"}, "longitude": "-1.466915"}, "context": "", "outcome_status": null, "persistent_id": "", "id": 130081293, "location_subtype": "", "month": "2025-07"}, {"category": "anti-social-behaviour", "location_type": "Force", "location": {"latitude": "53.363133", "street": {"id": 1715217, "name": "On or near Gamston Road"}, "longitude": "-1.475675"}, "context": "", "outcome_status": null, "persistent_id": "", "id": 130081842, "location_subtype": "", "month": "2025-07"}, {"category": "anti-social-behaviour", "location_type": "Force", "location": {"latitude": "53.380041", "street": {"id": 1715348, "name": "On or near Carver Street"}, "longitude": "-1.473829"}, "context": "", "outcome_status": null, "persistent_id": "", "id": 130081843, "location_subtype": "", "month": "2025-07"}, {"category": "anti-social-behaviour", "location_type": "Force", "location": {"latitude": "53.440945", "street": {"id": 1715859, "name": "On or near Feoffees Road"}, "longitude": "-1.466980"}, "context": "", "outcome_status": null, "persistent_id": "", "id": 130081292, "location_subtype": "", "month": "2025-07"}, {"category": "anti-social-behaviour", "location_type": "Force", "location": {"latitude": "53.382697", "street": {"id": 1715851, "name": "On or near East Parade"}, "longitude": "-1.468624"}, "context": "", "outcome_status": null, "persistent_id": "", "id": 130081291, "location_subtype": "", "month": "2025-07"}, {"category": "anti-social-behaviour", "location_type": "Force", "location": {"latitude": "53.382328", "street": {"id": 1715467, "name": "On or near Pinfold Street"}, "longitude": "-1.472553"}, "context": "", "outcome_status": null, "persistent_id": "", "id": 130081289, "location_subtype": "", "month": "2025-07"}, {"category": "anti-social-behaviour", "location_type": "Force", "location": {"latitude": "53.375907", "street": {"id": 1715573, "name": "On or near Parking Area"}, "longitude": "-1.472001"}, "context": "", "outcome_status": null, "persistent_id": "", "id": 130081844, "location_subtype": "", "month": "2025-07"}, {"category": "anti-social-behaviour", "location_type": "Force", "location": {"latitude": "53.388883", "street": {"id": 1715273, "name": "On or near Dun Fields"}, "longitude": "-1.475208"}, "context": "", "outcome_status": null, "persistent_id": "", "id": 130081288, "location_subtype": "", "month": "2025-07"}, {"category": "anti-social-behaviour", "location_type": "Force", "location": {"latitude": "53.456580", "street": {"id": 1715292, "name": "On or near Pinecroft Way"}, "longitude": "-1.473877"}, "context": "", "outcome_status": null, "persistent_id": "", "id": 130081287, "location_subtype": "", "month": "2025-07"}, {"category": "anti-social-behaviour", "location_type": "Force", "location": {"latitude": "53.447991", "street": {"id": 1721756, "name": "On or near Rail Mill Way"}, "longitude": "-1.343831"}, "context": "", "outcome_status": null, "persistent_id": "", "id": 130081874, "location_subtype": "", "month": "2025-07"}, {"category": "anti-social-behaviour", "location_type": "Force", "location": {"latitude": "53.369390", "street": {"id": 1715041, "name": "On or near Keeton's Hill"}, "longitude": "-1.477973"}, "context": "", "outcome_status": null, "persistent_id": "", "id": 130081286, "location_subtype": "", "month": "2025-07"}, {"category": "anti-social-behaviour", "location_type": "Force", "location": {"latitude": "53.424581", "street": {"id": 1722427, "name": "On or near Marlowe Road"}, "longitude": "-1.328707"}, "context": "", "outcome_status": null, "persistent_id": "", "id": 130081875, "location_subtype": "", "month": "2025-07"}, {"category": "anti-social-behaviour", "location_type": "Force", "location": {"latitude": "53.362297", "street": {"id": 1722406, "name": "On or near Park Hill"}, "longitude": "-1.328604"}, "context": "", "outcome_status": null, "persistent_id": "", "id": 130081876, "location_subtype": "", "month": "2025-07"}, {"category": "anti-social-behaviour", "location_type": "Force", "location": {"latitude": "53.417303", "street": {"id": 1715006, "name": "On or near Southey Place"}, "longitude": "-1.476619"}, "context": "", "outcome_status": null, "persistent_id": "", "id": 130081285, "location_subtype": "", "month": "2025-07"}, {"category": "anti-social-behaviour", "location_type": "Force", "location": {"latitude": "53.358541", "street": {"id": 1722457, "name": "On or near Chesterfield Road"}, "longitude": "-1.327220"}, "context": "", "outcome_status": null, "persistent_id": "", "id": 130081877, "location_subtype": "", "month": "2025-07"}, {"category": "anti-social-behaviour", "location_type": "Force", "location": {"latitude": "53.430564", "street": {"id": 1722512, "name": "On or near Arnold Road"}, "longitude": "-1.326430"}, "context": "", "outcome_status": null, "persistent_id": "", "id": 130081878, "location_subtype": "", "month": "2025-07"}, {"category": "anti-social-behaviour", "location_type": "Force", "location": {"latitude": "53.345905", "street": {"id": 1714561, "name": "On or near Cartmell Crescent"}, "longitude": "-1.482630"}, "context": "", "outcome_status": null, "persistent_id": "", "id": 130081281, "location_subtype": "", "month": "2025-07"}, {"category": "anti-social-behaviour", "location_type": "Force", "location": {"latitude": "53.422584", "street": {"id": 1713776, "name": "On or near Supermarket"}, "longitude": "-1.491846"}, "context": "", "outcome_status": null, "persistent_id": "", "id": 130081280, "location_subtype": "", "month": "2025-07"}, {"category": "anti-social-behaviour", "location_type": "Force", "location": {"latitude": "53.477636", "street": {"id": 1710999, "name": "On or near Broadhead Road"}, "longitude": "-1.582087"}, "context": "", "outcome_status": null, "persistent_id": "", "id": 130079261, "location_subtype": "", "month": "2025-07"}, {"category": "anti-social-behaviour", "location_type": "Force", "location": {"latitude": "53.312831", "street": {"id": 1711925, "name": "On or near Aldam Croft"}, "longitude": "-1.529559"}, "context": "", "outcome_status": null, "persistent_id": "", "id": 130079262, "location_subtype": "", "month": "2025-07"}, {"category": "anti-social-behaviour", "location_type": "Force", "location": {"latitude": "53.410377", "street": {"id": 1712761, "name": "On or near Wadsley Lane"}, "longitude": "-1.509589"}, "context": "", "outcome_status": null, "persistent_id": "", "id": 130079263, "location_subtype": "", "month": "2025-07"}, {"category": "anti-social-behaviour", "location_type": "Force", "location": {"latitude": "53.402644", "street": {"id": 1713181, "name": "On or near Hillsborough Road"}, "longitude": "-1.502338"}, "context": "", "outcome_status": null, "persistent_id": "", "id": 130079264, "location_subtype": "", "month": "2025-07"}, {"category": "anti-social-behaviour", "location_type": "Force", "location": {"latitude": "53.470645", "street": {"id": 1713715, "name": "On or near Angram View"}, "longitude": "-1.494388"}, "context": "", "outcome_status": null, "persistent_id": "", "id": 130079265, "location_subtype": "", "month": "2025-07"}, {"category": "anti-social-behaviour", "location_type": "Force", "location": {"latitude": "53.345905", "street": {"id": 1714561, "name": "On or near Cartmell Crescent"}, "longitude": "-1.482630"}, "context": "", "outcome_status": null, "persistent_id": "", "id": 130079266, "location_subtype": "", "month": "2025-07"}, {"category": "anti-social-behaviour", "location_type": "Force", "location": {"latitude": "53.417375", "street": {"id": 1715294, "name": "On or near Raisen Hall Road"}, "longitude": "-1.474602"}, "context": "", "outcome_status": null, "persistent_id": "", "id": 130079268, "location_subtype": "", "month": "2025-07"}, {"category": "anti-social-behaviour", "location_type": "Force", "location": {"latitude": "53.327210", "street": {"id": 1715229, "name": "On or near Petrol Station"}, "longitude": "-1.474764"}, "context": "", "outcome_status": null, "persistent_id": "", "id": 130079269, "location_subtype": "", "month": "2025-07"}, {"category": "anti-social-behaviour", "location_type": "Force", "location": {"latitude": "53.367523", "street": {"id": 1715539, "name": "On or near Alderson Road"}, "longitude": "-1.472375"}, "context": "", "outcome_status": null, "persistent_id": "", "id": 130079270, "location_subtype": "", "month": "2025-07"}, {"category": "anti-social-behaviour", "location_type": "Force", "location": {"latitude": "53.380604", "street": {"id": 1715626, "name": "On or near Barker's Pool"}, "longitude": "-1.471025"}, "context": "", "outcome_status": null, "persistent_id": "", "id": 130079271, "location_subtype": "", "month": "2025-07"}, {"category": "anti-social-behaviour", "location_type": "Force", "location": {"latitude": "53.383992", "street": {"id": 1715802, "name": "On or near St Peter's Close"}, "longitude": "-1.468804"}, "context": "", "outcome_status": null, "persistent_id": "", "id": 130079272, "location_subtype": "", "month": "2025-07"}, {"category": "anti-social-behaviour", "location_type": "Force", "location": {"latitude": "53.416312", "street": {"id": 1715998, "name": "On or near Longley Crescent"}, "longitude": "-1.466084"}, "context": "", "outcome_status": null, "persistent_id": "", "id": 130079273, "location_subtype": "", "month": "2025-07"}, {"category": "anti-social-behaviour", "location_type": "Force", "location": {"latitude": "53.383629", "street": {"id": 1716093, "name": "On or near Angel Street"}, "longitude": "-1.465952"}, "context": "", "outcome_status": null, "persistent_id": "", "id": 130079274, "location_subtype": "", "month": "2025-07"}, {"category": "anti-social-behaviour", "location_type": "Force", "location": {"latitude": "53.461650", "street": {"id": 1715968, "name": "On or near Market Place"}, "longitude": "-1.465832"}, "context": "", "outcome_status": null, "persistent_id": "", "id": 130079275, "location_subtype": "", "month": "2025-07"}, {"category": "anti-social-behaviour", "location_type": "Force", "location": {"latitude": "53.412339", "street": {"id": 1716242, "name": "On or near Longley Drive"}, "longitude": "-1.463952"}, "context": "", "outcome_status": null, "persistent_id": "", "id": 130079276, "location_subtype": "", "month": "2025-07"}, {"category": "anti-social-behaviour", "location_type": "Force", "location": {"latitude": "53.359651", "street": {"id": 1716188, "name": "On or near Denson Close"}, "longitude": "-1.464839"}, "context": "", "outcome_status": null, "persistent_id": "", "id": 130079277, "location_subtype": "", "month": "2025-07"}, {"category": "anti-social-behaviour", "location_type": "Force", "location": {"latitude": "53.385288", "street": {"id": 1716268, "name": "On or near Castlegate"}, "longitude": "-1.463179"}, "context": "", "outcome_status": null, "persistent_id": "", "id": 130079278, "location_subtype": "", "month": "2025-07"}, {"category": "anti-social-behaviour", "location_type": "Force", "location": {"latitude": "53.417531", "street": {"id": 1713791, "name": "On or near Binsted Road"}, "longitude": "-1.492189"}, "context": "", "outcome_status": null, "persistent_id": "", "id": 130081279, "location_subtype": "", "month": "2025-07"}, {"category": "anti-social-behaviour", "location_type": "Force", "location": {"latitude": "53.367462", "street": {"id": 1713521, "name": "On or near Parking Area"}, "longitude": "-1.497999"}, "context": "", "outcome_status": null, "persistent_id": "", "id": 130081278, "location_subtype": "", "month": "2025-07"}, {"category": "anti-social-behaviour", "location_type": "Force", "location": {"latitude": "53.406961", "street": {"id": 1713464, "name": "On or near Broughton Road"}, "longitude": "-1.498587"}, "context": "", "outcome_status": null, "persistent_id": "", "id": 130081277, "location_subtype": "", "month": "2025-07"}, {"category": "anti-social-behaviour", "location_type": "Force", "location": {"latitude": "53.409837", "street": {"id": 1713011, "name": "On or near Willis Road"}, "longitude": "-1.505037"}, "context": "", "outcome_status": null, "persistent_id": "", "id": 130081275, "location_subtype": "", "month": "2025-07"}, {"category": "anti-social-behaviour", "location_type": "Force", "location": {"latitude": "53.363721", "street": {"id": 1722535, "name": "On or near Rotherham Road"}, "longitude": "-1.324404"}, "context": "", "outcome_status": null, "persistent_id": "", "id": 130081879, "location_subtype": "", "month": "2025-07"}, {"category": "anti-social-behaviour", "location_type": "Force", "location": {"latitude": "53.339645", "street": {"id": 1722407, "name": "On or near Meadow Gate Avenue"}, "longitude": "-1.330086"}, "context": "", "outcome_status": null, "persistent_id": "", "id": 130077326, "location_subtype": "", "month": "2025-07"}, {"category": "anti-social-behaviour", "location_type": "Force", "location": {"latitude": "53.435278", "street": {"id": 1721872, "name": "On or near St Leonard's Lane"}, "longitude": "-1.341799"}, "context": "", "outcome_status": null, "persistent_id": "", "id": 130077323, "location_subtype": "", "month": "2025-07"}, {"category": "anti-social-behaviour", "location_type": "Force", "location": {"latitude": "53.365434", "street": {"id": 1722617, "name": "On or near Nursery Road"}, "longitude": "-1.323730"}, "context": "", "outcome_status": null, "persistent_id": "", "id": 130081880, "location_subtype": "", "month": "2025-07"}, {"category": "anti-social-behaviour", "location_type": "Force", "location": {"latitude": "53.364080", "street": {"id": 1722604, "name": "On or near School Street"}, "longitude": "-1.324293"}, "context": "", "outcome_status": null, "persistent_id": "", "id": 130081881, "location_subtype": "", "month": "2025-07"}, {"category": "anti-social-behaviour", "location_type": "Force", "location": {"latitude": "53.456481", "street": {"id": 1721900, "name": "On or near Ryan Place"}, "longitude": "-1.343113"}, "context": "", "outcome_status": null, "persistent_id": "", "id": 130077322, "location_subtype": "", "month": "2025-07"}, {"category": "anti-social-behaviour", "location_type": "Force", "location": {"latitude": "53.363500", "street": {"id": 1722692, "name": "On or near Queens Road"}, "longitude": "-1.321867"}, "context": "", "outcome_status": null, "persistent_id": "", "id": 130081882, "location_subtype": "", "month": "2025-07"}, {"category": "anti-social-behaviour", "location_type": "Force", "location": {"latitude": "53.387568", "street": {"id": 1720891, "name": "On or near Highfield Lane"}, "longitude": "-1.365419"}, "context": "", "outcome_status": null, "persistent_id": "", "id": 130077321, "location_subtype": "", "month": "2025-07"}, {"category": "anti-social-behaviour", "location_type": "Force", "location": {"latitude": "53.390738", "street": {"id": 1720737, "name": "On or near Woodland Close"}, "longitude": "-1.368214"}, "context": "", "outcome_status": null, "persistent_id": "", "id": 130077320, "location_subtype": "", "month": "2025-07"}, {"category": "anti-social-behaviour", "location_type": "Force", "location": {"latitude": "53.474799", "street": {"id": 1720731, "name": "On or near Stubbin Road"}, "longitude": "-1.367991"}, "context": "", "outcome_status": null, "persistent_id": "", "id": 130077319, "location_subtype": "", "month": "2025-07"}, {"category": "anti-social-behaviour", "location_type": "Force", "location": {"latitude": "53.408324", "street": {"id": 1720183, "name": "On or near B6067"}, "longitude": "-1.379191"}, "context": "", "outcome_status": null, "persistent_id": "", "id": 130077318, "location_subtype": "", "month": "2025-07"}, {"category": "anti-social-behaviour", "location_type": "Force", "location": {"latitude": "53.447442", "street": {"id": 1719692, "name": "On or near Crane Road"}, "longitude": "-1.393045"}, "context": "", "outcome_status": null, "persistent_id": "", "id": 130077317, "location_subtype": "", "month": "2025-07"}, {"category": "anti-social-behaviour", "location_type": "Force", "location": {"latitude": "53.449734", "street": {"id": 1719382, "name": "On or near Becket Crescent"}, "longitude": "-1.402047"}, "context": "", "outcome_status": null, "persistent_id": "", "id": 130077316, "location_subtype": "", "month": "2025-07"}, {"category": "anti-social-behaviour", "location_type": "Force", "location": {"latitude": "53.416522", "street": {"id": 1718912, "name": "On or near Meadowhall Interchange"}, "longitude": "-1.413015"}, "context": "", "outcome_status": null, "persistent_id": "", "id": 130077315, "location_subtype": "", "month": "2025-07"}, {"category": "anti-social-behaviour", "location_type": "Force", "location": {"latitude": "53.355751", "street": {"id": 1718647, "name": "On or near Foxwood Grove"}, "longitude": "-1.418973"}, "context": "", "outcome_status": null, "persistent_id": "", "id": 130077314, "location_subtype": "", "month": "2025-07"}, {"category": "anti-social-behaviour", "location_type": "Force", "location": {"latitude": "53.361849", "street": {"id": 1718177, "name": "On or near Queen Mary Mews"}, "longitude": "-1.428958"}, "context": "", "outcome_status": null, "persistent_id": "", "id": 130077312, "location_subtype": "", "month": "2025-07"}, {"category": "anti-social-behaviour", "location_type": "Force", "location": {"latitude": "53.418961", "street": {"id": 1717953, "name": "On or near Tenterden Road"}, "longitude": "-1.434182"}, "context": "", "outcome_status": null, "persistent_id": "", "id": 130077311, "location_subtype": "", "month": "2025-07"}, {"category": "anti-social-behaviour", "location_type": "Force", "location": {"latitude": "53.360832", "street": {"id": 1717761, "name": "On or near Northern Avenue"}, "longitude": "-1.438153"}, "context": "", "outcome_status": null, "persistent_id": "", "id": 130077309, "location_subtype": "", "month": "2025-07"}, {"category": "anti-social-behaviour", "location_type": "Force", "location": {"latitude": "53.408932", "street": {"id": 1712711, "name": "On or near Balmain Drive"}, "longitude": "-1.510027"}, "context": "", "outcome_status": null, "persistent_id": "", "id": 130081274, "location_subtype": "", "month": "2025-07"}, {"category": "anti-social-behaviour", "location_type": "Force", "location": {"latitude": "53.419300", "street": {"id": 1723295, "name": "On or near Petrol Station"}, "longitude": "-1.307423"}, "context": "", "outcome_status": null, "persistent_id": "", "id": 130073925, "location_subtype": "", "month": "2025-07"}, {"category": "anti-social-behaviour", "location_type": "Force", "location": {"latitude": "53.419816", "street": {"id": 1723329, "name": "On or near Bawtry Road"}, "longitude": "-1.306527"}, "context": "", "outcome_status": null, "persistent_id": "", "id": 130085482, "location_subtype": "", "month": "2025-07"}, {"category": "anti-social-behaviour", "location_type": "Force", "location": {"latitude": "53.339645", "street": {"id": 1722407, "name": "On or near Meadow Gate Avenue"}, "longitude": "-1.330086"}, "context": "", "outcome_status": null, "persistent_id": "", "id": 130085479, "location_subtype": "", "month": "2025-07"}, {"category": "anti-social-behaviour", "location_type": "Force", "location": {"latitude": "53.438136", "street": {"id": 1722638, "name": "On or near Mowbray Place"}, "longitude": "-1.322426"}, "context": "", "outcome_status": null, "persistent_id": "", "id": 130085477, "location_subtype": "", "month": "2025-07"}, {"category": "anti-social-behaviour", "location_type": "Force", "location": {"latitude": "53.406704", "street": {"id": 1722633, "name": "On or near Mill Hill"}, "longitude": "-1.322550"}, "context": "", "outcome_status": null, "persistent_id": "", "id": 130085476, "location_subtype": "", "month": "2025-07"}, {"category": "anti-social-behaviour", "location_type": "Force", "location": {"latitude": "53.334913", "street": {"id": 1721774, "name": "On or near Owlthorpe Greenway"}, "longitude": "-1.343915"}, "context": "", "outcome_status": null, "persistent_id": "", "id": 130085475, "location_subtype": "", "month": "2025-07"}, {"category": "anti-social-behaviour", "location_type": "Force", "location": {"latitude": "53.429232", "street": {"id": 1721762, "name": "On or near Parkfield Road"}, "longitude": "-1.344015"}, "context": "", "outcome_status": null, "persistent_id": "", "id": 130085474, "location_subtype": "", "month": "2025-07"}, {"category": "anti-social-behaviour", "location_type": "Force", "location": {"latitude": "53.331036", "street": {"id": 1721562, "name": "On or near Westfield Centre"}, "longitude": "-1.349996"}, "context": "", "outcome_status": null, "persistent_id": "", "id": 130085473, "location_subtype": "", "month": "2025-07"}, {"category": "anti-social-behaviour", "location_type": "Force", "location": {"latitude": "53.338604", "street": {"id": 1721327, "name": "On or near Ochre Dike Close"}, "longitude": "-1.354927"}, "context": "", "outcome_status": null, "persistent_id": "", "id": 130085472, "location_subtype": "", "month": "2025-07"}, {"category": "anti-social-behaviour", "location_type": "Force", "location": {"latitude": "53.404735", "street": {"id": 1720917, "name": "On or near Brownlee Close"}, "longitude": "-1.365029"}, "context": "", "outcome_status": null, "persistent_id": "", "id": 130085471, "location_subtype": "", "month": "2025-07"}, {"category": "anti-social-behaviour", "location_type": "Force", "location": {"latitude": "53.385815", "street": {"id": 1720849, "name": "On or near Woodhouse View"}, "longitude": "-1.366934"}, "context": "", "outcome_status": null, "persistent_id": "", "id": 130085469, "location_subtype": "", "month": "2025-07"}, {"category": "anti-social-behaviour", "location_type": "Force", "location": {"latitude": "53.343441", "street": {"id": 1720791, "name": "On or near Winterton Gardens"}, "longitude": "-1.366825"}, "context": "", "outcome_status": null, "persistent_id": "", "id": 130085468, "location_subtype": "", "month": "2025-07"}, {"category": "anti-social-behaviour", "location_type": "Force", "location": {"latitude": "53.447848", "street": {"id": 1716961, "name": "On or near Jumble Lane"}, "longitude": "-1.441312"}, "context": "", "outcome_status": null, "persistent_id": "", "id": 130079804, "location_subtype": "", "month": "2025-07"}, {"category": "anti-social-behaviour", "location_type": "Force", "location": {"latitude": "53.404675", "street": {"id": 1717867, "name": "On or near Petrol Station"}, "longitude": "-1.435424"}, "context": "", "outcome_status": null, "persistent_id": "", "id": 130079805, "location_subtype": "", "month": "2025-07"}, {"category": "anti-social-behaviour", "location_type": "Force", "location": {"latitude": "53.458552", "street": {"id": 1717976, "name": "On or near Sough Hall Road"}, "longitude": "-1.433445"}, "context": "", "outcome_status": null, "persistent_id": "", "id": 130079806, "location_subtype": "", "month": "2025-07"}, {"category": "anti-social-behaviour", "location_type": "Force", "location": {"latitude": "53.367301", "street": {"id": 1718039, "name": "On or near Cary Grove"}, "longitude": "-1.431816"}, "context": "", "outcome_status": null, "persistent_id": "", "id": 130079807, "location_subtype": "", "month": "2025-07"}, {"category": "anti-social-behaviour", "location_type": "Force", "location": {"latitude": "53.392623", "street": {"id": 1718627, "name": "On or near Eleanor Street"}, "longitude": "-1.419073"}, "context": "", "outcome_status": null, "persistent_id": "", "id": 130079808, "location_subtype": "", "month": "2025-07"}, {"category": "anti-social-behaviour", "location_type": "Force", "location": {"latitude": "53.396759", "street": {"id": 1718513, "name": "On or near Sports/recreation Area"}, "longitude": "-1.417442"}, "context": "", "outcome_status": null, "persistent_id": "", "id": 130079809, "location_subtype": "", "month": "2025-07"}, {"category": "anti-social-behaviour", "location_type": "Force", "location": {"latitude": "53.433975", "street": {"id": 1719614, "name": "On or near Peter Street"}, "longitude": "-1.394486"}, "context": "", "outcome_status": null, "persistent_id": "", "id": 130079811, "location_subtype": "", "month": "2025-07"}, {"category": "anti-social-behaviour", "location_type": "Force", "location": {"latitude": "53.375867", "street": {"id": 1719657, "name": "On or near Handsworth Road"}, "longitude": "-1.393522"}, "context": "", "outcome_status": null, "persistent_id": "", "id": 130079812, "location_subtype": "", "month": "2025-07"}, {"category": "anti-social-behaviour", "location_type": "Force", "location": {"latitude": "53.375867", "street": {"id": 1719657, "name": "On or near Handsworth Road"}, "longitude": "-1.393522"}, "context": "", "outcome_status": null, "persistent_id": "", "id": 130079813, "location_subtype": "", "month": "2025-07"}, {"category": "anti-social-behaviour", "location_type": "Force", "location": {"latitude": "53.431263", "street": {"id": 1719939, "name": "On or near Upper Clara Street"}, "longitude": "-1.386232"}, "context": "", "outcome_status": null, "persistent_id": "", "id": 130079814, "location_subtype": "", "month": "2025-07"}, {"category": "anti-social-behaviour", "location_type": "Force", "location": {"latitude": "53.355942", "street": {"id": 1720018, "name": "On or near Ashwell Road"}, "longitude": "-1.383603"}, "context": "", "outcome_status": null, "persistent_id": "", "id": 130079815, "location_subtype": "", "month": "2025-07"}, {"category": "anti-social-behaviour", "location_type": "Force", "location": {"latitude": "53.451415", "street": {"id": 1720526, "name": "On or near Wagon Road"}, "longitude": "-1.373865"}, "context": "", "outcome_status": null, "persistent_id": "", "id": 130079817, "location_subtype": "", "month": "2025-07"}, {"category": "anti-social-behaviour", "location_type": "Force", "location": {"latitude": "53.373058", "street": {"id": 1720365, "name": "On or near Kirkdale Drive"}, "longitude": "-1.375194"}, "context": "", "outcome_status": null, "persistent_id": "", "id": 130079818, "location_subtype": "", "month": "2025-07"}, {"category": "anti-social-behaviour", "location_type": "Force", "location": {"latitude": "53.359340", "street": {"id": 1720502, "name": "On or near Supermarket"}, "longitude": "-1.373467"}, "context": "", "outcome_status": null, "persistent_id": "", "id": 130079819, "location_subtype": "", "month": "2025-07"}, {"category": "anti-social-behaviour", "location_type": "Force", "location": {"latitude": "53.404791", "street": {"id": 1720844, "name": "On or near Field View"}, "longitude": "-1.367239"}, "context": "", "outcome_status": null, "persistent_id": "", "id": 130079820, "location_subtype": "", "month": "2025-07"}, {"category": "anti-social-behaviour", "location_type": "Force", "location": {"latitude": "53.404415", "street": {"id": 1720797, "name": "On or near Parking Area"}, "longitude": "-1.367515"}, "context": "", "outcome_status": null, "persistent_id": "", "id": 130079821, "location_subtype": "", "month": "2025-07"}, {"category": "anti-social-behaviour", "location_type": "Force", "location": {"latitude": "53.404791", "street": {"id": 1720844, "name": "On or near Field View"}, "longitude": "-1.367239"}, "context": "", "outcome_status": null, "persistent_id": "", "id": 130079822, "location_subtype": "", "month": "2025-07"}, {"category": "anti-social-behaviour", "location_type": "Force", "location": {"latitude": "53.429260", "street": {"id": 1721316, "name": "On or near Parking Area"}, "longitude": "-1.354023"}, "context": "", "outcome_status": null, "persistent_id": "", "id": 130079823, "location_subtype": "", "month": "2025-07"}, {"category": "anti-social-behaviour", "location_type": "Force", "location": {"latitude": "53.438135", "street": {"id": 1721694, "name": "On or near Jennings Close"}, "longitude": "-1.347957"}, "context": "", "outcome_status": null, "persistent_id": "", "id": 130079824, "location_subtype": "", "month": "2025-07"}, {"category": "anti-social-behaviour", "location_type": "Force", "location": {"latitude": "53.429057", "street": {"id": 1722188, "name": "On or near Badsley Moor Lane"}, "longitude": "-1.335093"}, "context": "", "outcome_status": null, "persistent_id": "", "id": 130079826, "location_subtype": "", "month": "2025-07"}, {"category": "anti-social-behaviour", "location_type": "Force", "location": {"latitude": "53.337394", "street": {"id": 1722370, "name": "On or near Farmoor Gardens"}, "longitude": "-1.329415"}, "context": "", "outcome_status": null, "persistent_id": "", "id": 130079828, "location_subtype": "", "month": "2025-07"}, {"category": "anti-social-behaviour", "location_type": "Force", "location": {"latitude": "53.364396", "street": {"id": 1722767, "name": "On or near Jasmine Gardens"}, "longitude": "-1.319825"}, "context": "", "outcome_status": null, "persistent_id": "", "id": 130079829, "location_subtype": "", "month": "2025-07"}, {"category": "anti-social-behaviour", "location_type": "Force", "location": {"latitude": "53.370853", "street": {"id": 1720506, "name": "On or near Malon Way"}, "longitude": "-1.374716"}, "context": "", "outcome_status": null, "persistent_id": "", "id": 130085467, "location_subtype": "", "month": "2025-07"}, {"category": "anti-social-behaviour", "location_type": "Force", "location": {"latitude": "53.373033", "street": {"id": 1719029, "name": "On or near Sports/recreation Area"}, "longitude": "-1.411014"}, "context": "", "outcome_status": null, "persistent_id": "", "id": 130085462, "location_subtype": "", "month": "2025-07"}, {"category": "anti-social-behaviour", "location_type": "Force", "location": {"latitude": "53.405627", "street": {"id": 1718720, "name": "On or near Park/open Space"}, "longitude": "-1.409314"}, "context": "", "outcome_status": null, "persistent_id": "", "id": 130085460, "location_subtype": "", "month": "2025-07"}, {"category": "anti-social-behaviour", "location_type": "Force", "location": {"latitude": "53.405627", "street": {"id": 1718720, "name": "On or near Park/open Space"}, "longitude": "-1.409314"}, "context": "", "outcome_status": null, "persistent_id": "", "id": 130085459, "location_subtype": "", "month": "2025-07"}, {"category": "anti-social-behaviour", "location_type": "Force", "location": {"latitude": "53.393549", "street": {"id": 1718741, "name": "On or near Fitzmaurice Road"}, "longitude": "-1.415421"}, "context": "", "outcome_status": null, "persistent_id": "", "id": 130085458, "location_subtype": "", "month": "2025-07"}, {"category": "anti-social-behaviour", "location_type": "Force", "location": {"latitude": "53.463430", "street": {"id": 1711105, "name": "On or near Hollin Edge Lane"}, "longitude": "-1.565989"}, "context": "", "outcome_status": null, "persistent_id": "", "id": 130085425, "location_subtype": "", "month": "2025-07"}, {"category": "anti-social-behaviour", "location_type": "Force", "location": {"latitude": "53.384334", "street": {"id": 1718942, "name": "On or near Cresswell Road"}, "longitude": "-1.413202"}, "context": "", "outcome_status": null, "persistent_id": "", "id": 130084931, "location_subtype": "", "month": "2025-07"}, {"category": "anti-social-behaviour", "location_type": "Force", "location": {"latitude": "53.391689", "street": {"id": 1718862, "name": "On or near Harney Close"}, "longitude": "-1.413582"}, "context": "", "outcome_status": null, "persistent_id": "", "id": 130084930, "location_subtype": "", "month": "2025-07"}, {"category": "anti-social-behaviour", "location_type": "Force", "location": {"latitude": "53.397356", "street": {"id": 1718823, "name": "On or near Stovin Gardens"}, "longitude": "-1.414452"}, "context": "", "outcome_status": null, "persistent_id": "", "id": 130084929, "location_subtype": "", "month": "2025-07"}, {"category": "anti-social-behaviour", "location_type": "Force", "location": {"latitude": "53.394300", "street": {"id": 1718675, "name": "On or near Henson Street"}, "longitude": "-1.418133"}, "context": "", "outcome_status": null, "persistent_id": "", "id": 130084928, "location_subtype": "", "month": "2025-07"}, {"category": "anti-social-behaviour", "location_type": "Force", "location": {"latitude": "53.387792", "street": {"id": 1718416, "name": "On or near Harry Firth Close"}, "longitude": "-1.423740"}, "context": "", "outcome_status": null, "persistent_id": "", "id": 130084927, "location_subtype": "", "month": "2025-07"}, {"category": "anti-social-behaviour", "location_type": "Force", "location": {"latitude": "53.344209", "street": {"id": 1718020, "name": "On or near Herdings View"}, "longitude": "-1.430035"}, "context": "", "outcome_status": null, "persistent_id": "", "id": 130084926, "location_subtype": "", "month": "2025-07"}, {"category": "anti-social-behaviour", "location_type": "Force", "location": {"latitude": "53.415815", "street": {"id": 1717949, "name": "On or near Lavender Way"}, "longitude": "-1.434239"}, "context": "", "outcome_status": null, "persistent_id": "", "id": 130084925, "location_subtype": "", "month": "2025-07"}, {"category": "anti-social-behaviour", "location_type": "Force", "location": {"latitude": "53.359303", "street": {"id": 1717817, "name": "On or near Atherton Close"}, "longitude": "-1.436204"}, "context": "", "outcome_status": null, "persistent_id": "", "id": 130084924, "location_subtype": "", "month": "2025-07"}, {"category": "anti-social-behaviour", "location_type": "Force", "location": {"latitude": "53.350268", "street": {"id": 1717785, "name": "On or near Spring Close View"}, "longitude": "-1.437811"}, "context": "", "outcome_status": null, "persistent_id": "", "id": 130084923, "location_subtype": "", "month": "2025-07"}, {"category": "anti-social-behaviour", "location_type": "Force", "location": {"latitude": "53.431235", "street": {"id": 1717636, "name": "On or near Supermarket"}, "longitude": "-1.440852"}, "context": "", "outcome_status": null, "persistent_id": "", "id": 130084922, "location_subtype": "", "month": "2025-07"}, {"category": "anti-social-behaviour", "location_type": "Force", "location": {"latitude": "53.351775", "street": {"id": 1717328, "name": "On or near Spotswood Road"}, "longitude": "-1.446669"}, "context": "", "outcome_status": null, "persistent_id": "", "id": 130084919, "location_subtype": "", "month": "2025-07"}, {"category": "anti-social-behaviour", "location_type": "Force", "location": {"latitude": "53.381678", "street": {"id": 1716798, "name": "On or near Blackwell Place"}, "longitude": "-1.456039"}, "context": "", "outcome_status": null, "persistent_id": "", "id": 130084913, "location_subtype": "", "month": "2025-07"}, {"category": "anti-social-behaviour", "location_type": "Force", "location": {"latitude": "53.386764", "street": {"id": 1716743, "name": "On or near Blast Lane"}, "longitude": "-1.455673"}, "context": "", "outcome_status": null, "persistent_id": "", "id": 130084909, "location_subtype": "", "month": "2025-07"}, {"category": "anti-social-behaviour", "location_type": "Force", "location": {"latitude": "53.356980", "street": {"id": 1716584, "name": "On or near Abney Close"}, "longitude": "-1.458667"}, "context": "", "outcome_status": null, "persistent_id": "", "id": 130084908, "location_subtype": "", "month": "2025-07"}, {"category": "anti-social-behaviour", "location_type": "Force", "location": {"latitude": "53.426925", "street": {"id": 1716597, "name": "On or near Parking Area"}, "longitude": "-1.457554"}, "context": "", "outcome_status": null, "persistent_id": "", "id": 130084907, "location_subtype": "", "month": "2025-07"}, {"category": "anti-social-behaviour", "location_type": "Force", "location": {"latitude": "53.362608", "street": {"id": 1716618, "name": "On or near Thornborough Close"}, "longitude": "-1.458791"}, "context": "", "outcome_status": null, "persistent_id": "", "id": 130084906, "location_subtype": "", "month": "2025-07"}, {"category": "anti-social-behaviour", "location_type": "Force", "location": {"latitude": "53.426925", "street": {"id": 1716444, "name": "On or near Drummond Road"}, "longitude": "-1.461391"}, "context": "", "outcome_status": null, "persistent_id": "", "id": 130084905, "location_subtype": "", "month": "2025-07"}, {"category": "anti-social-behaviour", "location_type": "Force", "location": {"latitude": "53.324100", "street": {"id": 1716382, "name": "On or near Hazlebarrow Close"}, "longitude": "-1.460704"}, "context": "", "outcome_status": null, "persistent_id": "", "id": 130084904, "location_subtype": "", "month": "2025-07"}, {"category": "anti-social-behaviour", "location_type": "Force", "location": {"latitude": "53.422216", "street": {"id": 1716480, "name": "On or near Crest Road"}, "longitude": "-1.459750"}, "context": "", "outcome_status": null, "persistent_id": "", "id": 130084903, "location_subtype": "", "month": "2025-07"}, {"category": "anti-social-behaviour", "location_type": "Force", "location": {"latitude": "53.444049", "street": {"id": 1716175, "name": "On or near Park/open Space"}, "longitude": "-1.463767"}, "context": "", "outcome_status": null, "persistent_id": "", "id": 130084900, "location_subtype": "", "month": "2025-07"}, {"category": "anti-social-behaviour", "location_type": "Force", "location": {"latitude": "53.350168", "street": {"id": 1715936, "name": "On or near Thorpe House Road"}, "longitude": "-1.466971"}, "context": "", "outcome_status": null, "persistent_id": "", "id": 130084899, "location_subtype": "", "month": "2025-07"}, {"category": "anti-social-behaviour", "location_type": "Force", "location": {"latitude": "53.416000", "street": {"id": 1713947, "name": "On or near Lamb Drive"}, "longitude": "-1.491410"}, "context": "", "outcome_status": null, "persistent_id": "", "id": 130080319, "location_subtype": "", "month": "2025-07"}, {"category": "anti-social-behaviour", "location_type": "Force", "location": {"latitude": "53.372774", "street": {"id": 1714584, "name": "On or near Harrow Street"}, "longitude": "-1.480982"}, "context": "", "outcome_status": null, "persistent_id": "", "id": 130080321, "location_subtype": "", "month": "2025-07"}, {"category": "anti-social-behaviour", "location_type": "Force", "location": {"latitude": "53.376925", "street": {"id": 1715058, "name": "On or near Bowdon Street"}, "longitude": "-1.476543"}, "context": "", "outcome_status": null, "persistent_id": "", "id": 130080322, "location_subtype": "", "month": "2025-07"}, {"category": "anti-social-behaviour", "location_type": "Force", "location": {"latitude": "53.401758", "street": {"id": 1715766, "name": "On or near High View"}, "longitude": "-1.469680"}, "context": "", "outcome_status": null, "persistent_id": "", "id": 130080323, "location_subtype": "", "month": "2025-07"}, {"category": "anti-social-behaviour", "location_type": "Force", "location": {"latitude": "53.376878", "street": {"id": 1716067, "name": "On or near Theatre/concert Hall"}, "longitude": "-1.465961"}, "context": "", "outcome_status": null, "persistent_id": "", "id": 130080324, "location_subtype": "", "month": "2025-07"}, {"category": "anti-social-behaviour", "location_type": "Force", "location": {"latitude": "53.360335", "street": {"id": 1716264, "name": "On or near Heeley Green"}, "longitude": "-1.463147"}, "context": "", "outcome_status": null, "persistent_id": "", "id": 130080326, "location_subtype": "", "month": "2025-07"}, {"category": "anti-social-behaviour", "location_type": "Force", "location": {"latitude": "53.358210", "street": {"id": 1716652, "name": "On or near Edwin Road"}, "longitude": "-1.458261"}, "context": "", "outcome_status": null, "persistent_id": "", "id": 130080328, "location_subtype": "", "month": "2025-07"}, {"category": "anti-social-behaviour", "location_type": "Force", "location": {"latitude": "53.406140", "street": {"id": 1717892, "name": "On or near Chambers Lane"}, "longitude": "-1.435510"}, "context": "", "outcome_status": null, "persistent_id": "", "id": 130080331, "location_subtype": "", "month": "2025-07"}, {"category": "anti-social-behaviour", "location_type": "Force", "location": {"latitude": "53.360007", "street": {"id": 1718221, "name": "On or near Petrol Station"}, "longitude": "-1.427390"}, "context": "", "outcome_status": null, "persistent_id": "", "id": 130080332, "location_subtype": "", "month": "2025-07"}, {"category": "anti-social-behaviour", "location_type": "Force", "location": {"latitude": "53.375867", "street": {"id": 1719657, "name": "On or near Handsworth Road"}, "longitude": "-1.393522"}, "context": "", "outcome_status": null, "persistent_id": "", "id": 130080334, "location_subtype": "", "month": "2025-07"}, {"category": "anti-social-behaviour", "location_type": "Force", "location": {"latitude": "53.342703", "street": {"id": 1719781, "name": "On or near Weakland Close"}, "longitude": "-1.389126"}, "context": "", "outcome_status": null, "persistent_id": "", "id": 130080336, "location_subtype": "", "month": "2025-07"}, {"category": "anti-social-behaviour", "location_type": "Force", "location": {"latitude": "53.374234", "street": {"id": 1719827, "name": "On or near Enfield Place"}, "longitude": "-1.388765"}, "context": "", "outcome_status": null, "persistent_id": "", "id": 130080337, "location_subtype": "", "month": "2025-07"}, {"category": "anti-social-behaviour", "location_type": "Force", "location": {"latitude": "53.404817", "street": {"id": 1720673, "name": "On or near Brinsworth Lane"}, "longitude": "-1.370352"}, "context": "", "outcome_status": null, "persistent_id": "", "id": 130080338, "location_subtype": "", "month": "2025-07"}, {"category": "anti-social-behaviour", "location_type": "Force", "location": {"latitude": "53.404817", "street": {"id": 1720673, "name": "On or near Brinsworth Lane"}, "longitude": "-1.370352"}, "context": "", "outcome_status": null, "persistent_id": "", "id": 130080339, "location_subtype": "", "month": "2025-07"}, {"category": "anti-social-behaviour", "location_type": "Force", "location": {"latitude": "53.404791", "street": {"id": 1720844, "name": "On or near Field View"}, "longitude": "-1.367239"}, "context": "", "outcome_status": null, "persistent_id": "", "id": 130080340, "location_subtype": "", "month": "2025-07"}, {"category": "anti-social-behaviour", "location_type": "Force", "location": {"latitude": "53.405094", "street": {"id": 1720861, "name": "On or near Armistead Avenue"}, "longitude": "-1.366708"}, "context": "", "outcome_status": null, "persistent_id": "", "id": 130080341, "location_subtype": "", "month": "2025-07"}, {"category": "anti-social-behaviour", "location_type": "Force", "location": {"latitude": "53.453150", "street": {"id": 1721028, "name": "On or near Scrooby Place"}, "longitude": "-1.362169"}, "context": "", "outcome_status": null, "persistent_id": "", "id": 130080343, "location_subtype": "", "month": "2025-07"}, {"category": "anti-social-behaviour", "location_type": "Force", "location": {"latitude": "53.434941", "street": {"id": 1721372, "name": "On or near Effingham Street"}, "longitude": "-1.354072"}, "context": "", "outcome_status": null, "persistent_id": "", "id": 130080345, "location_subtype": "", "month": "2025-07"}, {"category": "anti-social-behaviour", "location_type": "Force", "location": {"latitude": "53.341144", "street": {"id": 1721291, "name": "On or near Purbeck Court"}, "longitude": "-1.355910"}, "context": "", "outcome_status": null, "persistent_id": "", "id": 130080346, "location_subtype": "", "month": "2025-07"}, {"category": "anti-social-behaviour", "location_type": "Force", "location": {"latitude": "53.428209", "street": {"id": 1721490, "name": "On or near Sherwood Crescent"}, "longitude": "-1.350878"}, "context": "", "outcome_status": null, "persistent_id": "", "id": 130080347, "location_subtype": "", "month": "2025-07"}, {"category": "anti-social-behaviour", "location_type": "Force", "location": {"latitude": "53.346169", "street": {"id": 1721265, "name": "On or near Sevenairs Road"}, "longitude": "-1.350908"}, "context": "", "outcome_status": null, "persistent_id": "", "id": 130080348, "location_subtype": "", "month": "2025-07"}, {"category": "anti-social-behaviour", "location_type": "Force", "location": {"latitude": "53.439326", "street": {"id": 1721835, "name": "On or near Eldon Road"}, "longitude": "-1.343920"}, "context": "", "outcome_status": null, "persistent_id": "", "id": 130080350, "location_subtype": "", "month": "2025-07"}, {"category": "anti-social-behaviour", "location_type": "Force", "location": {"latitude": "53.369428", "street": {"id": 1721509, "name": "On or near Sports/recreation Area"}, "longitude": "-1.342218"}, "context": "", "outcome_status": null, "persistent_id": "", "id": 130080351, "location_subtype": "", "month": "2025-07"}, {"category": "anti-social-behaviour", "location_type": "Force", "location": {"latitude": "53.439510", "street": {"id": 1716090, "name": "On or near Hanwell Close"}, "longitude": "-1.465613"}, "context": "", "outcome_status": null, "persistent_id": "", "id": 130084898, "location_subtype": "", "month": "2025-07"}, {"category": "anti-social-behaviour", "location_type": "Force", "location": {"latitude": "53.387542", "street": {"id": 1713002, "name": "On or near Brighton Terrace Road"}, "longitude": "-1.504123"}, "context": "", "outcome_status": null, "persistent_id": "", "id": 130084884, "location_subtype": "", "month": "2025-07"}, {"category": "anti-social-behaviour", "location_type": "Force", "location": {"latitude": "53.445150", "street": {"id": 1712986, "name": "On or near Woodhead Road"}, "longitude": "-1.504160"}, "context": "", "outcome_status": null, "persistent_id": "", "id": 130084883, "location_subtype": "", "month": "2025-07"}, {"category": "anti-social-behaviour", "location_type": "Force", "location": {"latitude": "53.390169", "street": {"id": 1711845, "name": "On or near Liberty Place"}, "longitude": "-1.531564"}, "context": "", "outcome_status": null, "persistent_id": "", "id": 130084880, "location_subtype": "", "month": "2025-07"}, {"category": "anti-social-behaviour", "location_type": "Force", "location": {"latitude": "53.405171", "street": {"id": 1711615, "name": "On or near The Chase"}, "longitude": "-1.538484"}, "context": "", "outcome_status": null, "persistent_id": "", "id": 130084879, "location_subtype": "", "month": "2025-07"}, {"category": "anti-social-behaviour", "location_type": "Force", "location": {"latitude": "53.372528", "street": {"id": 1711307, "name": "On or near Westminster Crescent"}, "longitude": "-1.553641"}, "context": "", "outcome_status": null, "persistent_id": "", "id": 130084878, "location_subtype": "", "month": "2025-07"}, {"category": "anti-social-behaviour", "location_type": "Force", "location": {"latitude": "53.338467", "street": {"id": 1711098, "name": "On or near Jumble Road"}, "longitude": "-1.570111"}, "context": "", "outcome_status": null, "persistent_id": "", "id": 130084877, "location_subtype": "", "month": "2025-07"}, {"category": "anti-social-behaviour", "location_type": "Force", "location": {"latitude": "53.456385", "street": {"id": 1710585, "name": "On or near Moor Lane"}, "longitude": "-1.630803"}, "context": "", "outcome_status": null, "persistent_id": "", "id": 130084876, "location_subtype": "", "month": "2025-07"}, {"category": "anti-social-behaviour", "location_type": "Force", "location": {"latitude": "53.355580", "street": {"id": 1715985, "name": "On or near Rushdale Road"}, "longitude": "-1.467098"}, "context": "", "outcome_status": null, "persistent_id": "", "id": 130078263, "location_subtype": "", "month": "2025-07"}, {"category": "anti-social-behaviour", "location_type": "Force", "location": {"latitude": "53.364080", "street": {"id": 1722604, "name": "On or near School Street"}, "longitude": "-1.324293"}, "context": "", "outcome_status": null, "persistent_id": "", "id": 130084472, "location_subtype": "", "month": "2025-07"}, {"category": "anti-social-behaviour", "location_type": "Force", "location": {"latitude": "53.437660", "street": {"id": 1722377, "name": "On or near Foljambe Road"}, "longitude": "-1.330427"}, "context": "", "outcome_status": null, "persistent_id": "", "id": 130084470, "location_subtype": "", "month": "2025-07"}, {"category": "anti-social-behaviour", "location_type": "Force", "location": {"latitude": "53.343395", "street": {"id": 1720966, "name": "On or near Police Station"}, "longitude": "-1.363251"}, "context": "", "outcome_status": null, "persistent_id": "", "id": 130084469, "location_subtype": "", "month": "2025-07"}, {"category": "anti-social-behaviour", "location_type": "Force", "location": {"latitude": "53.331911", "street": {"id": 1720442, "name": "On or near Owlthorpe Close"}, "longitude": "-1.375856"}, "context": "", "outcome_status": null, "persistent_id": "", "id": 130084467, "location_subtype": "", "month": "2025-07"}, {"category": "anti-social-behaviour", "location_type": "Force", "location": {"latitude": "53.333201", "street": {"id": 1720238, "name": "On or near Parkgate Croft"}, "longitude": "-1.380207"}, "context": "", "outcome_status": null, "persistent_id": "", "id": 130084466, "location_subtype": "", "month": "2025-07"}, {"category": "anti-social-behaviour", "location_type": "Force", "location": {"latitude": "53.347465", "street": {"id": 1720132, "name": "On or near Dyke Vale Place"}, "longitude": "-1.381742"}, "context": "", "outcome_status": null, "persistent_id": "", "id": 130084465, "location_subtype": "", "month": "2025-07"}, {"category": "anti-social-behaviour", "location_type": "Force", "location": {"latitude": "53.372286", "street": {"id": 1719760, "name": "On or near Parsley Hay Drive"}, "longitude": "-1.391093"}, "context": "", "outcome_status": null, "persistent_id": "", "id": 130084464, "location_subtype": "", "month": "2025-07"}, {"category": "anti-social-behaviour", "location_type": "Force", "location": {"latitude": "53.413858", "street": {"id": 1719345, "name": "On or near Park/open Space"}, "longitude": "-1.403393"}, "context": "", "outcome_status": null, "persistent_id": "", "id": 130084463, "location_subtype": "", "month": "2025-07"}, {"category": "anti-social-behaviour", "location_type": "Force", "location": {"latitude": "53.391689", "street": {"id": 1718862, "name": "On or near Harney Close"}, "longitude": "-1.413582"}, "context": "", "outcome_status": null, "persistent_id": "", "id": 130084461, "location_subtype": "", "month": "2025-07"}, {"category": "anti-social-behaviour", "location_type": "Force", "location": {"latitude": "53.389544", "street": {"id": 1718540, "name": "On or near Flaxby Road"}, "longitude": "-1.419836"}, "context": "", "outcome_status": null, "persistent_id": "", "id": 130084460, "location_subtype": "", "month": "2025-07"}, {"category": "anti-social-behaviour", "location_type": "Force", "location": {"latitude": "53.349770", "street": {"id": 1718328, "name": "On or near Kirkby Road"}, "longitude": "-1.425604"}, "context": "", "outcome_status": null, "persistent_id": "", "id": 130084459, "location_subtype": "", "month": "2025-07"}, {"category": "anti-social-behaviour", "location_type": "Force", "location": {"latitude": "53.345141", "street": {"id": 1718297, "name": "On or near Supermarket"}, "longitude": "-1.425833"}, "context": "", "outcome_status": null, "persistent_id": "", "id": 130084458, "location_subtype": "", "month": "2025-07"}, {"category": "anti-social-behaviour", "location_type": "Force", "location": {"latitude": "53.406812", "street": {"id": 1717027, "name": "On or near Skinnerthorpe Road"}, "longitude": "-1.452424"}, "context": "", "outcome_status": null, "persistent_id": "", "id": 130084452, "location_subtype": "", "month": "2025-07"}, {"category": "anti-social-behaviour", "location_type": "Force", "location": {"latitude": "53.422360", "street": {"id": 1717045, "name": "On or near Padley Way"}, "longitude": "-1.451969"}, "context": "", "outcome_status": null, "persistent_id": "", "id": 130084451, "location_subtype": "", "month": "2025-07"}, {"category": "anti-social-behaviour", "location_type": "Force", "location": {"latitude": "53.406812", "street": {"id": 1717027, "name": "On or near Skinnerthorpe Road"}, "longitude": "-1.452424"}, "context": "", "outcome_status": null, "persistent_id": "", "id": 130084450, "location_subtype": "", "month": "2025-07"}, {"category": "anti-social-behaviour", "location_type": "Force", "location": {"latitude": "53.422194", "street": {"id": 1716976, "name": "On or near Dial Close"}, "longitude": "-1.452889"}, "context": "", "outcome_status": null, "persistent_id": "", "id": 130084449, "location_subtype": "", "month": "2025-07"}, {"category": "anti-social-behaviour", "location_type": "Force", "location": {"latitude": "53.381892", "street": {"id": 1716577, "name": "On or near Anson Street"}, "longitude": "-1.459464"}, "context": "", "outcome_status": null, "persistent_id": "", "id": 130084446, "location_subtype": "", "month": "2025-07"}, {"category": "anti-social-behaviour", "location_type": "Force", "location": {"latitude": "53.440356", "street": {"id": 1716340, "name": "On or near Hallam Way"}, "longitude": "-1.461884"}, "context": "", "outcome_status": null, "persistent_id": "", "id": 130084444, "location_subtype": "", "month": "2025-07"}, {"category": "anti-social-behaviour", "location_type": "Force", "location": {"latitude": "53.382869", "street": {"id": 1716184, "name": "On or near Fitzalan Square"}, "longitude": "-1.464879"}, "context": "", "outcome_status": null, "persistent_id": "", "id": 130084442, "location_subtype": "", "month": "2025-07"}, {"category": "anti-social-behaviour", "location_type": "Force", "location": {"latitude": "53.384012", "street": {"id": 1716150, "name": "On or near Supermarket"}, "longitude": "-1.465225"}, "context": "", "outcome_status": null, "persistent_id": "", "id": 130078264, "location_subtype": "", "month": "2025-07"}, {"category": "anti-social-behaviour", "location_type": "Force", "location": {"latitude": "53.444049", "street": {"id": 1716175, "name": "On or near Park/open Space"}, "longitude": "-1.463767"}, "context": "", "outcome_status": null, "persistent_id": "", "id": 130084441, "location_subtype": "", "month": "2025-07"}, {"category": "anti-social-behaviour", "location_type": "Force", "location": {"latitude": "53.469293", "street": {"id": 1713956, "name": "On or near Francis Grove"}, "longitude": "-1.491240"}, "context": "", "outcome_status": null, "persistent_id": "", "id": 130082318, "location_subtype": "", "month": "2025-07"}, {"category": "anti-social-behaviour", "location_type": "Force", "location": {"latitude": "53.419571", "street": {"id": 1713842, "name": "On or near Cookson Close"}, "longitude": "-1.492089"}, "context": "", "outcome_status": null, "persistent_id": "", "id": 130082319, "location_subtype": "", "month": "2025-07"}, {"category": "anti-social-behaviour", "location_type": "Force", "location": {"latitude": "53.359264", "street": {"id": 1714094, "name": "On or near Violet Bank Road"}, "longitude": "-1.489365"}, "context": "", "outcome_status": null, "persistent_id": "", "id": 130082321, "location_subtype": "", "month": "2025-07"}, {"category": "anti-social-behaviour", "location_type": "Force", "location": {"latitude": "53.392298", "street": {"id": 1713207, "name": "On or near Greenhow Street"}, "longitude": "-1.502414"}, "context": "", "outcome_status": null, "persistent_id": "", "id": 130084426, "location_subtype": "", "month": "2025-07"}, {"category": "anti-social-behaviour", "location_type": "Force", "location": {"latitude": "53.359651", "street": {"id": 1716188, "name": "On or near Denson Close"}, "longitude": "-1.464839"}, "context": "", "outcome_status": null, "persistent_id": "", "id": 130078265, "location_subtype": "", "month": "2025-07"}, {"category": "anti-social-behaviour", "location_type": "Force", "location": {"latitude": "53.359733", "street": {"id": 1713023, "name": "On or near Quarry Lane"}, "longitude": "-1.504611"}, "context": "", "outcome_status": null, "persistent_id": "", "id": 130084425, "location_subtype": "", "month": "2025-07"}, {"category": "anti-social-behaviour", "location_type": "Force", "location": {"latitude": "53.406792", "street": {"id": 1717710, "name": "On or near Upwell Lane"}, "longitude": "-1.438465"}, "context": "", "outcome_status": null, "persistent_id": "", "id": 130080805, "location_subtype": "", "month": "2025-07"}, {"category": "anti-social-behaviour", "location_type": "Force", "location": {"latitude": "53.375226", "street": {"id": 1718129, "name": "On or near Supermarket"}, "longitude": "-1.429441"}, "context": "", "outcome_status": null, "persistent_id": "", "id": 130080806, "location_subtype": "", "month": "2025-07"}, {"category": "anti-social-behaviour", "location_type": "Force", "location": {"latitude": "53.419655", "street": {"id": 1718235, "name": "On or near Newman Drive"}, "longitude": "-1.426980"}, "context": "", "outcome_status": null, "persistent_id": "", "id": 130080807, "location_subtype": "", "month": "2025-07"}, {"category": "anti-social-behaviour", "location_type": "Force", "location": {"latitude": "53.414920", "street": {"id": 1718199, "name": "On or near Sandstone Close"}, "longitude": "-1.427556"}, "context": "", "outcome_status": null, "persistent_id": "", "id": 130080808, "location_subtype": "", "month": "2025-07"}, {"category": "anti-social-behaviour", "location_type": "Force", "location": {"latitude": "53.389272", "street": {"id": 1718346, "name": "On or near Garth Close"}, "longitude": "-1.424983"}, "context": "", "outcome_status": null, "persistent_id": "", "id": 130080809, "location_subtype": "", "month": "2025-07"}, {"category": "anti-social-behaviour", "location_type": "Force", "location": {"latitude": "53.383287", "street": {"id": 1718499, "name": "On or near Petrol Station"}, "longitude": "-1.419726"}, "context": "", "outcome_status": null, "persistent_id": "", "id": 130080810, "location_subtype": "", "month": "2025-07"}, {"category": "anti-social-behaviour", "location_type": "Force", "location": {"latitude": "53.357148", "street": {"id": 1718755, "name": "On or near Mansfield Road"}, "longitude": "-1.416024"}, "context": "", "outcome_status": null, "persistent_id": "", "id": 130080811, "location_subtype": "", "month": "2025-07"}, {"category": "anti-social-behaviour", "location_type": "Force", "location": {"latitude": "53.365218", "street": {"id": 1719223, "name": "On or near Spinkhill Road"}, "longitude": "-1.406537"}, "context": "", "outcome_status": null, "persistent_id": "", "id": 130080812, "location_subtype": "", "month": "2025-07"}, {"category": "anti-social-behaviour", "location_type": "Force", "location": {"latitude": "53.362395", "street": {"id": 1719342, "name": "On or near Stradbroke Avenue"}, "longitude": "-1.404683"}, "context": "", "outcome_status": null, "persistent_id": "", "id": 130080814, "location_subtype": "", "month": "2025-07"}, {"category": "anti-social-behaviour", "location_type": "Force", "location": {"latitude": "53.426713", "street": {"id": 1719420, "name": "On or near Thornton Terrace"}, "longitude": "-1.398111"}, "context": "", "outcome_status": null, "persistent_id": "", "id": 130080816, "location_subtype": "", "month": "2025-07"}, {"category": "anti-social-behaviour", "location_type": "Force", "location": {"latitude": "53.440911", "street": {"id": 1719584, "name": "On or near Langdon Road"}, "longitude": "-1.395698"}, "context": "", "outcome_status": null, "persistent_id": "", "id": 130080817, "location_subtype": "", "month": "2025-07"}, {"category": "anti-social-behaviour", "location_type": "Force", "location": {"latitude": "53.454719", "street": {"id": 1719636, "name": "On or near Parking Area"}, "longitude": "-1.392437"}, "context": "", "outcome_status": null, "persistent_id": "", "id": 130080818, "location_subtype": "", "month": "2025-07"}, {"category": "anti-social-behaviour", "location_type": "Force", "location": {"latitude": "53.372116", "street": {"id": 1719813, "name": "On or near Petrol Station"}, "longitude": "-1.389093"}, "context": "", "outcome_status": null, "persistent_id": "", "id": 130080819, "location_subtype": "", "month": "2025-07"}, {"category": "anti-social-behaviour", "location_type": "Force", "location": {"latitude": "53.333805", "street": {"id": 2219500, "name": "On or near High Lane"}, "longitude": "-1.391115"}, "context": "", "outcome_status": null, "persistent_id": "", "id": 130080820, "location_subtype": "", "month": "2025-07"}, {"category": "anti-social-behaviour", "location_type": "Force", "location": {"latitude": "53.449415", "street": {"id": 1720109, "name": "On or near Orchard Flatts Crescent"}, "longitude": "-1.380053"}, "context": "", "outcome_status": null, "persistent_id": "", "id": 130080821, "location_subtype": "", "month": "2025-07"}, {"category": "anti-social-behaviour", "location_type": "Force", "location": {"latitude": "53.431639", "street": {"id": 1720103, "name": "On or near Wilton Lane"}, "longitude": "-1.382343"}, "context": "", "outcome_status": null, "persistent_id": "", "id": 130080822, "location_subtype": "", "month": "2025-07"}, {"category": "anti-social-behaviour", "location_type": "Force", "location": {"latitude": "53.476665", "street": {"id": 1720862, "name": "On or near Bairstow Gardens"}, "longitude": "-1.363956"}, "context": "", "outcome_status": null, "persistent_id": "", "id": 130080824, "location_subtype": "", "month": "2025-07"}, {"category": "anti-social-behaviour", "location_type": "Force", "location": {"latitude": "53.475718", "street": {"id": 1720994, "name": "On or near Fred Edwards Park"}, "longitude": "-1.363247"}, "context": "", "outcome_status": null, "persistent_id": "", "id": 130080825, "location_subtype": "", "month": "2025-07"}, {"category": "anti-social-behaviour", "location_type": "Force", "location": {"latitude": "53.400387", "street": {"id": 1721097, "name": "On or near Mendip Rise"}, "longitude": "-1.360461"}, "context": "", "outcome_status": null, "persistent_id": "", "id": 130080826, "location_subtype": "", "month": "2025-07"}, {"category": "anti-social-behaviour", "location_type": "Force", "location": {"latitude": "53.431195", "street": {"id": 1721189, "name": "On or near Corporation Street"}, "longitude": "-1.357892"}, "context": "", "outcome_status": null, "persistent_id": "", "id": 130080827, "location_subtype": "", "month": "2025-07"}, {"category": "anti-social-behaviour", "location_type": "Force", "location": {"latitude": "53.427906", "street": {"id": 1721417, "name": "On or near Whybourne Terrace"}, "longitude": "-1.352915"}, "context": "", "outcome_status": null, "persistent_id": "", "id": 130080828, "location_subtype": "", "month": "2025-07"}, {"category": "anti-social-behaviour", "location_type": "Force", "location": {"latitude": "53.429232", "street": {"id": 1721762, "name": "On or near Parkfield Road"}, "longitude": "-1.344015"}, "context": "", "outcome_status": null, "persistent_id": "", "id": 130080829, "location_subtype": "", "month": "2025-07"}, {"category": "anti-social-behaviour", "location_type": "Force", "location": {"latitude": "53.345229", "street": {"id": 1721943, "name": "On or near Newbould Crescent"}, "longitude": "-1.340047"}, "context": "", "outcome_status": null, "persistent_id": "", "id": 130080830, "location_subtype": "", "month": "2025-07"}, {"category": "anti-social-behaviour", "location_type": "Force", "location": {"latitude": "53.409416", "street": {"id": 1722491, "name": "On or near Lease Gate Road"}, "longitude": "-1.326899"}, "context": "", "outcome_status": null, "persistent_id": "", "id": 130080831, "location_subtype": "", "month": "2025-07"}, {"category": "anti-social-behaviour", "location_type": "Force", "location": {"latitude": "53.441615", "street": {"id": 1722693, "name": "On or near Lady Oak Way"}, "longitude": "-1.320760"}, "context": "", "outcome_status": null, "persistent_id": "", "id": 130080832, "location_subtype": "", "month": "2025-07"}, {"category": "anti-social-behaviour", "location_type": "Force", "location": {"latitude": "53.370440", "street": {"id": 1714084, "name": "On or near Sawdon Road"}, "longitude": "-1.487939"}, "context": "", "outcome_status": null, "persistent_id": "", "id": 130082322, "location_subtype": "", "month": "2025-07"}, {"category": "anti-social-behaviour", "location_type": "Force", "location": {"latitude": "53.427444", "street": {"id": 1713115, "name": "On or near Fox Hill Crescent"}, "longitude": "-1.502515"}, "context": "", "outcome_status": null, "persistent_id": "", "id": 130084424, "location_subtype": "", "month": "2025-07"}, {"category": "anti-social-behaviour", "location_type": "Force", "location": {"latitude": "53.360216", "street": {"id": 1714098, "name": "On or near Bank Close"}, "longitude": "-1.487145"}, "context": "", "outcome_status": null, "persistent_id": "", "id": 130082323, "location_subtype": "", "month": "2025-07"}, {"category": "anti-social-behaviour", "location_type": "Force", "location": {"latitude": "53.371014", "street": {"id": 1714454, "name": "On or near Hallamshire Court"}, "longitude": "-1.483649"}, "context": "", "outcome_status": null, "persistent_id": "", "id": 130082324, "location_subtype": "", "month": "2025-07"}, {"category": "anti-social-behaviour", "location_type": "Force", "location": {"latitude": "53.373150", "street": {"id": 1714569, "name": "On or near Petrol Station"}, "longitude": "-1.482824"}, "context": "", "outcome_status": null, "persistent_id": "", "id": 130082325, "location_subtype": "", "month": "2025-07"}, {"category": "anti-social-behaviour", "location_type": "Force", "location": {"latitude": "53.390581", "street": {"id": 1712746, "name": "On or near Sports/recreation Area"}, "longitude": "-1.509260"}, "context": "", "outcome_status": null, "persistent_id": "", "id": 130084423, "location_subtype": "", "month": "2025-07"}, {"category": "anti-social-behaviour", "location_type": "Force", "location": {"latitude": "53.386570", "street": {"id": 1712316, "name": "On or near St Anthony Road"}, "longitude": "-1.514764"}, "context": "", "outcome_status": null, "persistent_id": "", "id": 130084422, "location_subtype": "", "month": "2025-07"}, {"category": "anti-social-behaviour", "location_type": "Force", "location": {"latitude": "53.354304", "street": {"id": 1714874, "name": "On or near Binfield Road"}, "longitude": "-1.479509"}, "context": "", "outcome_status": null, "persistent_id": "", "id": 130082326, "location_subtype": "", "month": "2025-07"}, {"category": "anti-social-behaviour", "location_type": "Force", "location": {"latitude": "53.380099", "street": {"id": 1715097, "name": "On or near Westfield Terrace"}, "longitude": "-1.476699"}, "context": "", "outcome_status": null, "persistent_id": "", "id": 130082328, "location_subtype": "", "month": "2025-07"}, {"category": "anti-social-behaviour", "location_type": "Force", "location": {"latitude": "53.366302", "street": {"id": 1711682, "name": "On or near Stumperlowe Lane"}, "longitude": "-1.537867"}, "context": "", "outcome_status": null, "persistent_id": "", "id": 130084421, "location_subtype": "", "month": "2025-07"}, {"category": "anti-social-behaviour", "location_type": "Force", "location": {"latitude": "53.384065", "street": {"id": 1715263, "name": "On or near Hollis Croft"}, "longitude": "-1.475087"}, "context": "", "outcome_status": null, "persistent_id": "", "id": 130082329, "location_subtype": "", "month": "2025-07"}, {"category": "anti-social-behaviour", "location_type": "Force", "location": {"latitude": "53.412957", "street": {"id": 1715501, "name": "On or near Parking Area"}, "longitude": "-1.471542"}, "context": "", "outcome_status": null, "persistent_id": "", "id": 130082331, "location_subtype": "", "month": "2025-07"}, {"category": "anti-social-behaviour", "location_type": "Force", "location": {"latitude": "53.380041", "street": {"id": 1715348, "name": "On or near Carver Street"}, "longitude": "-1.473829"}, "context": "", "outcome_status": null, "persistent_id": "", "id": 130082332, "location_subtype": "", "month": "2025-07"}, {"category": "anti-social-behaviour", "location_type": "Force", "location": {"latitude": "53.377160", "street": {"id": 1715850, "name": "On or near Froggatt Lane"}, "longitude": "-1.468783"}, "context": "", "outcome_status": null, "persistent_id": "", "id": 130082333, "location_subtype": "", "month": "2025-07"}, {"category": "anti-social-behaviour", "location_type": "Force", "location": {"latitude": "53.323353", "street": {"id": 1716040, "name": "On or near Dyche Close"}, "longitude": "-1.464647"}, "context": "", "outcome_status": null, "persistent_id": "", "id": 130078266, "location_subtype": "", "month": "2025-07"}, {"category": "anti-social-behaviour", "location_type": "Force", "location": {"latitude": "53.379861", "street": {"id": 1715877, "name": "On or near Cadman Lane"}, "longitude": "-1.467682"}, "context": "", "outcome_status": null, "persistent_id": "", "id": 130082334, "location_subtype": "", "month": "2025-07"}, {"category": "anti-social-behaviour", "location_type": "Force", "location": {"latitude": "53.381809", "street": {"id": 1715708, "name": "On or near Shopping Area"}, "longitude": "-1.468581"}, "context": "", "outcome_status": null, "persistent_id": "", "id": 130082335, "location_subtype": "", "month": "2025-07"}, {"category": "anti-social-behaviour", "location_type": "Force", "location": {"latitude": "53.400948", "street": {"id": 1715969, "name": "On or near Shirecliffe Lane"}, "longitude": "-1.467600"}, "context": "", "outcome_status": null, "persistent_id": "", "id": 130082336, "location_subtype": "", "month": "2025-07"}, {"category": "anti-social-behaviour", "location_type": "Force", "location": {"latitude": "53.357440", "street": {"id": 1715957, "name": "On or near Kent Road"}, "longitude": "-1.467015"}, "context": "", "outcome_status": null, "persistent_id": "", "id": 130082337, "location_subtype": "", "month": "2025-07"}, {"category": "anti-social-behaviour", "location_type": "Force", "location": {"latitude": "53.444049", "street": {"id": 1716175, "name": "On or near Park/open Space"}, "longitude": "-1.463767"}, "context": "", "outcome_status": null, "persistent_id": "", "id": 130082338, "location_subtype": "", "month": "2025-07"}, {"category": "anti-social-behaviour", "location_type": "Force", "location": {"latitude": "53.444049", "street": {"id": 1716175, "name": "On or near Park/open Space"}, "longitude": "-1.463767"}, "context": "", "outcome_status": null, "persistent_id": "", "id": 130082339, "location_subtype": "", "month": "2025-07"}, {"category": "anti-social-behaviour", "location_type": "Force", "location": {"latitude": "53.381132", "street": {"id": 1716302, "name": "On or near Gilbert Street"}, "longitude": "-1.460390"}, "context": "", "outcome_status": null, "persistent_id": "", "id": 130082340, "location_subtype": "", "month": "2025-07"}, {"category": "anti-social-behaviour", "location_type": "Force", "location": {"latitude": "53.383549", "street": {"id": 1716197, "name": "On or near Shopping Area"}, "longitude": "-1.463989"}, "context": "", "outcome_status": null, "persistent_id": "", "id": 130082341, "location_subtype": "", "month": "2025-07"}, {"category": "anti-social-behaviour", "location_type": "Force", "location": {"latitude": "53.375042", "street": {"id": 1716349, "name": "On or near Granville Street"}, "longitude": "-1.461444"}, "context": "", "outcome_status": null, "persistent_id": "", "id": 130082342, "location_subtype": "", "month": "2025-07"}, {"category": "anti-social-behaviour", "location_type": "Force", "location": {"latitude": "53.359448", "street": {"id": 1716384, "name": "On or near Denmark Road"}, "longitude": "-1.461731"}, "context": "", "outcome_status": null, "persistent_id": "", "id": 130082343, "location_subtype": "", "month": "2025-07"}, {"category": "anti-social-behaviour", "location_type": "Force", "location": {"latitude": "53.384970", "street": {"id": 1716956, "name": "On or near B6071"}, "longitude": "-1.452419"}, "context": "", "outcome_status": null, "persistent_id": "", "id": 130082345, "location_subtype": "", "month": "2025-07"}, {"category": "anti-social-behaviour", "location_type": "Force", "location": {"latitude": "53.377369", "street": {"id": 1716970, "name": "On or near B6070"}, "longitude": "-1.453343"}, "context": "", "outcome_status": null, "persistent_id": "", "id": 130082346, "location_subtype": "", "month": "2025-07"}, {"category": "anti-social-behaviour", "location_type": "Force", "location": {"latitude": "53.436374", "street": {"id": 1717090, "name": "On or near Dunninc Road"}, "longitude": "-1.450118"}, "context": "", "outcome_status": null, "persistent_id": "", "id": 130082347, "location_subtype": "", "month": "2025-07"}, {"category": "anti-social-behaviour", "location_type": "Force", "location": {"latitude": "53.412724", "street": {"id": 1717294, "name": "On or near Vivian Road"}, "longitude": "-1.445879"}, "context": "", "outcome_status": null, "persistent_id": "", "id": 130082348, "location_subtype": "", "month": "2025-07"}, {"category": "anti-social-behaviour", "location_type": "Force", "location": {"latitude": "53.372808", "street": {"id": 1717612, "name": "On or near Stock Road"}, "longitude": "-1.440686"}, "context": "", "outcome_status": null, "persistent_id": "", "id": 130082350, "location_subtype": "", "month": "2025-07"}, {"category": "anti-social-behaviour", "location_type": "Force", "location": {"latitude": "53.433975", "street": {"id": 1719614, "name": "On or near Peter Street"}, "longitude": "-1.394486"}, "context": "", "outcome_status": null, "persistent_id": "", "id": 130083981, "location_subtype": "", "month": "2025-07"}, {"category": "anti-social-behaviour", "location_type": "Force", "location": {"latitude": "53.372155", "street": {"id": 1719503, "name": "On or near Richmond Park Road"}, "longitude": "-1.397152"}, "context": "", "outcome_status": null, "persistent_id": "", "id": 130083980, "location_subtype": "", "month": "2025-07"}, {"category": "anti-social-behaviour", "location_type": "Force", "location": {"latitude": "53.406250", "street": {"id": 1711660, "name": "On or near Dunkerley Road"}, "longitude": "-1.538638"}, "context": "", "outcome_status": null, "persistent_id": "", "id": 130087035, "location_subtype": "", "month": "2025-07"}, {"category": "anti-social-behaviour", "location_type": "Force", "location": {"latitude": "53.353886", "street": {"id": 1711628, "name": "On or near Cottage Lane"}, "longitude": "-1.537310"}, "context": "", "outcome_status": null, "persistent_id": "", "id": 130087036, "location_subtype": "", "month": "2025-07"}, {"category": "anti-social-behaviour", "location_type": "Force", "location": {"latitude": "53.358023", "street": {"id": 1713077, "name": "On or near Bannerdale View"}, "longitude": "-1.504315"}, "context": "", "outcome_status": null, "persistent_id": "", "id": 130087037, "location_subtype": "", "month": "2025-07"}, {"category": "anti-social-behaviour", "location_type": "Force", "location": {"latitude": "53.377210", "street": {"id": 1714621, "name": "On or near Headford Gardens"}, "longitude": "-1.482206"}, "context": "", "outcome_status": null, "persistent_id": "", "id": 130087039, "location_subtype": "", "month": "2025-07"}, {"category": "anti-social-behaviour", "location_type": "Force", "location": {"latitude": "53.357097", "street": {"id": 1715089, "name": "On or near Little London Place"}, "longitude": "-1.476755"}, "context": "", "outcome_status": null, "persistent_id": "", "id": 130087042, "location_subtype": "", "month": "2025-07"}, {"category": "anti-social-behaviour", "location_type": "Force", "location": {"latitude": "53.357844", "street": {"id": 1715201, "name": "On or near Arthington Street"}, "longitude": "-1.475003"}, "context": "", "outcome_status": null, "persistent_id": "", "id": 130087043, "location_subtype": "", "month": "2025-07"}, {"category": "anti-social-behaviour", "location_type": "Force", "location": {"latitude": "53.417931", "street": {"id": 1715483, "name": "On or near Crowder Close"}, "longitude": "-1.472278"}, "context": "", "outcome_status": null, "persistent_id": "", "id": 130087045, "location_subtype": "", "month": "2025-07"}, {"category": "anti-social-behaviour", "location_type": "Force", "location": {"latitude": "53.444876", "street": {"id": 1715823, "name": "On or near Church Street"}, "longitude": "-1.467638"}, "context": "", "outcome_status": null, "persistent_id": "", "id": 130087047, "location_subtype": "", "month": "2025-07"}, {"category": "anti-social-behaviour", "location_type": "Force", "location": {"latitude": "53.382912", "street": {"id": 1716031, "name": "On or near High Street"}, "longitude": "-1.466381"}, "context": "", "outcome_status": null, "persistent_id": "", "id": 130087048, "location_subtype": "", "month": "2025-07"}, {"category": "anti-social-behaviour", "location_type": "Force", "location": {"latitude": "53.376878", "street": {"id": 1716067, "name": "On or near Theatre/concert Hall"}, "longitude": "-1.465961"}, "context": "", "outcome_status": null, "persistent_id": "", "id": 130087049, "location_subtype": "", "month": "2025-07"}, {"category": "anti-social-behaviour", "location_type": "Force", "location": {"latitude": "53.396207", "street": {"id": 1717853, "name": "On or near Five Weirs Walk"}, "longitude": "-1.435416"}, "context": "", "outcome_status": null, "persistent_id": "", "id": 130087068, "location_subtype": "", "month": "2025-07"}, {"category": "anti-social-behaviour", "location_type": "Force", "location": {"latitude": "53.456729", "street": {"id": 1717966, "name": "On or near Brook Hill"}, "longitude": "-1.433801"}, "context": "", "outcome_status": null, "persistent_id": "", "id": 130087069, "location_subtype": "", "month": "2025-07"}, {"category": "anti-social-behaviour", "location_type": "Force", "location": {"latitude": "53.364249", "street": {"id": 1719187, "name": "On or near Fishponds Road"}, "longitude": "-1.408774"}, "context": "", "outcome_status": null, "persistent_id": "", "id": 130087072, "location_subtype": "", "month": "2025-07"}, {"category": "anti-social-behaviour", "location_type": "Force", "location": {"latitude": "53.361017", "street": {"id": 1719438, "name": "On or near Richmond Hill Road"}, "longitude": "-1.400419"}, "context": "", "outcome_status": null, "persistent_id": "", "id": 130087073, "location_subtype": "", "month": "2025-07"}, {"category": "anti-social-behaviour", "location_type": "Force", "location": {"latitude": "53.360849", "street": {"id": 1720455, "name": "On or near Mauncer Drive"}, "longitude": "-1.374682"}, "context": "", "outcome_status": null, "persistent_id": "", "id": 130087075, "location_subtype": "", "month": "2025-07"}, {"category": "anti-social-behaviour", "location_type": "Force", "location": {"latitude": "53.404791", "street": {"id": 1720844, "name": "On or near Field View"}, "longitude": "-1.367239"}, "context": "", "outcome_status": null, "persistent_id": "", "id": 130087076, "location_subtype": "", "month": "2025-07"}, {"category": "anti-social-behaviour", "location_type": "Force", "location": {"latitude": "53.466502", "street": {"id": 1720647, "name": "On or near Back Lane"}, "longitude": "-1.369561"}, "context": "", "outcome_status": null, "persistent_id": "", "id": 130087077, "location_subtype": "", "month": "2025-07"}, {"category": "anti-social-behaviour", "location_type": "Force", "location": {"latitude": "53.381305", "street": {"id": 1720835, "name": "On or near Brooks Drive"}, "longitude": "-1.365708"}, "context": "", "outcome_status": null, "persistent_id": "", "id": 130087079, "location_subtype": "", "month": "2025-07"}, {"category": "anti-social-behaviour", "location_type": "Force", "location": {"latitude": "53.425594", "street": {"id": 1721267, "name": "On or near Nightingale Close"}, "longitude": "-1.354364"}, "context": "", "outcome_status": null, "persistent_id": "", "id": 130087080, "location_subtype": "", "month": "2025-07"}, {"category": "anti-social-behaviour", "location_type": "Force", "location": {"latitude": "53.331036", "street": {"id": 1721562, "name": "On or near Westfield Centre"}, "longitude": "-1.349996"}, "context": "", "outcome_status": null, "persistent_id": "", "id": 130087081, "location_subtype": "", "month": "2025-07"}, {"category": "anti-social-behaviour", "location_type": "Force", "location": {"latitude": "53.426928", "street": {"id": 1721806, "name": "On or near Carrington Street"}, "longitude": "-1.345089"}, "context": "", "outcome_status": null, "persistent_id": "", "id": 130087082, "location_subtype": "", "month": "2025-07"}, {"category": "anti-social-behaviour", "location_type": "Force", "location": {"latitude": "53.451113", "street": {"id": 1721811, "name": "On or near Broad Street"}, "longitude": "-1.344355"}, "context": "", "outcome_status": null, "persistent_id": "", "id": 130087083, "location_subtype": "", "month": "2025-07"}, {"category": "anti-social-behaviour", "location_type": "Force", "location": {"latitude": "53.349194", "street": {"id": 1721758, "name": "On or near Robin Lane"}, "longitude": "-1.345214"}, "context": "", "outcome_status": null, "persistent_id": "", "id": 130087084, "location_subtype": "", "month": "2025-07"}, {"category": "anti-social-behaviour", "location_type": "Force", "location": {"latitude": "53.447449", "street": {"id": 1719288, "name": "On or near Maycock Avenue"}, "longitude": "-1.405271"}, "context": "", "outcome_status": null, "persistent_id": "", "id": 130083978, "location_subtype": "", "month": "2025-07"}, {"category": "anti-social-behaviour", "location_type": "Force", "location": {"latitude": "53.364827", "street": {"id": 1719203, "name": "On or near Aughton Crescent"}, "longitude": "-1.407429"}, "context": "", "outcome_status": null, "persistent_id": "", "id": 130083977, "location_subtype": "", "month": "2025-07"}, {"category": "anti-social-behaviour", "location_type": "Force", "location": {"latitude": "53.388537", "street": {"id": 1718952, "name": "On or near Mandeville Street"}, "longitude": "-1.412377"}, "context": "", "outcome_status": null, "persistent_id": "", "id": 130083976, "location_subtype": "", "month": "2025-07"}, {"category": "anti-social-behaviour", "location_type": "Force", "location": {"latitude": "53.393549", "street": {"id": 1718741, "name": "On or near Fitzmaurice Road"}, "longitude": "-1.415421"}, "context": "", "outcome_status": null, "persistent_id": "", "id": 130083975, "location_subtype": "", "month": "2025-07"}, {"category": "anti-social-behaviour", "location_type": "Force", "location": {"latitude": "53.389494", "street": {"id": 1718290, "name": "On or near Chinley Street"}, "longitude": "-1.426333"}, "context": "", "outcome_status": null, "persistent_id": "", "id": 130083974, "location_subtype": "", "month": "2025-07"}, {"category": "anti-social-behaviour", "location_type": "Force", "location": {"latitude": "53.367301", "street": {"id": 1718039, "name": "On or near Cary Grove"}, "longitude": "-1.431816"}, "context": "", "outcome_status": null, "persistent_id": "", "id": 130083972, "location_subtype": "", "month": "2025-07"}, {"category": "anti-social-behaviour", "location_type": "Force", "location": {"latitude": "53.379437", "street": {"id": 1716710, "name": "On or near Rhodes Street"}, "longitude": "-1.457315"}, "context": "", "outcome_status": null, "persistent_id": "", "id": 130078268, "location_subtype": "", "month": "2025-07"}, {"category": "anti-social-behaviour", "location_type": "Force", "location": {"latitude": "53.437602", "street": {"id": 1717896, "name": "On or near Grange Mill Lane"}, "longitude": "-1.433874"}, "context": "", "outcome_status": null, "persistent_id": "", "id": 130083971, "location_subtype": "", "month": "2025-07"}, {"category": "anti-social-behaviour", "location_type": "Force", "location": {"latitude": "53.417892", "street": {"id": 1717861, "name": "On or near Wincobank Close"}, "longitude": "-1.436167"}, "context": "", "outcome_status": null, "persistent_id": "", "id": 130083970, "location_subtype": "", "month": "2025-07"}, {"category": "anti-social-behaviour", "location_type": "Force", "location": {"latitude": "53.350268", "street": {"id": 1717785, "name": "On or near Spring Close View"}, "longitude": "-1.437811"}, "context": "", "outcome_status": null, "persistent_id": "", "id": 130083969, "location_subtype": "", "month": "2025-07"}, {"category": "anti-social-behaviour", "location_type": "Force", "location": {"latitude": "53.355392", "street": {"id": 1717073, "name": "On or near Callow Place"}, "longitude": "-1.451370"}, "context": "", "outcome_status": null, "persistent_id": "", "id": 130083968, "location_subtype": "", "month": "2025-07"}, {"category": "anti-social-behaviour", "location_type": "Force", "location": {"latitude": "53.373831", "street": {"id": 1716828, "name": "On or near Granville Road"}, "longitude": "-1.454095"}, "context": "", "outcome_status": null, "persistent_id": "", "id": 130083967, "location_subtype": "", "month": "2025-07"}, {"category": "anti-social-behaviour", "location_type": "Force", "location": {"latitude": "53.395795", "street": {"id": 1716721, "name": "On or near Earldom Close"}, "longitude": "-1.456987"}, "context": "", "outcome_status": null, "persistent_id": "", "id": 130078269, "location_subtype": "", "month": "2025-07"}, {"category": "anti-social-behaviour", "location_type": "Force", "location": {"latitude": "53.412526", "street": {"id": 1716980, "name": "On or near Mortlake Road"}, "longitude": "-1.451719"}, "context": "", "outcome_status": null, "persistent_id": "", "id": 130083966, "location_subtype": "", "month": "2025-07"}, {"category": "anti-social-behaviour", "location_type": "Force", "location": {"latitude": "53.344370", "street": {"id": 1717292, "name": "On or near Gaunt Close"}, "longitude": "-1.447171"}, "context": "", "outcome_status": null, "persistent_id": "", "id": 130078270, "location_subtype": "", "month": "2025-07"}, {"category": "anti-social-behaviour", "location_type": "Force", "location": {"latitude": "53.386764", "street": {"id": 1716743, "name": "On or near Blast Lane"}, "longitude": "-1.455673"}, "context": "", "outcome_status": null, "persistent_id": "", "id": 130083963, "location_subtype": "", "month": "2025-07"}, {"category": "anti-social-behaviour", "location_type": "Force", "location": {"latitude": "53.392647", "street": {"id": 1716766, "name": "On or near Earsham Street"}, "longitude": "-1.456666"}, "context": "", "outcome_status": null, "persistent_id": "", "id": 130083962, "location_subtype": "", "month": "2025-07"}, {"category": "anti-social-behaviour", "location_type": "Force", "location": {"latitude": "53.379702", "street": {"id": 1716052, "name": "On or near Arundel Gate"}, "longitude": "-1.466241"}, "context": "", "outcome_status": null, "persistent_id": "", "id": 130083960, "location_subtype": "", "month": "2025-07"}, {"category": "anti-social-behaviour", "location_type": "Force", "location": {"latitude": "53.378409", "street": {"id": 1715992, "name": "On or near Howard Lane"}, "longitude": "-1.466603"}, "context": "", "outcome_status": null, "persistent_id": "", "id": 130083959, "location_subtype": "", "month": "2025-07"}, {"category": "anti-social-behaviour", "location_type": "Force", "location": {"latitude": "53.376878", "street": {"id": 1716067, "name": "On or near Theatre/concert Hall"}, "longitude": "-1.465961"}, "context": "", "outcome_status": null, "persistent_id": "", "id": 130083958, "location_subtype": "", "month": "2025-07"}, {"category": "anti-social-behaviour", "location_type": "Force", "location": {"latitude": "53.421349", "street": {"id": 1716159, "name": "On or near Emerson Drive"}, "longitude": "-1.464697"}, "context": "", "outcome_status": null, "persistent_id": "", "id": 130083957, "location_subtype": "", "month": "2025-07"}, {"category": "anti-social-behaviour", "location_type": "Force", "location": {"latitude": "53.321221", "street": {"id": 1714707, "name": "On or near Lowedges Crescent"}, "longitude": "-1.478515"}, "context": "", "outcome_status": null, "persistent_id": "", "id": 130083955, "location_subtype": "", "month": "2025-07"}, {"category": "anti-social-behaviour", "location_type": "Force", "location": {"latitude": "53.384362", "street": {"id": 1714680, "name": "On or near Radford Street"}, "longitude": "-1.481413"}, "context": "", "outcome_status": null, "persistent_id": "", "id": 130083953, "location_subtype": "", "month": "2025-07"}, {"category": "anti-social-behaviour", "location_type": "Force", "location": {"latitude": "53.367301", "street": {"id": 1718039, "name": "On or near Cary Grove"}, "longitude": "-1.431816"}, "context": "", "outcome_status": null, "persistent_id": "", "id": 130078274, "location_subtype": "", "month": "2025-07"}, {"category": "anti-social-behaviour", "location_type": "Force", "location": {"latitude": "53.449672", "street": {"id": 1711321, "name": "On or near Dixon Drive"}, "longitude": "-1.554625"}, "context": "", "outcome_status": null, "persistent_id": "", "id": 130087498, "location_subtype": "", "month": "2025-07"}, {"category": "anti-social-behaviour", "location_type": "Force", "location": {"latitude": "53.458798", "street": {"id": 1711205, "name": "On or near More Hall Lane"}, "longitude": "-1.562723"}, "context": "", "outcome_status": null, "persistent_id": "", "id": 130087499, "location_subtype": "", "month": "2025-07"}, {"category": "anti-social-behaviour", "location_type": "Force", "location": {"latitude": "53.327152", "street": {"id": 1712318, "name": "On or near Ladies Spring Drive"}, "longitude": "-1.516384"}, "context": "", "outcome_status": null, "persistent_id": "", "id": 130087502, "location_subtype": "", "month": "2025-07"}, {"category": "anti-social-behaviour", "location_type": "Force", "location": {"latitude": "53.396917", "street": {"id": 1713953, "name": "On or near Langsett Rise"}, "longitude": "-1.491366"}, "context": "", "outcome_status": null, "persistent_id": "", "id": 130087503, "location_subtype": "", "month": "2025-07"}, {"category": "anti-social-behaviour", "location_type": "Force", "location": {"latitude": "53.356683", "street": {"id": 1714233, "name": "On or near Archibald Road"}, "longitude": "-1.487112"}, "context": "", "outcome_status": null, "persistent_id": "", "id": 130087504, "location_subtype": "", "month": "2025-07"}, {"category": "anti-social-behaviour", "location_type": "Force", "location": {"latitude": "53.375585", "street": {"id": 1714582, "name": "On or near Hanover Square"}, "longitude": "-1.482647"}, "context": "", "outcome_status": null, "persistent_id": "", "id": 130087505, "location_subtype": "", "month": "2025-07"}, {"category": "anti-social-behaviour", "location_type": "Force", "location": {"latitude": "53.357779", "street": {"id": 1714512, "name": "On or near Leyburn Road"}, "longitude": "-1.482772"}, "context": "", "outcome_status": null, "persistent_id": "", "id": 130087506, "location_subtype": "", "month": "2025-07"}, {"category": "anti-social-behaviour", "location_type": "Force", "location": {"latitude": "53.382881", "street": {"id": 1714613, "name": "On or near Beet Street"}, "longitude": "-1.481807"}, "context": "", "outcome_status": null, "persistent_id": "", "id": 130087507, "location_subtype": "", "month": "2025-07"}, {"category": "anti-social-behaviour", "location_type": "Force", "location": {"latitude": "53.372774", "street": {"id": 1714584, "name": "On or near Harrow Street"}, "longitude": "-1.480982"}, "context": "", "outcome_status": null, "persistent_id": "", "id": 130087508, "location_subtype": "", "month": "2025-07"}, {"category": "anti-social-behaviour", "location_type": "Force", "location": {"latitude": "53.429887", "street": {"id": 1714883, "name": "On or near Milnrow Road"}, "longitude": "-1.478872"},