[{"category": "anti-social-behaviour", "location_type": "Force", "location": {"latitude": "53.430740", "street": {"id": 1713254, "name": "On or near Carrill Road"}, "longitude": "-1.497359"}, "context": "", "outcome_status": null, "persistent_id": "", "id": 118077517, "location_subtype": "", "month": "2024-04"}, {"category": "anti-social-behaviour", "location_type": "Force", "location": {"latitude": "53.403697", "street": {"id": 1712274, "name": "On or near Studfield Crescent"}, "longitude": "-1.520150"}, "context": "", "outcome_status": null, "persistent_id": "", "id": 118077515, "location_subtype": "", "month": "2024-04"}, {"category": "anti-social-behaviour", "location_type": "Force", "location": {"latitude": "53.321430", "street": {"id": 1715796, "name": "On or near Whinacre Place"}, "longitude": "-1.468785"}, "context": "", "outcome_status": null, "persistent_id": "", "id": 118056850, "location_subtype": "", "month": "2024-04"}, {"category": "anti-social-behaviour", "location_type": "Force", "location": {"latitude": "53.399563", "street": {"id": 1717014, "name": "On or near Carwood Grove"}, "longitude": "-1.451555"}, "context": "", "outcome_status": null, "persistent_id": "", "id": 118055455, "location_subtype": "", "month": "2024-04"}, {"category": "anti-social-behaviour", "location_type": "Force", "location": {"latitude": "53.429317", "street": {"id": 1714452, "name": "On or near Petrol Station"}, "longitude": "-1.484147"}, "context": "", "outcome_status": null, "persistent_id": "", "id": 118054369, "location_subtype": "", "month": "2024-04"}, {"category": "anti-social-behaviour", "location_type": "Force", "location": {"latitude": "53.396963", "street": {"id": 1717029, "name": "On or near Sports/recreation Area"}, "longitude": "-1.451350"}, "context": "", "outcome_status": null, "persistent_id": "", "id": 118055460, "location_subtype": "", "month": "2024-04"}, {"category": "anti-social-behaviour", "location_type": "Force", "location": {"latitude": "53.409300", "street": {"id": 1717064, "name": "On or near Horndean Road"}, "longitude": "-1.450091"}, "context": "", "outcome_status": null, "persistent_id": "", "id": 118055463, "location_subtype": "", "month": "2024-04"}, {"category": "anti-social-behaviour", "location_type": "Force", "location": {"latitude": "53.382766", "street": {"id": 1714797, "name": "On or near Broad Lane Court"}, "longitude": "-1.480275"}, "context": "", "outcome_status": null, "persistent_id": "", "id": 118071954, "location_subtype": "", "month": "2024-04"}, {"category": "anti-social-behaviour", "location_type": "Force", "location": {"latitude": "53.390084", "street": {"id": 1715903, "name": "On or near Chatham Street"}, "longitude": "-1.468247"}, "context": "", "outcome_status": null, "persistent_id": "", "id": 118077533, "location_subtype": "", "month": "2024-04"}, {"category": "anti-social-behaviour", "location_type": "Force", "location": {"latitude": "53.422099", "street": {"id": 1715343, "name": "On or near Adrian Crescent"}, "longitude": "-1.471654"}, "context": "", "outcome_status": null, "persistent_id": "", "id": 118077532, "location_subtype": "", "month": "2024-04"}, {"category": "anti-social-behaviour", "location_type": "Force", "location": {"latitude": "53.381414", "street": {"id": 1715639, "name": "On or near Orchard Lane"}, "longitude": "-1.471121"}, "context": "", "outcome_status": null, "persistent_id": "", "id": 118077531, "location_subtype": "", "month": "2024-04"}, {"category": "anti-social-behaviour", "location_type": "Force", "location": {"latitude": "53.379910", "street": {"id": 1715310, "name": "On or near Rockingham Lane"}, "longitude": "-1.474552"}, "context": "", "outcome_status": null, "persistent_id": "", "id": 118077530, "location_subtype": "", "month": "2024-04"}, {"category": "anti-social-behaviour", "location_type": "Force", "location": {"latitude": "53.321308", "street": {"id": 1715107, "name": "On or near Lowedges Place"}, "longitude": "-1.475662"}, "context": "", "outcome_status": null, "persistent_id": "", "id": 118077529, "location_subtype": "", "month": "2024-04"}, {"category": "anti-social-behaviour", "location_type": "Force", "location": {"latitude": "53.384722", "street": {"id": 1715158, "name": "On or near Bakers Lane"}, "longitude": "-1.475274"}, "context": "", "outcome_status": null, "persistent_id": "", "id": 118077528, "location_subtype": "", "month": "2024-04"}, {"category": "anti-social-behaviour", "location_type": "Force", "location": {"latitude": "53.380913", "street": {"id": 1715181, "name": "On or near West Street"}, "longitude": "-1.475847"}, "context": "", "outcome_status": null, "persistent_id": "", "id": 118077527, "location_subtype": "", "month": "2024-04"}, {"category": "anti-social-behaviour", "location_type": "Force", "location": {"latitude": "53.352770", "street": {"id": 1714899, "name": "On or near Cliffefield Road"}, "longitude": "-1.477935"}, "context": "", "outcome_status": null, "persistent_id": "", "id": 118077526, "location_subtype": "", "month": "2024-04"}, {"category": "anti-social-behaviour", "location_type": "Force", "location": {"latitude": "53.370974", "street": {"id": 1714961, "name": "On or near Leverton Drive"}, "longitude": "-1.478359"}, "context": "", "outcome_status": null, "persistent_id": "", "id": 118077525, "location_subtype": "", "month": "2024-04"}, {"category": "anti-social-behaviour", "location_type": "Force", "location": {"latitude": "53.378823", "street": {"id": 1714658, "name": "On or near Conference/exhibition Centre"}, "longitude": "-1.481218"}, "context": "", "outcome_status": null, "persistent_id": "", "id": 118077524, "location_subtype": "", "month": "2024-04"}, {"category": "anti-social-behaviour", "location_type": "Force", "location": {"latitude": "53.338283", "street": {"id": 1714518, "name": "On or near Greenhill Road"}, "longitude": "-1.482858"}, "context": "", "outcome_status": null, "persistent_id": "", "id": 118077523, "location_subtype": "", "month": "2024-04"}, {"category": "anti-social-behaviour", "location_type": "Force", "location": {"latitude": "53.419188", "street": {"id": 1714348, "name": "On or near Dryden Way"}, "longitude": "-1.484390"}, "context": "", "outcome_status": null, "persistent_id": "", "id": 118077522, "location_subtype": "", "month": "2024-04"}, {"category": "anti-social-behaviour", "location_type": "Force", "location": {"latitude": "53.385178", "street": {"id": 1714390, "name": "On or near Bramwell Street"}, "longitude": "-1.485086"}, "context": "", "outcome_status": null, "persistent_id": "", "id": 118077521, "location_subtype": "", "month": "2024-04"}, {"category": "anti-social-behaviour", "location_type": "Force", "location": {"latitude": "53.468793", "street": {"id": 1714165, "name": "On or near Greengate Lane"}, "longitude": "-1.487811"}, "context": "", "outcome_status": null, "persistent_id": "", "id": 118077520, "location_subtype": "", "month": "2024-04"}, {"category": "anti-social-behaviour", "location_type": "Force", "location": {"latitude": "53.421217", "street": {"id": 1714035, "name": "On or near Meynell Crescent"}, "longitude": "-1.490038"}, "context": "", "outcome_status": null, "persistent_id": "", "id": 118077518, "location_subtype": "", "month": "2024-04"}, {"category": "anti-social-behaviour", "location_type": "Force", "location": {"latitude": "53.420170", "street": {"id": 1713377, "name": "On or near Baxter Road"}, "longitude": "-1.499771"}, "context": "", "outcome_status": null, "persistent_id": "", "id": 118077516, "location_subtype": "", "month": "2024-04"}, {"category": "anti-social-behaviour", "location_type": "Force", "location": {"latitude": "53.370974", "street": {"id": 1714961, "name": "On or near Leverton Drive"}, "longitude": "-1.478359"}, "context": "", "outcome_status": null, "persistent_id": "", "id": 118071956, "location_subtype": "", "month": "2024-04"}, {"category": "anti-social-behaviour", "location_type": "Force", "location": {"latitude": "53.381470", "street": {"id": 1714999, "name": "On or near Portobello Street"}, "longitude": "-1.477840"}, "context": "", "outcome_status": null, "persistent_id": "", "id": 118071958, "location_subtype": "", "month": "2024-04"}, {"category": "anti-social-behaviour", "location_type": "Force", "location": {"latitude": "53.479141", "street": {"id": 1711063, "name": "On or near Holling Croft"}, "longitude": "-1.575608"}, "context": "", "outcome_status": null, "persistent_id": "", "id": 118058272, "location_subtype": "", "month": "2024-04"}, {"category": "anti-social-behaviour", "location_type": "Force", "location": {"latitude": "53.343072", "street": {"id": 1715200, "name": "On or near Olivet Road"}, "longitude": "-1.476131"}, "context": "", "outcome_status": null, "persistent_id": "", "id": 118071960, "location_subtype": "", "month": "2024-04"}, {"category": "anti-social-behaviour", "location_type": "Force", "location": {"latitude": "53.382078", "street": {"id": 1715085, "name": "On or near Newcastle Street"}, "longitude": "-1.477201"}, "context": "", "outcome_status": null, "persistent_id": "", "id": 118071962, "location_subtype": "", "month": "2024-04"}, {"category": "anti-social-behaviour", "location_type": "Force", "location": {"latitude": "53.341522", "street": {"id": 1715233, "name": "On or near Wellcarr Road"}, "longitude": "-1.475399"}, "context": "", "outcome_status": null, "persistent_id": "", "id": 118071964, "location_subtype": "", "month": "2024-04"}, {"category": "anti-social-behaviour", "location_type": "Force", "location": {"latitude": "53.381809", "street": {"id": 1715708, "name": "On or near Shopping Area"}, "longitude": "-1.468581"}, "context": "", "outcome_status": null, "persistent_id": "", "id": 118056848, "location_subtype": "", "month": "2024-04"}, {"category": "anti-social-behaviour", "location_type": "Force", "location": {"latitude": "53.370761", "street": {"id": 1710935, "name": "On or near Redmires Lane"}, "longitude": "-1.584455"}, "context": "", "outcome_status": null, "persistent_id": "", "id": 118068298, "location_subtype": "", "month": "2024-04"}, {"category": "anti-social-behaviour", "location_type": "Force", "location": {"latitude": "53.407566", "street": {"id": 1715335, "name": "On or near Miles Road"}, "longitude": "-1.474256"}, "context": "", "outcome_status": null, "persistent_id": "", "id": 118071966, "location_subtype": "", "month": "2024-04"}, {"category": "anti-social-behaviour", "location_type": "Force", "location": {"latitude": "53.402441", "street": {"id": 1713145, "name": "On or near Hillsborough Place"}, "longitude": "-1.503168"}, "context": "", "outcome_status": null, "persistent_id": "", "id": 118068306, "location_subtype": "", "month": "2024-04"}, {"category": "anti-social-behaviour", "location_type": "Force", "location": {"latitude": "53.376442", "street": {"id": 1713187, "name": "On or near Ashgate Road"}, "longitude": "-1.502268"}, "context": "", "outcome_status": null, "persistent_id": "", "id": 118068310, "location_subtype": "", "month": "2024-04"}, {"category": "anti-social-behaviour", "location_type": "Force", "location": {"latitude": "53.377385", "street": {"id": 1713208, "name": "On or near Supermarket"}, "longitude": "-1.501885"}, "context": "", "outcome_status": null, "persistent_id": "", "id": 118068313, "location_subtype": "", "month": "2024-04"}, {"category": "anti-social-behaviour", "location_type": "Force", "location": {"latitude": "53.383524", "street": {"id": 1714395, "name": "On or near Mitchell Street"}, "longitude": "-1.485031"}, "context": "", "outcome_status": null, "persistent_id": "", "id": 118068315, "location_subtype": "", "month": "2024-04"}, {"category": "anti-social-behaviour", "location_type": "Force", "location": {"latitude": "53.374499", "street": {"id": 1714553, "name": "On or near Exeter Place"}, "longitude": "-1.483021"}, "context": "", "outcome_status": null, "persistent_id": "", "id": 118068318, "location_subtype": "", "month": "2024-04"}, {"category": "anti-social-behaviour", "location_type": "Force", "location": {"latitude": "53.461640", "street": {"id": 1714691, "name": "On or near Supermarket"}, "longitude": "-1.480468"}, "context": "", "outcome_status": null, "persistent_id": "", "id": 118068321, "location_subtype": "", "month": "2024-04"}, {"category": "anti-social-behaviour", "location_type": "Force", "location": {"latitude": "53.370974", "street": {"id": 1714961, "name": "On or near Leverton Drive"}, "longitude": "-1.478359"}, "context": "", "outcome_status": null, "persistent_id": "", "id": 118068326, "location_subtype": "", "month": "2024-04"}, {"category": "anti-social-behaviour", "location_type": "Force", "location": {"latitude": "53.356020", "street": {"id": 1715464, "name": "On or near Cross Park Road"}, "longitude": "-1.473058"}, "context": "", "outcome_status": null, "persistent_id": "", "id": 118056842, "location_subtype": "", "month": "2024-04"}, {"category": "anti-social-behaviour", "location_type": "Force", "location": {"latitude": "53.377324", "street": {"id": 1715241, "name": "On or near Nightclub"}, "longitude": "-1.475830"}, "context": "", "outcome_status": null, "persistent_id": "", "id": 118068329, "location_subtype": "", "month": "2024-04"}, {"category": "anti-social-behaviour", "location_type": "Force", "location": {"latitude": "53.429945", "street": {"id": 1715219, "name": "On or near Milnrow Crescent"}, "longitude": "-1.475576"}, "context": "", "outcome_status": null, "persistent_id": "", "id": 118056839, "location_subtype": "", "month": "2024-04"}, {"category": "anti-social-behaviour", "location_type": "Force", "location": {"latitude": "53.374339", "street": {"id": 1715617, "name": "On or near Sylvester Street"}, "longitude": "-1.470938"}, "context": "", "outcome_status": null, "persistent_id": "", "id": 118071968, "location_subtype": "", "month": "2024-04"}, {"category": "anti-social-behaviour", "location_type": "Force", "location": {"latitude": "53.429945", "street": {"id": 1715219, "name": "On or near Milnrow Crescent"}, "longitude": "-1.475576"}, "context": "", "outcome_status": null, "persistent_id": "", "id": 118068332, "location_subtype": "", "month": "2024-04"}, {"category": "anti-social-behaviour", "location_type": "Force", "location": {"latitude": "53.327210", "street": {"id": 1715229, "name": "On or near Petrol Station"}, "longitude": "-1.474764"}, "context": "", "outcome_status": null, "persistent_id": "", "id": 118068334, "location_subtype": "", "month": "2024-04"}, {"category": "anti-social-behaviour", "location_type": "Force", "location": {"latitude": "53.382036", "street": {"id": 1715584, "name": "On or near Leopold Street"}, "longitude": "-1.471519"}, "context": "", "outcome_status": null, "persistent_id": "", "id": 118068337, "location_subtype": "", "month": "2024-04"}, {"category": "anti-social-behaviour", "location_type": "Force", "location": {"latitude": "53.459351", "street": {"id": 1715300, "name": "On or near Steven Close"}, "longitude": "-1.474611"}, "context": "", "outcome_status": null, "persistent_id": "", "id": 118056836, "location_subtype": "", "month": "2024-04"}, {"category": "anti-social-behaviour", "location_type": "Force", "location": {"latitude": "53.320189", "street": {"id": 1715760, "name": "On or near Sports/recreation Area"}, "longitude": "-1.469404"}, "context": "", "outcome_status": null, "persistent_id": "", "id": 118068340, "location_subtype": "", "month": "2024-04"}, {"category": "anti-social-behaviour", "location_type": "Force", "location": {"latitude": "53.322100", "street": {"id": 1716250, "name": "On or near Dyche Road"}, "longitude": "-1.463732"}, "context": "", "outcome_status": null, "persistent_id": "", "id": 118068344, "location_subtype": "", "month": "2024-04"}, {"category": "anti-social-behaviour", "location_type": "Force", "location": {"latitude": "53.401117", "street": {"id": 1716273, "name": "On or near Firshill Close"}, "longitude": "-1.463040"}, "context": "", "outcome_status": null, "persistent_id": "", "id": 118068347, "location_subtype": "", "month": "2024-04"}, {"category": "anti-social-behaviour", "location_type": "Force", "location": {"latitude": "53.376721", "street": {"id": 1716265, "name": "On or near Cross Turner Street"}, "longitude": "-1.463062"}, "context": "", "outcome_status": null, "persistent_id": "", "id": 118068350, "location_subtype": "", "month": "2024-04"}, {"category": "anti-social-behaviour", "location_type": "Force", "location": {"latitude": "53.349124", "street": {"id": 1716124, "name": "On or near Thorpe House Avenue"}, "longitude": "-1.464685"}, "context": "", "outcome_status": null, "persistent_id": "", "id": 118068358, "location_subtype": "", "month": "2024-04"}, {"category": "anti-social-behaviour", "location_type": "Force", "location": {"latitude": "53.380099", "street": {"id": 1715097, "name": "On or near Westfield Terrace"}, "longitude": "-1.476699"}, "context": "", "outcome_status": null, "persistent_id": "", "id": 118056833, "location_subtype": "", "month": "2024-04"}, {"category": "anti-social-behaviour", "location_type": "Force", "location": {"latitude": "53.360484", "street": {"id": 1716651, "name": "On or near Myrtle Crescent"}, "longitude": "-1.458217"}, "context": "", "outcome_status": null, "persistent_id": "", "id": 118068360, "location_subtype": "", "month": "2024-04"}, {"category": "anti-social-behaviour", "location_type": "Force", "location": {"latitude": "53.355194", "street": {"id": 1716309, "name": "On or near Carfield Lane"}, "longitude": "-1.459306"}, "context": "", "outcome_status": null, "persistent_id": "", "id": 118068363, "location_subtype": "", "month": "2024-04"}, {"category": "anti-social-behaviour", "location_type": "Force", "location": {"latitude": "53.362655", "street": {"id": 1716679, "name": "On or near Thornborough Place"}, "longitude": "-1.457228"}, "context": "", "outcome_status": null, "persistent_id": "", "id": 118068366, "location_subtype": "", "month": "2024-04"}, {"category": "anti-social-behaviour", "location_type": "Force", "location": {"latitude": "53.441094", "street": {"id": 1716694, "name": "On or near Green Lane"}, "longitude": "-1.454151"}, "context": "", "outcome_status": null, "persistent_id": "", "id": 118068368, "location_subtype": "", "month": "2024-04"}, {"category": "anti-social-behaviour", "location_type": "Force", "location": {"latitude": "53.357203", "street": {"id": 1717236, "name": "On or near Daresbury Place"}, "longitude": "-1.446539"}, "context": "", "outcome_status": null, "persistent_id": "", "id": 118068379, "location_subtype": "", "month": "2024-04"}, {"category": "anti-social-behaviour", "location_type": "Force", "location": {"latitude": "53.343983", "street": {"id": 1717403, "name": "On or near Ironside Road"}, "longitude": "-1.444983"}, "context": "", "outcome_status": null, "persistent_id": "", "id": 118068381, "location_subtype": "", "month": "2024-04"}, {"category": "anti-social-behaviour", "location_type": "Force", "location": {"latitude": "53.365134", "street": {"id": 1717343, "name": "On or near Guildford Walk"}, "longitude": "-1.445219"}, "context": "", "outcome_status": null, "persistent_id": "", "id": 118068384, "location_subtype": "", "month": "2024-04"}, {"category": "anti-social-behaviour", "location_type": "Force", "location": {"latitude": "53.361793", "street": {"id": 1717573, "name": "On or near Algar Drive"}, "longitude": "-1.441942"}, "context": "", "outcome_status": null, "persistent_id": "", "id": 118068386, "location_subtype": "", "month": "2024-04"}, {"category": "anti-social-behaviour", "location_type": "Force", "location": {"latitude": "53.367283", "street": {"id": 1717730, "name": "On or near Petrol Station"}, "longitude": "-1.439526"}, "context": "", "outcome_status": null, "persistent_id": "", "id": 118068389, "location_subtype": "", "month": "2024-04"}, {"category": "anti-social-behaviour", "location_type": "Force", "location": {"latitude": "53.433346", "street": {"id": 1717980, "name": "On or near Ecclesfield Road"}, "longitude": "-1.431116"}, "context": "", "outcome_status": null, "persistent_id": "", "id": 118068394, "location_subtype": "", "month": "2024-04"}, {"category": "anti-social-behaviour", "location_type": "Force", "location": {"latitude": "53.425255", "street": {"id": 1713279, "name": "On or near Camborne Close"}, "longitude": "-1.501262"}, "context": "", "outcome_status": null, "persistent_id": "", "id": 118070822, "location_subtype": "", "month": "2024-04"}, {"category": "anti-social-behaviour", "location_type": "Force", "location": {"latitude": "53.437602", "street": {"id": 1717896, "name": "On or near Grange Mill Lane"}, "longitude": "-1.433874"}, "context": "", "outcome_status": null, "persistent_id": "", "id": 118068397, "location_subtype": "", "month": "2024-04"}, {"category": "anti-social-behaviour", "location_type": "Force", "location": {"latitude": "53.430906", "street": {"id": 1718450, "name": "On or near M1"}, "longitude": "-1.420899"}, "context": "", "outcome_status": null, "persistent_id": "", "id": 118068402, "location_subtype": "", "month": "2024-04"}, {"category": "anti-social-behaviour", "location_type": "Force", "location": {"latitude": "53.388915", "street": {"id": 1718399, "name": "On or near Staniforth Road"}, "longitude": "-1.423679"}, "context": "", "outcome_status": null, "persistent_id": "", "id": 118068404, "location_subtype": "", "month": "2024-04"}, {"category": "anti-social-behaviour", "location_type": "Force", "location": {"latitude": "53.423860", "street": {"id": 1718439, "name": "On or near Woodbury Road"}, "longitude": "-1.422936"}, "context": "", "outcome_status": null, "persistent_id": "", "id": 118068407, "location_subtype": "", "month": "2024-04"}, {"category": "anti-social-behaviour", "location_type": "Force", "location": {"latitude": "53.367502", "street": {"id": 1718569, "name": "On or near Princess Court"}, "longitude": "-1.419610"}, "context": "", "outcome_status": null, "persistent_id": "", "id": 118068412, "location_subtype": "", "month": "2024-04"}, {"category": "anti-social-behaviour", "location_type": "Force", "location": {"latitude": "53.333937", "street": {"id": 1714459, "name": "On or near Abbey Brook Court"}, "longitude": "-1.483991"}, "context": "", "outcome_status": null, "persistent_id": "", "id": 118054371, "location_subtype": "", "month": "2024-04"}, {"category": "anti-social-behaviour", "location_type": "Force", "location": {"latitude": "53.384842", "street": {"id": 1715918, "name": "On or near Scargill Croft"}, "longitude": "-1.467891"}, "context": "", "outcome_status": null, "persistent_id": "", "id": 118071972, "location_subtype": "", "month": "2024-04"}, {"category": "anti-social-behaviour", "location_type": "Force", "location": {"latitude": "53.376126", "street": {"id": 1714403, "name": "On or near Clarke Street"}, "longitude": "-1.485120"}, "context": "", "outcome_status": null, "persistent_id": "", "id": 118054373, "location_subtype": "", "month": "2024-04"}, {"category": "anti-social-behaviour", "location_type": "Force", "location": {"latitude": "53.384800", "street": {"id": 1715980, "name": "On or near Snig Hill"}, "longitude": "-1.466493"}, "context": "", "outcome_status": null, "persistent_id": "", "id": 118071974, "location_subtype": "", "month": "2024-04"}, {"category": "anti-social-behaviour", "location_type": "Force", "location": {"latitude": "53.461037", "street": {"id": 1714822, "name": "On or near Burns Court"}, "longitude": "-1.479862"}, "context": "", "outcome_status": null, "persistent_id": "", "id": 118054377, "location_subtype": "", "month": "2024-04"}, {"category": "anti-social-behaviour", "location_type": "Force", "location": {"latitude": "53.340232", "street": {"id": 1714730, "name": "On or near Osmaston Road"}, "longitude": "-1.480341"}, "context": "", "outcome_status": null, "persistent_id": "", "id": 118054378, "location_subtype": "", "month": "2024-04"}, {"category": "anti-social-behaviour", "location_type": "Force", "location": {"latitude": "53.332361", "street": {"id": 1716041, "name": "On or near Norton Lane"}, "longitude": "-1.462883"}, "context": "", "outcome_status": null, "persistent_id": "", "id": 118071976, "location_subtype": "", "month": "2024-04"}, {"category": "anti-social-behaviour", "location_type": "Force", "location": {"latitude": "53.459602", "street": {"id": 1715147, "name": "On or near Steven Crescent"}, "longitude": "-1.476461"}, "context": "", "outcome_status": null, "persistent_id": "", "id": 118054380, "location_subtype": "", "month": "2024-04"}, {"category": "anti-social-behaviour", "location_type": "Force", "location": {"latitude": "53.357097", "street": {"id": 1715089, "name": "On or near Little London Place"}, "longitude": "-1.476755"}, "context": "", "outcome_status": null, "persistent_id": "", "id": 118054386, "location_subtype": "", "month": "2024-04"}, {"category": "anti-social-behaviour", "location_type": "Force", "location": {"latitude": "53.459351", "street": {"id": 1715300, "name": "On or near Steven Close"}, "longitude": "-1.474611"}, "context": "", "outcome_status": null, "persistent_id": "", "id": 118054388, "location_subtype": "", "month": "2024-04"}, {"category": "anti-social-behaviour", "location_type": "Force", "location": {"latitude": "53.350547", "street": {"id": 1722006, "name": "On or near Sycamore Street"}, "longitude": "-1.341197"}, "context": "", "outcome_status": null, "persistent_id": "", "id": 118065742, "location_subtype": "", "month": "2024-04"}, {"category": "anti-social-behaviour", "location_type": "Force", "location": {"latitude": "53.459351", "street": {"id": 1715300, "name": "On or near Steven Close"}, "longitude": "-1.474611"}, "context": "", "outcome_status": null, "persistent_id": "", "id": 118054390, "location_subtype": "", "month": "2024-04"}, {"category": "anti-social-behaviour", "location_type": "Force", "location": {"latitude": "53.398400", "street": {"id": 1716044, "name": "On or near Minna Road"}, "longitude": "-1.466609"}, "context": "", "outcome_status": null, "persistent_id": "", "id": 118054392, "location_subtype": "", "month": "2024-04"}, {"category": "anti-social-behaviour", "location_type": "Force", "location": {"latitude": "53.382133", "street": {"id": 1715928, "name": "On or near George Street"}, "longitude": "-1.467068"}, "context": "", "outcome_status": null, "persistent_id": "", "id": 118054394, "location_subtype": "", "month": "2024-04"}, {"category": "anti-social-behaviour", "location_type": "Force", "location": {"latitude": "53.479073", "street": {"id": 1718563, "name": "On or near Clayfield Lane"}, "longitude": "-1.414759"}, "context": "", "outcome_status": null, "persistent_id": "", "id": 118068418, "location_subtype": "", "month": "2024-04"}, {"category": "anti-social-behaviour", "location_type": "Force", "location": {"latitude": "53.426616", "street": {"id": 1716117, "name": "On or near Lindsay Drive"}, "longitude": "-1.464781"}, "context": "", "outcome_status": null, "persistent_id": "", "id": 118054396, "location_subtype": "", "month": "2024-04"}, {"category": "anti-social-behaviour", "location_type": "Force", "location": {"latitude": "53.375550", "street": {"id": 1716489, "name": "On or near Barnes Court"}, "longitude": "-1.460326"}, "context": "", "outcome_status": null, "persistent_id": "", "id": 118071977, "location_subtype": "", "month": "2024-04"}, {"category": "anti-social-behaviour", "location_type": "Force", "location": {"latitude": "53.382289", "street": {"id": 1716088, "name": "On or near Parking Area"}, "longitude": "-1.465818"}, "context": "", "outcome_status": null, "persistent_id": "", "id": 118054398, "location_subtype": "", "month": "2024-04"}, {"category": "anti-social-behaviour", "location_type": "Force", "location": {"latitude": "53.443854", "street": {"id": 1716714, "name": "On or near Station Road"}, "longitude": "-1.456374"}, "context": "", "outcome_status": null, "persistent_id": "", "id": 118054404, "location_subtype": "", "month": "2024-04"}, {"category": "anti-social-behaviour", "location_type": "Force", "location": {"latitude": "53.351588", "street": {"id": 1717496, "name": "On or near Middle Hay Close"}, "longitude": "-1.443172"}, "context": "", "outcome_status": null, "persistent_id": "", "id": 118054405, "location_subtype": "", "month": "2024-04"}, {"category": "anti-social-behaviour", "location_type": "Force", "location": {"latitude": "53.361793", "street": {"id": 1717573, "name": "On or near Algar Drive"}, "longitude": "-1.441942"}, "context": "", "outcome_status": null, "persistent_id": "", "id": 118054407, "location_subtype": "", "month": "2024-04"}, {"category": "anti-social-behaviour", "location_type": "Force", "location": {"latitude": "53.422413", "street": {"id": 1722073, "name": "On or near A6021"}, "longitude": "-1.338116"}, "context": "", "outcome_status": null, "persistent_id": "", "id": 118074875, "location_subtype": "", "month": "2024-04"}, {"category": "anti-social-behaviour", "location_type": "Force", "location": {"latitude": "53.365287", "street": {"id": 1717818, "name": "On or near Strouts Way"}, "longitude": "-1.437478"}, "context": "", "outcome_status": null, "persistent_id": "", "id": 118054409, "location_subtype": "", "month": "2024-04"}, {"category": "anti-social-behaviour", "location_type": "Force", "location": {"latitude": "53.451131", "street": {"id": 1722071, "name": "On or near Durham Way"}, "longitude": "-1.337955"}, "context": "", "outcome_status": null, "persistent_id": "", "id": 118074873, "location_subtype": "", "month": "2024-04"}, {"category": "anti-social-behaviour", "location_type": "Force", "location": {"latitude": "53.433054", "street": {"id": 1721368, "name": "On or near Henry Street"}, "longitude": "-1.354146"}, "context": "", "outcome_status": null, "persistent_id": "", "id": 118074866, "location_subtype": "", "month": "2024-04"}, {"category": "anti-social-behaviour", "location_type": "Force", "location": {"latitude": "53.432099", "street": {"id": 1720829, "name": "On or near College Road"}, "longitude": "-1.365449"}, "context": "", "outcome_status": null, "persistent_id": "", "id": 118074864, "location_subtype": "", "month": "2024-04"}, {"category": "anti-social-behaviour", "location_type": "Force", "location": {"latitude": "53.359466", "street": {"id": 1720131, "name": "On or near New Cross Way"}, "longitude": "-1.381959"}, "context": "", "outcome_status": null, "persistent_id": "", "id": 118074860, "location_subtype": "", "month": "2024-04"}, {"category": "anti-social-behaviour", "location_type": "Force", "location": {"latitude": "53.413582", "street": {"id": 1718469, "name": "On or near Tipton Street"}, "longitude": "-1.422248"}, "context": "", "outcome_status": null, "persistent_id": "", "id": 118074850, "location_subtype": "", "month": "2024-04"}, {"category": "anti-social-behaviour", "location_type": "Force", "location": {"latitude": "53.369488", "street": {"id": 1718245, "name": "On or near Raynald Road"}, "longitude": "-1.426917"}, "context": "", "outcome_status": null, "persistent_id": "", "id": 118074846, "location_subtype": "", "month": "2024-04"}, {"category": "anti-social-behaviour", "location_type": "Force", "location": {"latitude": "53.360989", "street": {"id": 1718022, "name": "On or near Dagnam Drive"}, "longitude": "-1.431509"}, "context": "", "outcome_status": null, "persistent_id": "", "id": 118074844, "location_subtype": "", "month": "2024-04"}, {"category": "anti-social-behaviour", "location_type": "Force", "location": {"latitude": "53.411735", "street": {"id": 1717299, "name": "On or near Addison Road"}, "longitude": "-1.445922"}, "context": "", "outcome_status": null, "persistent_id": "", "id": 118074837, "location_subtype": "", "month": "2024-04"}, {"category": "anti-social-behaviour", "location_type": "Force", "location": {"latitude": "53.366655", "street": {"id": 1716939, "name": "On or near Park Grange Drive"}, "longitude": "-1.453345"}, "context": "", "outcome_status": null, "persistent_id": "", "id": 118074836, "location_subtype": "", "month": "2024-04"}, {"category": "anti-social-behaviour", "location_type": "Force", "location": {"latitude": "53.345141", "street": {"id": 1718297, "name": "On or near Supermarket"}, "longitude": "-1.425833"}, "context": "", "outcome_status": null, "persistent_id": "", "id": 118054412, "location_subtype": "", "month": "2024-04"}, {"category": "anti-social-behaviour", "location_type": "Force", "location": {"latitude": "53.351483", "street": {"id": 1718475, "name": "On or near Hollinsend Road"}, "longitude": "-1.421074"}, "context": "", "outcome_status": null, "persistent_id": "", "id": 118054413, "location_subtype": "", "month": "2024-04"}, {"category": "anti-social-behaviour", "location_type": "Force", "location": {"latitude": "53.343354", "street": {"id": 1718431, "name": "On or near Blossom Crescent"}, "longitude": "-1.422266"}, "context": "", "outcome_status": null, "persistent_id": "", "id": 118054415, "location_subtype": "", "month": "2024-04"}, {"category": "anti-social-behaviour", "location_type": "Force", "location": {"latitude": "53.413798", "street": {"id": 1718557, "name": "On or near Bubwith Road"}, "longitude": "-1.420349"}, "context": "", "outcome_status": null, "persistent_id": "", "id": 118054417, "location_subtype": "", "month": "2024-04"}, {"category": "anti-social-behaviour", "location_type": "Force", "location": {"latitude": "53.391485", "street": {"id": 1719070, "name": "On or near Greenland Close"}, "longitude": "-1.410653"}, "context": "", "outcome_status": null, "persistent_id": "", "id": 118054420, "location_subtype": "", "month": "2024-04"}, {"category": "anti-social-behaviour", "location_type": "Force", "location": {"latitude": "53.403879", "street": {"id": 1719145, "name": "On or near Shepcote Lane"}, "longitude": "-1.406541"}, "context": "", "outcome_status": null, "persistent_id": "", "id": 118054424, "location_subtype": "", "month": "2024-04"}, {"category": "anti-social-behaviour", "location_type": "Force", "location": {"latitude": "53.427310", "street": {"id": 1719627, "name": "On or near Jordan Crescent"}, "longitude": "-1.393633"}, "context": "", "outcome_status": null, "persistent_id": "", "id": 118054427, "location_subtype": "", "month": "2024-04"}, {"category": "anti-social-behaviour", "location_type": "Force", "location": {"latitude": "53.453640", "street": {"id": 1719676, "name": "On or near Town Lane"}, "longitude": "-1.392385"}, "context": "", "outcome_status": null, "persistent_id": "", "id": 118054430, "location_subtype": "", "month": "2024-04"}, {"category": "anti-social-behaviour", "location_type": "Force", "location": {"latitude": "53.374460", "street": {"id": 1719721, "name": "On or near Hall Court"}, "longitude": "-1.390761"}, "context": "", "outcome_status": null, "persistent_id": "", "id": 118054431, "location_subtype": "", "month": "2024-04"}, {"category": "anti-social-behaviour", "location_type": "Force", "location": {"latitude": "53.340612", "street": {"id": 1720137, "name": "On or near Athersley Gardens"}, "longitude": "-1.381015"}, "context": "", "outcome_status": null, "persistent_id": "", "id": 118054433, "location_subtype": "", "month": "2024-04"}, {"category": "anti-social-behaviour", "location_type": "Force", "location": {"latitude": "53.356176", "street": {"id": 1720443, "name": "On or near Water Slacks Close"}, "longitude": "-1.374870"}, "context": "", "outcome_status": null, "persistent_id": "", "id": 118054435, "location_subtype": "", "month": "2024-04"}, {"category": "anti-social-behaviour", "location_type": "Force", "location": {"latitude": "53.344307", "street": {"id": 1721226, "name": "On or near Shopping Area"}, "longitude": "-1.357183"}, "context": "", "outcome_status": null, "persistent_id": "", "id": 118054437, "location_subtype": "", "month": "2024-04"}, {"category": "anti-social-behaviour", "location_type": "Force", "location": {"latitude": "53.370974", "street": {"id": 1714961, "name": "On or near Leverton Drive"}, "longitude": "-1.478359"}, "context": "", "outcome_status": null, "persistent_id": "", "id": 118056828, "location_subtype": "", "month": "2024-04"}, {"category": "anti-social-behaviour", "location_type": "Force", "location": {"latitude": "53.433054", "street": {"id": 1721368, "name": "On or near Henry Street"}, "longitude": "-1.354146"}, "context": "", "outcome_status": null, "persistent_id": "", "id": 118054439, "location_subtype": "", "month": "2024-04"}, {"category": "anti-social-behaviour", "location_type": "Force", "location": {"latitude": "53.430347", "street": {"id": 1721277, "name": "On or near Conference/exhibition Centre"}, "longitude": "-1.355677"}, "context": "", "outcome_status": null, "persistent_id": "", "id": 118054441, "location_subtype": "", "month": "2024-04"}, {"category": "anti-social-behaviour", "location_type": "Force", "location": {"latitude": "53.426508", "street": {"id": 1721559, "name": "On or near Warwick Street"}, "longitude": "-1.350513"}, "context": "", "outcome_status": null, "persistent_id": "", "id": 118054443, "location_subtype": "", "month": "2024-04"}, {"category": "anti-social-behaviour", "location_type": "Force", "location": {"latitude": "53.452262", "street": {"id": 1718776, "name": "On or near Scholes Lane"}, "longitude": "-1.413275"}, "context": "", "outcome_status": null, "persistent_id": "", "id": 118068420, "location_subtype": "", "month": "2024-04"}, {"category": "anti-social-behaviour", "location_type": "Force", "location": {"latitude": "53.365803", "street": {"id": 1718857, "name": "On or near Woodthorpe Crescent"}, "longitude": "-1.414012"}, "context": "", "outcome_status": null, "persistent_id": "", "id": 118068423, "location_subtype": "", "month": "2024-04"}, {"category": "anti-social-behaviour", "location_type": "Force", "location": {"latitude": "53.414100", "street": {"id": 1716892, "name": "On or near Calder Way"}, "longitude": "-1.454001"}, "context": "", "outcome_status": null, "persistent_id": "", "id": 118071979, "location_subtype": "", "month": "2024-04"}, {"category": "anti-social-behaviour", "location_type": "Force", "location": {"latitude": "53.361944", "street": {"id": 1720157, "name": "On or near Severnside Drive"}, "longitude": "-1.381232"}, "context": "", "outcome_status": null, "persistent_id": "", "id": 118068425, "location_subtype": "", "month": "2024-04"}, {"category": "anti-social-behaviour", "location_type": "Force", "location": {"latitude": "53.352456", "street": {"id": 1714821, "name": "On or near Meersbrook Avenue"}, "longitude": "-1.480162"}, "context": "", "outcome_status": null, "persistent_id": "", "id": 118056826, "location_subtype": "", "month": "2024-04"}, {"category": "anti-social-behaviour", "location_type": "Force", "location": {"latitude": "53.337810", "street": {"id": 1722198, "name": "On or near Hartland Drive"}, "longitude": "-1.336332"}, "context": "", "outcome_status": null, "persistent_id": "", "id": 118054444, "location_subtype": "", "month": "2024-04"}, {"category": "anti-social-behaviour", "location_type": "Force", "location": {"latitude": "53.431463", "street": {"id": 1722585, "name": "On or near Sheridan Drive"}, "longitude": "-1.323330"}, "context": "", "outcome_status": null, "persistent_id": "", "id": 118054446, "location_subtype": "", "month": "2024-04"}, {"category": "anti-social-behaviour", "location_type": "Force", "location": {"latitude": "53.433509", "street": {"id": 1714541, "name": "On or near Dugdale Road"}, "longitude": "-1.480785"}, "context": "", "outcome_status": null, "persistent_id": "", "id": 118056820, "location_subtype": "", "month": "2024-04"}, {"category": "anti-social-behaviour", "location_type": "Force", "location": {"latitude": "53.384970", "street": {"id": 1716956, "name": "On or near B6071"}, "longitude": "-1.452419"}, "context": "", "outcome_status": null, "persistent_id": "", "id": 118071981, "location_subtype": "", "month": "2024-04"}, {"category": "anti-social-behaviour", "location_type": "Force", "location": {"latitude": "53.369790", "street": {"id": 1717564, "name": "On or near St Aidan's Rise"}, "longitude": "-1.443160"}, "context": "", "outcome_status": null, "persistent_id": "", "id": 118071988, "location_subtype": "", "month": "2024-04"}, {"category": "anti-social-behaviour", "location_type": "Force", "location": {"latitude": "53.355343", "street": {"id": 1711975, "name": "On or near Latham Square"}, "longitude": "-1.528205"}, "context": "", "outcome_status": null, "persistent_id": "", "id": 118073907, "location_subtype": "", "month": "2024-04"}, {"category": "anti-social-behaviour", "location_type": "Force", "location": {"latitude": "53.370921", "street": {"id": 1711353, "name": "On or near St Albans Road"}, "longitude": "-1.551840"}, "context": "", "outcome_status": null, "persistent_id": "", "id": 118054350, "location_subtype": "", "month": "2024-04"}, {"category": "anti-social-behaviour", "location_type": "Force", "location": {"latitude": "53.353356", "street": {"id": 1712733, "name": "On or near Woodholm Road"}, "longitude": "-1.510274"}, "context": "", "outcome_status": null, "persistent_id": "", "id": 118054354, "location_subtype": "", "month": "2024-04"}, {"category": "anti-social-behaviour", "location_type": "Force", "location": {"latitude": "53.321162", "street": {"id": 1712718, "name": "On or near Twentywell Drive"}, "longitude": "-1.508961"}, "context": "", "outcome_status": null, "persistent_id": "", "id": 118054356, "location_subtype": "", "month": "2024-04"}, {"category": "anti-social-behaviour", "location_type": "Force", "location": {"latitude": "53.318799", "street": {"id": 1712156, "name": "On or near Milldale Road"}, "longitude": "-1.524855"}, "context": "", "outcome_status": null, "persistent_id": "", "id": 118073909, "location_subtype": "", "month": "2024-04"}, {"category": "anti-social-behaviour", "location_type": "Force", "location": {"latitude": "53.336243", "street": {"id": 2216458, "name": "On or near Lightwood Lane"}, "longitude": "-1.440954"}, "context": "", "outcome_status": null, "persistent_id": "", "id": 118071990, "location_subtype": "", "month": "2024-04"}, {"category": "anti-social-behaviour", "location_type": "Force", "location": {"latitude": "53.388665", "street": {"id": 1714113, "name": "On or near Addy Close"}, "longitude": "-1.489164"}, "context": "", "outcome_status": null, "persistent_id": "", "id": 118070831, "location_subtype": "", "month": "2024-04"}, {"category": "anti-social-behaviour", "location_type": "Force", "location": {"latitude": "53.389424", "street": {"id": 1718073, "name": "On or near Sports/recreation Area"}, "longitude": "-1.431142"}, "context": "", "outcome_status": null, "persistent_id": "", "id": 118071993, "location_subtype": "", "month": "2024-04"}, {"category": "anti-social-behaviour", "location_type": "Force", "location": {"latitude": "53.398918", "street": {"id": 1713552, "name": "On or near Burnaby Street"}, "longitude": "-1.496922"}, "context": "", "outcome_status": null, "persistent_id": "", "id": 118054359, "location_subtype": "", "month": "2024-04"}, {"category": "anti-social-behaviour", "location_type": "Force", "location": {"latitude": "53.468793", "street": {"id": 1714165, "name": "On or near Greengate Lane"}, "longitude": "-1.487811"}, "context": "", "outcome_status": null, "persistent_id": "", "id": 118054367, "location_subtype": "", "month": "2024-04"}, {"category": "anti-social-behaviour", "location_type": "Force", "location": {"latitude": "53.342703", "street": {"id": 1721986, "name": "On or near West Street"}, "longitude": "-1.340161"}, "context": "", "outcome_status": null, "persistent_id": "", "id": 118072029, "location_subtype": "", "month": "2024-04"}, {"category": "anti-social-behaviour", "location_type": "Force", "location": {"latitude": "53.343802", "street": {"id": 1721193, "name": "On or near Shopping Area"}, "longitude": "-1.357027"}, "context": "", "outcome_status": null, "persistent_id": "", "id": 118072028, "location_subtype": "", "month": "2024-04"}, {"category": "anti-social-behaviour", "location_type": "Force", "location": {"latitude": "53.473415", "street": {"id": 1720999, "name": "On or near Durnan Grove"}, "longitude": "-1.363040"}, "context": "", "outcome_status": null, "persistent_id": "", "id": 118072025, "location_subtype": "", "month": "2024-04"}, {"category": "anti-social-behaviour", "location_type": "Force", "location": {"latitude": "53.346416", "street": {"id": 1720793, "name": "On or near Delves Terrace"}, "longitude": "-1.368404"}, "context": "", "outcome_status": null, "persistent_id": "", "id": 118072023, "location_subtype": "", "month": "2024-04"}, {"category": "anti-social-behaviour", "location_type": "Force", "location": {"latitude": "53.370587", "street": {"id": 1720463, "name": "On or near Ballifield Drive"}, "longitude": "-1.375396"}, "context": "", "outcome_status": null, "persistent_id": "", "id": 118072021, "location_subtype": "", "month": "2024-04"}, {"category": "anti-social-behaviour", "location_type": "Force", "location": {"latitude": "53.372936", "street": {"id": 1719878, "name": "On or near Fitzalan Road"}, "longitude": "-1.388002"}, "context": "", "outcome_status": null, "persistent_id": "", "id": 118072017, "location_subtype": "", "month": "2024-04"}, {"category": "anti-social-behaviour", "location_type": "Force", "location": {"latitude": "53.444810", "street": {"id": 1719847, "name": "On or near Chambers Road"}, "longitude": "-1.388160"}, "context": "", "outcome_status": null, "persistent_id": "", "id": 118072014, "location_subtype": "", "month": "2024-04"}, {"category": "anti-social-behaviour", "location_type": "Force", "location": {"latitude": "53.450924", "street": {"id": 1719855, "name": "On or near Teesdale Road"}, "longitude": "-1.388403"}, "context": "", "outcome_status": null, "persistent_id": "", "id": 118072012, "location_subtype": "", "month": "2024-04"}, {"category": "anti-social-behaviour", "location_type": "Force", "location": {"latitude": "53.375867", "street": {"id": 1719657, "name": "On or near Handsworth Road"}, "longitude": "-1.393522"}, "context": "", "outcome_status": null, "persistent_id": "", "id": 118072010, "location_subtype": "", "month": "2024-04"}, {"category": "anti-social-behaviour", "location_type": "Force", "location": {"latitude": "53.341330", "street": {"id": 1719483, "name": "On or near Birley Moor Drive"}, "longitude": "-1.398412"}, "context": "", "outcome_status": null, "persistent_id": "", "id": 118072008, "location_subtype": "", "month": "2024-04"}, {"category": "anti-social-behaviour", "location_type": "Force", "location": {"latitude": "53.403879", "street": {"id": 1719145, "name": "On or near Shepcote Lane"}, "longitude": "-1.406541"}, "context": "", "outcome_status": null, "persistent_id": "", "id": 118072005, "location_subtype": "", "month": "2024-04"}, {"category": "anti-social-behaviour", "location_type": "Force", "location": {"latitude": "53.340418", "street": {"id": 1718598, "name": "On or near Carterhall Lane"}, "longitude": "-1.419302"}, "context": "", "outcome_status": null, "persistent_id": "", "id": 118072002, "location_subtype": "", "month": "2024-04"}, {"category": "anti-social-behaviour", "location_type": "Force", "location": {"latitude": "53.418887", "street": {"id": 1718643, "name": "On or near Taunton Grove"}, "longitude": "-1.418896"}, "context": "", "outcome_status": null, "persistent_id": "", "id": 118071997, "location_subtype": "", "month": "2024-04"}, {"category": "anti-social-behaviour", "location_type": "Force", "location": {"latitude": "53.416177", "street": {"id": 1718386, "name": "On or near Ridge View Close"}, "longitude": "-1.423491"}, "context": "", "outcome_status": null, "persistent_id": "", "id": 118071995, "location_subtype": "", "month": "2024-04"}, {"category": "anti-social-behaviour", "location_type": "Force", "location": {"latitude": "53.321221", "street": {"id": 1714707, "name": "On or near Lowedges Crescent"}, "longitude": "-1.478515"}, "context": "", "outcome_status": null, "persistent_id": "", "id": 118070838, "location_subtype": "", "month": "2024-04"}, {"category": "anti-social-behaviour", "location_type": "Force", "location": {"latitude": "53.322538", "street": {"id": 1715011, "name": "On or near Lupton Drive"}, "longitude": "-1.477298"}, "context": "", "outcome_status": null, "persistent_id": "", "id": 118070844, "location_subtype": "", "month": "2024-04"}, {"category": "anti-social-behaviour", "location_type": "Force", "location": {"latitude": "53.386279", "street": {"id": 1715065, "name": "On or near Cross Smithfield"}, "longitude": "-1.475706"}, "context": "", "outcome_status": null, "persistent_id": "", "id": 118070845, "location_subtype": "", "month": "2024-04"}, {"category": "anti-social-behaviour", "location_type": "Force", "location": {"latitude": "53.348898", "street": {"id": 1715873, "name": "On or near Thorpe House Rise"}, "longitude": "-1.468293"}, "context": "", "outcome_status": null, "persistent_id": "", "id": 118070851, "location_subtype": "", "month": "2024-04"}, {"category": "anti-social-behaviour", "location_type": "Force", "location": {"latitude": "53.339531", "street": {"id": 1722099, "name": "On or near Radnor Close"}, "longitude": "-1.338678"}, "context": "", "outcome_status": null, "persistent_id": "", "id": 118065745, "location_subtype": "", "month": "2024-04"}, {"category": "anti-social-behaviour", "location_type": "Force", "location": {"latitude": "53.380281", "street": {"id": 1712151, "name": "On or near Benty Lane"}, "longitude": "-1.522367"}, "context": "", "outcome_status": null, "persistent_id": "", "id": 118073910, "location_subtype": "", "month": "2024-04"}, {"category": "anti-social-behaviour", "location_type": "Force", "location": {"latitude": "53.364714", "street": {"id": 1712871, "name": "On or near Supermarket"}, "longitude": "-1.507240"}, "context": "", "outcome_status": null, "persistent_id": "", "id": 118073914, "location_subtype": "", "month": "2024-04"}, {"category": "anti-social-behaviour", "location_type": "Force", "location": {"latitude": "53.392886", "street": {"id": 1712975, "name": "On or near Heavygate Avenue"}, "longitude": "-1.505264"}, "context": "", "outcome_status": null, "persistent_id": "", "id": 118073916, "location_subtype": "", "month": "2024-04"}, {"category": "anti-social-behaviour", "location_type": "Force", "location": {"latitude": "53.332361", "street": {"id": 1716041, "name": "On or near Norton Lane"}, "longitude": "-1.462883"}, "context": "", "outcome_status": null, "persistent_id": "", "id": 118062785, "location_subtype": "", "month": "2024-04"}, {"category": "anti-social-behaviour", "location_type": "Force", "location": {"latitude": "53.377216", "street": {"id": 1713302, "name": "On or near Peel Street"}, "longitude": "-1.500304"}, "context": "", "outcome_status": null, "persistent_id": "", "id": 118073917, "location_subtype": "", "month": "2024-04"}, {"category": "anti-social-behaviour", "location_type": "Force", "location": {"latitude": "53.378231", "street": {"id": 1713316, "name": "On or near Turners Lane"}, "longitude": "-1.500112"}, "context": "", "outcome_status": null, "persistent_id": "", "id": 118073919, "location_subtype": "", "month": "2024-04"}, {"category": "anti-social-behaviour", "location_type": "Force", "location": {"latitude": "53.384842", "street": {"id": 1715918, "name": "On or near Scargill Croft"}, "longitude": "-1.467891"}, "context": "", "outcome_status": null, "persistent_id": "", "id": 118070853, "location_subtype": "", "month": "2024-04"}, {"category": "anti-social-behaviour", "location_type": "Force", "location": {"latitude": "53.440597", "street": {"id": 1716285, "name": "On or near Sycamore Road"}, "longitude": "-1.463446"}, "context": "", "outcome_status": null, "persistent_id": "", "id": 118070855, "location_subtype": "", "month": "2024-04"}, {"category": "anti-social-behaviour", "location_type": "Force", "location": {"latitude": "53.366569", "street": {"id": 1716354, "name": "On or near St Elizabeth Close"}, "longitude": "-1.462197"}, "context": "", "outcome_status": null, "persistent_id": "", "id": 118070857, "location_subtype": "", "month": "2024-04"}, {"category": "anti-social-behaviour", "location_type": "Force", "location": {"latitude": "53.349619", "street": {"id": 1716132, "name": "On or near Lees Hall Road"}, "longitude": "-1.464724"}, "context": "", "outcome_status": null, "persistent_id": "", "id": 118070859, "location_subtype": "", "month": "2024-04"}, {"category": "anti-social-behaviour", "location_type": "Force", "location": {"latitude": "53.360817", "street": {"id": 1714262, "name": "On or near Ryle Road"}, "longitude": "-1.486837"}, "context": "", "outcome_status": null, "persistent_id": "", "id": 118073922, "location_subtype": "", "month": "2024-04"}, {"category": "anti-social-behaviour", "location_type": "Force", "location": {"latitude": "53.385178", "street": {"id": 1714390, "name": "On or near Bramwell Street"}, "longitude": "-1.485086"}, "context": "", "outcome_status": null, "persistent_id": "", "id": 118073925, "location_subtype": "", "month": "2024-04"}, {"category": "anti-social-behaviour", "location_type": "Force", "location": {"latitude": "53.365609", "street": {"id": 1714646, "name": "On or near Ventnor Place"}, "longitude": "-1.480799"}, "context": "", "outcome_status": null, "persistent_id": "", "id": 118073927, "location_subtype": "", "month": "2024-04"}, {"category": "anti-social-behaviour", "location_type": "Force", "location": {"latitude": "53.433197", "street": {"id": 1722533, "name": "On or near The Lanes"}, "longitude": "-1.324793"}, "context": "", "outcome_status": null, "persistent_id": "", "id": 118081119, "location_subtype": "", "month": "2024-04"}, {"category": "anti-social-behaviour", "location_type": "Force", "location": {"latitude": "53.422075", "street": {"id": 1722334, "name": "On or near Parking Area"}, "longitude": "-1.332162"}, "context": "", "outcome_status": null, "persistent_id": "", "id": 118081118, "location_subtype": "", "month": "2024-04"}, {"category": "anti-social-behaviour", "location_type": "Force", "location": {"latitude": "53.337961", "street": {"id": 1722218, "name": "On or near Hartland Court"}, "longitude": "-1.335939"}, "context": "", "outcome_status": null, "persistent_id": "", "id": 118081117, "location_subtype": "", "month": "2024-04"}, {"category": "anti-social-behaviour", "location_type": "Force", "location": {"latitude": "53.342054", "street": {"id": 1722178, "name": "On or near Ashdown Gardens"}, "longitude": "-1.336476"}, "context": "", "outcome_status": null, "persistent_id": "", "id": 118081116, "location_subtype": "", "month": "2024-04"}, {"category": "anti-social-behaviour", "location_type": "Force", "location": {"latitude": "53.429070", "street": {"id": 1721624, "name": "On or near Clifton Lane"}, "longitude": "-1.347223"}, "context": "", "outcome_status": null, "persistent_id": "", "id": 118081115, "location_subtype": "", "month": "2024-04"}, {"category": "anti-social-behaviour", "location_type": "Force", "location": {"latitude": "53.430929", "street": {"id": 1721272, "name": "On or near Vicarage Lane"}, "longitude": "-1.355277"}, "context": "", "outcome_status": null, "persistent_id": "", "id": 118081113, "location_subtype": "", "month": "2024-04"}, {"category": "anti-social-behaviour", "location_type": "Force", "location": {"latitude": "53.449969", "street": {"id": 1720334, "name": "On or near Woodside Walk"}, "longitude": "-1.375949"}, "context": "", "outcome_status": null, "persistent_id": "", "id": 118081105, "location_subtype": "", "month": "2024-04"}, {"category": "anti-social-behaviour", "location_type": "Force", "location": {"latitude": "53.442145", "street": {"id": 1716645, "name": "On or near Bus/coach Station"}, "longitude": "-1.456176"}, "context": "", "outcome_status": null, "persistent_id": "", "id": 118070864, "location_subtype": "", "month": "2024-04"}, {"category": "anti-social-behaviour", "location_type": "Force", "location": {"latitude": "53.359395", "street": {"id": 1717670, "name": "On or near Errington Crescent"}, "longitude": "-1.440440"}, "context": "", "outcome_status": null, "persistent_id": "", "id": 118070868, "location_subtype": "", "month": "2024-04"}, {"category": "anti-social-behaviour", "location_type": "Force", "location": {"latitude": "53.460136", "street": {"id": 1714878, "name": "On or near Burns Drive"}, "longitude": "-1.479240"}, "context": "", "outcome_status": null, "persistent_id": "", "id": 118073929, "location_subtype": "", "month": "2024-04"}, {"category": "anti-social-behaviour", "location_type": "Force", "location": {"latitude": "53.361184", "street": {"id": 1717666, "name": "On or near Eastern Avenue"}, "longitude": "-1.440447"}, "context": "", "outcome_status": null, "persistent_id": "", "id": 118070870, "location_subtype": "", "month": "2024-04"}, {"category": "anti-social-behaviour", "location_type": "Force", "location": {"latitude": "53.427014", "street": {"id": 1722468, "name": "On or near Browning Road"}, "longitude": "-1.328126"}, "context": "", "outcome_status": null, "persistent_id": "", "id": 118065748, "location_subtype": "", "month": "2024-04"}, {"category": "anti-social-behaviour", "location_type": "Force", "location": {"latitude": "53.368475", "street": {"id": 1715157, "name": "On or near Grosvenor Square"}, "longitude": "-1.476331"}, "context": "", "outcome_status": null, "persistent_id": "", "id": 118073932, "location_subtype": "", "month": "2024-04"}, {"category": "anti-social-behaviour", "location_type": "Force", "location": {"latitude": "53.379832", "street": {"id": 1715247, "name": "On or near Rockingham Street"}, "longitude": "-1.475319"}, "context": "", "outcome_status": null, "persistent_id": "", "id": 118073936, "location_subtype": "", "month": "2024-04"}, {"category": "anti-social-behaviour", "location_type": "Force", "location": {"latitude": "53.453640", "street": {"id": 1719676, "name": "On or near Town Lane"}, "longitude": "-1.392385"}, "context": "", "outcome_status": null, "persistent_id": "", "id": 118065722, "location_subtype": "", "month": "2024-04"}, {"category": "anti-social-behaviour", "location_type": "Force", "location": {"latitude": "53.387086", "street": {"id": 1715248, "name": "On or near Blue Boy Street"}, "longitude": "-1.475230"}, "context": "", "outcome_status": null, "persistent_id": "", "id": 118073938, "location_subtype": "", "month": "2024-04"}, {"category": "anti-social-behaviour", "location_type": "Force", "location": {"latitude": "53.381628", "street": {"id": 1715503, "name": "On or near Holly Street"}, "longitude": "-1.472787"}, "context": "", "outcome_status": null, "persistent_id": "", "id": 118073940, "location_subtype": "", "month": "2024-04"}, {"category": "anti-social-behaviour", "location_type": "Force", "location": {"latitude": "53.380604", "street": {"id": 1715626, "name": "On or near Barker's Pool"}, "longitude": "-1.471025"}, "context": "", "outcome_status": null, "persistent_id": "", "id": 118073942, "location_subtype": "", "month": "2024-04"}, {"category": "anti-social-behaviour", "location_type": "Force", "location": {"latitude": "53.364848", "street": {"id": 1717788, "name": "On or near Gilmour Avenue"}, "longitude": "-1.437814"}, "context": "", "outcome_status": null, "persistent_id": "", "id": 118067064, "location_subtype": "", "month": "2024-04"}, {"category": "anti-social-behaviour", "location_type": "Force", "location": {"latitude": "53.383629", "street": {"id": 1716093, "name": "On or near Angel Street"}, "longitude": "-1.465952"}, "context": "", "outcome_status": null, "persistent_id": "", "id": 118073946, "location_subtype": "", "month": "2024-04"}, {"category": "anti-social-behaviour", "location_type": "Force", "location": {"latitude": "53.367053", "street": {"id": 1719805, "name": "On or near Sundown Place"}, "longitude": "-1.387185"}, "context": "", "outcome_status": null, "persistent_id": "", "id": 118081099, "location_subtype": "", "month": "2024-04"}, {"category": "anti-social-behaviour", "location_type": "Force", "location": {"latitude": "53.375867", "street": {"id": 1719657, "name": "On or near Handsworth Road"}, "longitude": "-1.393522"}, "context": "", "outcome_status": null, "persistent_id": "", "id": 118081098, "location_subtype": "", "month": "2024-04"}, {"category": "anti-social-behaviour", "location_type": "Force", "location": {"latitude": "53.447238", "street": {"id": 1719655, "name": "On or near Lovetot Road"}, "longitude": "-1.393665"}, "context": "", "outcome_status": null, "persistent_id": "", "id": 118081097, "location_subtype": "", "month": "2024-04"}, {"category": "anti-social-behaviour", "location_type": "Force", "location": {"latitude": "53.377541", "street": {"id": 1719589, "name": "On or near Oakley Road"}, "longitude": "-1.393964"}, "context": "", "outcome_status": null, "persistent_id": "", "id": 118081096, "location_subtype": "", "month": "2024-04"}, {"category": "anti-social-behaviour", "location_type": "Force", "location": {"latitude": "53.346316", "street": {"id": 1719416, "name": "On or near Brackenfield Grove"}, "longitude": "-1.401452"}, "context": "", "outcome_status": null, "persistent_id": "", "id": 118081095, "location_subtype": "", "month": "2024-04"}, {"category": "anti-social-behaviour", "location_type": "Force", "location": {"latitude": "53.348533", "street": {"id": 1719423, "name": "On or near Supermarket"}, "longitude": "-1.400805"}, "context": "", "outcome_status": null, "persistent_id": "", "id": 118081094, "location_subtype": "", "month": "2024-04"}, {"category": "anti-social-behaviour", "location_type": "Force", "location": {"latitude": "53.359252", "street": {"id": 1719146, "name": "On or near Hunter's Lane"}, "longitude": "-1.408813"}, "context": "", "outcome_status": null, "persistent_id": "", "id": 118081092, "location_subtype": "", "month": "2024-04"}, {"category": "anti-social-behaviour", "location_type": "Force", "location": {"latitude": "53.440519", "street": {"id": 1719112, "name": "On or near Watson Glen"}, "longitude": "-1.407024"}, "context": "", "outcome_status": null, "persistent_id": "", "id": 118081091, "location_subtype": "", "month": "2024-04"}, {"category": "anti-social-behaviour", "location_type": "Force", "location": {"latitude": "53.423416", "street": {"id": 1718566, "name": "On or near Dara Street"}, "longitude": "-1.418608"}, "context": "", "outcome_status": null, "persistent_id": "", "id": 118081090, "location_subtype": "", "month": "2024-04"}, {"category": "anti-social-behaviour", "location_type": "Force", "location": {"latitude": "53.367889", "street": {"id": 1718492, "name": "On or near Fairfax Rise"}, "longitude": "-1.421438"}, "context": "", "outcome_status": null, "persistent_id": "", "id": 118081089, "location_subtype": "", "month": "2024-04"}, {"category": "anti-social-behaviour", "location_type": "Force", "location": {"latitude": "53.451257", "street": {"id": 1718315, "name": "On or near Scholes Lane"}, "longitude": "-1.424733"}, "context": "", "outcome_status": null, "persistent_id": "", "id": 118081088, "location_subtype": "", "month": "2024-04"}, {"category": "anti-social-behaviour", "location_type": "Force", "location": {"latitude": "53.422992", "street": {"id": 1718252, "name": "On or near Stanwell Close"}, "longitude": "-1.425762"}, "context": "", "outcome_status": null, "persistent_id": "", "id": 118081087, "location_subtype": "", "month": "2024-04"}, {"category": "anti-social-behaviour", "location_type": "Force", "location": {"latitude": "53.392656", "street": {"id": 1717961, "name": "On or near Nightclub"}, "longitude": "-1.434223"}, "context": "", "outcome_status": null, "persistent_id": "", "id": 118081085, "location_subtype": "", "month": "2024-04"}, {"category": "anti-social-behaviour", "location_type": "Force", "location": {"latitude": "53.381151", "street": {"id": 1717807, "name": "On or near Nunnery Terrace"}, "longitude": "-1.437224"}, "context": "", "outcome_status": null, "persistent_id": "", "id": 118081084, "location_subtype": "", "month": "2024-04"}, {"category": "anti-social-behaviour", "location_type": "Force", "location": {"latitude": "53.392745", "street": {"id": 1717812, "name": "On or near Parking Area"}, "longitude": "-1.435161"}, "context": "", "outcome_status": null, "persistent_id": "", "id": 118081083, "location_subtype": "", "month": "2024-04"}, {"category": "anti-social-behaviour", "location_type": "Force", "location": {"latitude": "53.360336", "street": {"id": 1717646, "name": "On or near Errington Way"}, "longitude": "-1.441705"}, "context": "", "outcome_status": null, "persistent_id": "", "id": 118081082, "location_subtype": "", "month": "2024-04"}, {"category": "anti-social-behaviour", "location_type": "Force", "location": {"latitude": "53.408293", "street": {"id": 1717345, "name": "On or near Page Hall Road"}, "longitude": "-1.446057"}, "context": "", "outcome_status": null, "persistent_id": "", "id": 118081081, "location_subtype": "", "month": "2024-04"}, {"category": "anti-social-behaviour", "location_type": "Force", "location": {"latitude": "53.383425", "street": {"id": 1716763, "name": "On or near Stepney Street"}, "longitude": "-1.456648"}, "context": "", "outcome_status": null, "persistent_id": "", "id": 118081080, "location_subtype": "", "month": "2024-04"}, {"category": "anti-social-behaviour", "location_type": "Force", "location": {"latitude": "53.394117", "street": {"id": 1716518, "name": "On or near Bressingham Road"}, "longitude": "-1.459625"}, "context": "", "outcome_status": null, "persistent_id": "", "id": 118081079, "location_subtype": "", "month": "2024-04"}, {"category": "anti-social-behaviour", "location_type": "Force", "location": {"latitude": "53.379702", "street": {"id": 1716052, "name": "On or near Arundel Gate"}, "longitude": "-1.466241"}, "context": "", "outcome_status": null, "persistent_id": "", "id": 118081078, "location_subtype": "", "month": "2024-04"}, {"category": "anti-social-behaviour", "location_type": "Force", "location": {"latitude": "53.382289", "street": {"id": 1716088, "name": "On or near Parking Area"}, "longitude": "-1.465818"}, "context": "", "outcome_status": null, "persistent_id": "", "id": 118081077, "location_subtype": "", "month": "2024-04"}, {"category": "anti-social-behaviour", "location_type": "Force", "location": {"latitude": "53.379191", "street": {"id": 1715667, "name": "On or near Pinstone Street"}, "longitude": "-1.470577"}, "context": "", "outcome_status": null, "persistent_id": "", "id": 118081075, "location_subtype": "", "month": "2024-04"}, {"category": "anti-social-behaviour", "location_type": "Force", "location": {"latitude": "53.377948", "street": {"id": 1715675, "name": "On or near Union Lane"}, "longitude": "-1.470051"}, "context": "", "outcome_status": null, "persistent_id": "", "id": 118081073, "location_subtype": "", "month": "2024-04"}, {"category": "anti-social-behaviour", "location_type": "Force", "location": {"latitude": "53.379191", "street": {"id": 1715667, "name": "On or near Pinstone Street"}, "longitude": "-1.470577"}, "context": "", "outcome_status": null, "persistent_id": "", "id": 118081072, "location_subtype": "", "month": "2024-04"}, {"category": "anti-social-behaviour", "location_type": "Force", "location": {"latitude": "53.384448", "street": {"id": 1715532, "name": "On or near Tenter Street"}, "longitude": "-1.472286"}, "context": "", "outcome_status": null, "persistent_id": "", "id": 118081071, "location_subtype": "", "month": "2024-04"}, {"category": "anti-social-behaviour", "location_type": "Force", "location": {"latitude": "53.392656", "street": {"id": 1717961, "name": "On or near Nightclub"}, "longitude": "-1.434223"}, "context": "", "outcome_status": null, "persistent_id": "", "id": 118070875, "location_subtype": "", "month": "2024-04"}, {"category": "anti-social-behaviour", "location_type": "Force", "location": {"latitude": "53.357097", "street": {"id": 1715089, "name": "On or near Little London Place"}, "longitude": "-1.476755"}, "context": "", "outcome_status": null, "persistent_id": "", "id": 118081069, "location_subtype": "", "month": "2024-04"}, {"category": "anti-social-behaviour", "location_type": "Force", "location": {"latitude": "53.410502", "street": {"id": 1715079, "name": "On or near Longley Avenue West"}, "longitude": "-1.477545"}, "context": "", "outcome_status": null, "persistent_id": "", "id": 118081067, "location_subtype": "", "month": "2024-04"}, {"category": "anti-social-behaviour", "location_type": "Force", "location": {"latitude": "53.379899", "street": {"id": 1714975, "name": "On or near Parking Area"}, "longitude": "-1.478325"}, "context": "", "outcome_status": null, "persistent_id": "", "id": 118081066, "location_subtype": "", "month": "2024-04"}, {"category": "anti-social-behaviour", "location_type": "Force", "location": {"latitude": "53.371310", "street": {"id": 1714858, "name": "On or near Cliff Street"}, "longitude": "-1.479257"}, "context": "", "outcome_status": null, "persistent_id": "", "id": 118081065, "location_subtype": "", "month": "2024-04"}, {"category": "anti-social-behaviour", "location_type": "Force", "location": {"latitude": "53.379920", "street": {"id": 1714897, "name": "On or near Westhill Lane"}, "longitude": "-1.478971"}, "context": "", "outcome_status": null, "persistent_id": "", "id": 118081064, "location_subtype": "", "month": "2024-04"}, {"category": "anti-social-behaviour", "location_type": "Force", "location": {"latitude": "53.383549", "street": {"id": 1716197, "name": "On or near Shopping Area"}, "longitude": "-1.463989"}, "context": "", "outcome_status": null, "persistent_id": "", "id": 118073948, "location_subtype": "", "month": "2024-04"}, {"category": "anti-social-behaviour", "location_type": "Force", "location": {"latitude": "53.360336", "street": {"id": 1717646, "name": "On or near Errington Way"}, "longitude": "-1.441705"}, "context": "", "outcome_status": null, "persistent_id": "", "id": 118065675, "location_subtype": "", "month": "2024-04"}, {"category": "anti-social-behaviour", "location_type": "Force", "location": {"latitude": "53.391683", "street": {"id": 1714522, "name": "On or near Cross Bedford Street"}, "longitude": "-1.482391"}, "context": "", "outcome_status": null, "persistent_id": "", "id": 118081061, "location_subtype": "", "month": "2024-04"}, {"category": "anti-social-behaviour", "location_type": "Force", "location": {"latitude": "53.329736", "street": {"id": 1716026, "name": "On or near Bochum Parkway"}, "longitude": "-1.464733"}, "context": "", "outcome_status": null, "persistent_id": "", "id": 118073952, "location_subtype": "", "month": "2024-04"}, {"category": "anti-social-behaviour", "location_type": "Force", "location": {"latitude": "53.419188", "street": {"id": 1714348, "name": "On or near Dryden Way"}, "longitude": "-1.484390"}, "context": "", "outcome_status": null, "persistent_id": "", "id": 118081060, "location_subtype": "", "month": "2024-04"}, {"category": "anti-social-behaviour", "location_type": "Force", "location": {"latitude": "53.325821", "street": {"id": 1714136, "name": "On or near Reney Road"}, "longitude": "-1.488203"}, "context": "", "outcome_status": null, "persistent_id": "", "id": 118081059, "location_subtype": "", "month": "2024-04"}, {"category": "anti-social-behaviour", "location_type": "Force", "location": {"latitude": "53.385474", "street": {"id": 1714255, "name": "On or near St Stephen's Walk"}, "longitude": "-1.487052"}, "context": "", "outcome_status": null, "persistent_id": "", "id": 118081058, "location_subtype": "", "month": "2024-04"}, {"category": "anti-social-behaviour", "location_type": "Force", "location": {"latitude": "53.347404", "street": {"id": 1719660, "name": "On or near Jermyn Avenue"}, "longitude": "-1.392484"}, "context": "", "outcome_status": null, "persistent_id": "", "id": 118065719, "location_subtype": "", "month": "2024-04"}, {"category": "anti-social-behaviour", "location_type": "Force", "location": {"latitude": "53.324525", "street": {"id": 1714180, "name": "On or near Greenhill Parkway"}, "longitude": "-1.487948"}, "context": "", "outcome_status": null, "persistent_id": "", "id": 118081057, "location_subtype": "", "month": "2024-04"}, {"category": "anti-social-behaviour", "location_type": "Force", "location": {"latitude": "53.365490", "street": {"id": 1713526, "name": "On or near Sandbeck Place"}, "longitude": "-1.497166"}, "context": "", "outcome_status": null, "persistent_id": "", "id": 118081056, "location_subtype": "", "month": "2024-04"}, {"category": "anti-social-behaviour", "location_type": "Force", "location": {"latitude": "53.379009", "street": {"id": 1713414, "name": "On or near Parker's Lane"}, "longitude": "-1.499336"}, "context": "", "outcome_status": null, "persistent_id": "", "id": 118081055, "location_subtype": "", "month": "2024-04"}, {"category": "anti-social-behaviour", "location_type": "Force", "location": {"latitude": "53.476682", "street": {"id": 1710942, "name": "On or near Glebelands Road"}, "longitude": "-1.592342"}, "context": "", "outcome_status": null, "persistent_id": "", "id": 118081053, "location_subtype": "", "month": "2024-04"}, {"category": "anti-social-behaviour", "location_type": "Force", "location": {"latitude": "53.474588", "street": {"id": 1710932, "name": "On or near Spink Hall Close"}, "longitude": "-1.592497"}, "context": "", "outcome_status": null, "persistent_id": "", "id": 118081052, "location_subtype": "", "month": "2024-04"}, {"category": "anti-social-behaviour", "location_type": "Force", "location": {"latitude": "53.476888", "street": {"id": 1710914, "name": "On or near Kenworthy Road"}, "longitude": "-1.594660"}, "context": "", "outcome_status": null, "persistent_id": "", "id": 118081051, "location_subtype": "", "month": "2024-04"}, {"category": "anti-social-behaviour", "location_type": "Force", "location": {"latitude": "53.375550", "street": {"id": 1716489, "name": "On or near Barnes Court"}, "longitude": "-1.460326"}, "context": "", "outcome_status": null, "persistent_id": "", "id": 118073954, "location_subtype": "", "month": "2024-04"}, {"category": "anti-social-behaviour", "location_type": "Force", "location": {"latitude": "53.431788", "street": {"id": 1716438, "name": "On or near Strawberry Avenue"}, "longitude": "-1.459629"}, "context": "", "outcome_status": null, "persistent_id": "", "id": 118073955, "location_subtype": "", "month": "2024-04"}, {"category": "anti-social-behaviour", "location_type": "Force", "location": {"latitude": "53.359031", "street": {"id": 1716592, "name": "On or near Derby Terrace"}, "longitude": "-1.458942"}, "context": "", "outcome_status": null, "persistent_id": "", "id": 118073958, "location_subtype": "", "month": "2024-04"}, {"category": "anti-social-behaviour", "location_type": "Force", "location": {"latitude": "53.406099", "street": {"id": 1717210, "name": "On or near Earl Marshal Road"}, "longitude": "-1.447815"}, "context": "", "outcome_status": null, "persistent_id": "", "id": 118073965, "location_subtype": "", "month": "2024-04"}, {"category": "anti-social-behaviour", "location_type": "Force", "location": {"latitude": "53.363084", "street": {"id": 1717217, "name": "On or near Kenning Hall Close"}, "longitude": "-1.448867"}, "context": "", "outcome_status": null, "persistent_id": "", "id": 118065662, "location_subtype": "", "month": "2024-04"}, {"category": "anti-social-behaviour", "location_type": "Force", "location": {"latitude": "53.374460", "street": {"id": 1719721, "name": "On or near Hall Court"}, "longitude": "-1.390761"}, "context": "", "outcome_status": null, "persistent_id": "", "id": 118065726, "location_subtype": "", "month": "2024-04"}, {"category": "anti-social-behaviour", "location_type": "Force", "location": {"latitude": "53.372808", "street": {"id": 1717612, "name": "On or near Stock Road"}, "longitude": "-1.440686"}, "context": "", "outcome_status": null, "persistent_id": "", "id": 118073967, "location_subtype": "", "month": "2024-04"}, {"category": "anti-social-behaviour", "location_type": "Force", "location": {"latitude": "53.360473", "street": {"id": 1717721, "name": "On or near Errington Avenue"}, "longitude": "-1.440291"}, "context": "", "outcome_status": null, "persistent_id": "", "id": 118073969, "location_subtype": "", "month": "2024-04"}, {"category": "anti-social-behaviour", "location_type": "Force", "location": {"latitude": "53.384492", "street": {"id": 1716617, "name": "On or near Wharf Street"}, "longitude": "-1.458033"}, "context": "", "outcome_status": null, "persistent_id": "", "id": 118065655, "location_subtype": "", "month": "2024-04"}, {"category": "anti-social-behaviour", "location_type": "Force", "location": {"latitude": "53.362682", "street": {"id": 1719649, "name": "On or near Smelter Wood Way"}, "longitude": "-1.393724"}, "context": "", "outcome_status": null, "persistent_id": "", "id": 118065716, "location_subtype": "", "month": "2024-04"}, {"category": "anti-social-behaviour", "location_type": "Force", "location": {"latitude": "53.416269", "street": {"id": 1718005, "name": "On or near Orchid Crescent"}, "longitude": "-1.433300"}, "context": "", "outcome_status": null, "persistent_id": "", "id": 118073971, "location_subtype": "", "month": "2024-04"}, {"category": "anti-social-behaviour", "location_type": "Force", "location": {"latitude": "53.345675", "street": {"id": 1719617, "name": "On or near East Glade Place"}, "longitude": "-1.395422"}, "context": "", "outcome_status": null, "persistent_id": "", "id": 118052336, "location_subtype": "", "month": "2024-04"}, {"category": "anti-social-behaviour", "location_type": "Force", "location": {"latitude": "53.358523", "street": {"id": 1716431, "name": "On or near Penns Road"}, "longitude": "-1.459804"}, "context": "", "outcome_status": null, "persistent_id": "", "id": 118065652, "location_subtype": "", "month": "2024-04"}, {"category": "anti-social-behaviour", "location_type": "Force", "location": {"latitude": "53.390147", "street": {"id": 1716453, "name": "On or near Handley Street"}, "longitude": "-1.460352"}, "context": "", "outcome_status": null, "persistent_id": "", "id": 118065649, "location_subtype": "", "month": "2024-04"}, {"category": "anti-social-behaviour", "location_type": "Force", "location": {"latitude": "53.411038", "street": {"id": 1719505, "name": "On or near Ingfield Avenue"}, "longitude": "-1.396662"}, "context": "", "outcome_status": null, "persistent_id": "", "id": 118065714, "location_subtype": "", "month": "2024-04"}, {"category": "anti-social-behaviour", "location_type": "Force", "location": {"latitude": "53.345141", "street": {"id": 1718297, "name": "On or near Supermarket"}, "longitude": "-1.425833"}, "context": "", "outcome_status": null, "persistent_id": "", "id": 118073973, "location_subtype": "", "month": "2024-04"}, {"category": "anti-social-behaviour", "location_type": "Force", "location": {"latitude": "53.423416", "street": {"id": 1718566, "name": "On or near Dara Street"}, "longitude": "-1.418608"}, "context": "", "outcome_status": null, "persistent_id": "", "id": 118073974, "location_subtype": "", "month": "2024-04"}, {"category": "anti-social-behaviour", "location_type": "Force", "location": {"latitude": "53.411709", "street": {"id": 1719237, "name": "On or near Petrol Station"}, "longitude": "-1.406878"}, "context": "", "outcome_status": null, "persistent_id": "", "id": 118073978, "location_subtype": "", "month": "2024-04"}, {"category": "anti-social-behaviour", "location_type": "Force", "location": {"latitude": "53.447442", "street": {"id": 1719692, "name": "On or near Crane Road"}, "longitude": "-1.393045"}, "context": "", "outcome_status": null, "persistent_id": "", "id": 118073980, "location_subtype": "", "month": "2024-04"}, {"category": "anti-social-behaviour", "location_type": "Force", "location": {"latitude": "53.369038", "street": {"id": 1719693, "name": "On or near Haigh Moor Road"}, "longitude": "-1.392101"}, "context": "", "outcome_status": null, "persistent_id": "", "id": 118073981, "location_subtype": "", "month": "2024-04"}, {"category": "anti-social-behaviour", "location_type": "Force", "location": {"latitude": "53.431910", "street": {"id": 1721188, "name": "On or near Bridgegate"}, "longitude": "-1.357098"}, "context": "", "outcome_status": null, "persistent_id": "", "id": 118073985, "location_subtype": "", "month": "2024-04"}, {"category": "anti-social-behaviour", "location_type": "Force", "location": {"latitude": "53.344307", "street": {"id": 1721226, "name": "On or near Shopping Area"}, "longitude": "-1.357183"}, "context": "", "outcome_status": null, "persistent_id": "", "id": 118073987, "location_subtype": "", "month": "2024-04"}, {"category": "anti-social-behaviour", "location_type": "Force", "location": {"latitude": "53.451131", "street": {"id": 1722071, "name": "On or near Durham Way"}, "longitude": "-1.337955"}, "context": "", "outcome_status": null, "persistent_id": "", "id": 118073988, "location_subtype": "", "month": "2024-04"}, {"category": "anti-social-behaviour", "location_type": "Force", "location": {"latitude": "53.337961", "street": {"id": 1722218, "name": "On or near Hartland Court"}, "longitude": "-1.335939"}, "context": "", "outcome_status": null, "persistent_id": "", "id": 118073990, "location_subtype": "", "month": "2024-04"}, {"category": "anti-social-behaviour", "location_type": "Force", "location": {"latitude": "53.432974", "street": {"id": 1720456, "name": "On or near Park Street"}, "longitude": "-1.372841"}, "context": "", "outcome_status": null, "persistent_id": "", "id": 118065732, "location_subtype": "", "month": "2024-04"}, {"category": "anti-social-behaviour", "location_type": "Force", "location": {"latitude": "53.344146", "street": {"id": 1722274, "name": "On or near Broomwood Close"}, "longitude": "-1.334506"}, "context": "", "outcome_status": null, "persistent_id": "", "id": 118073993, "location_subtype": "", "month": "2024-04"}, {"category": "anti-social-behaviour", "location_type": "Force", "location": {"latitude": "53.475718", "street": {"id": 1720994, "name": "On or near Fred Edwards Park"}, "longitude": "-1.363247"}, "context": "", "outcome_status": null, "persistent_id": "", "id": 118053302, "location_subtype": "", "month": "2024-04"}, {"category": "anti-social-behaviour", "location_type": "Force", "location": {"latitude": "53.410858", "street": {"id": 1716181, "name": "On or near Edensor Road"}, "longitude": "-1.464513"}, "context": "", "outcome_status": null, "persistent_id": "", "id": 118065643, "location_subtype": "", "month": "2024-04"}, {"category": "anti-social-behaviour", "location_type": "Force", "location": {"latitude": "53.329736", "street": {"id": 1716026, "name": "On or near Bochum Parkway"}, "longitude": "-1.464733"}, "context": "", "outcome_status": null, "persistent_id": "", "id": 118065640, "location_subtype": "", "month": "2024-04"}, {"category": "anti-social-behaviour", "location_type": "Force", "location": {"latitude": "53.353337", "street": {"id": 1716134, "name": "On or near Carfield Place"}, "longitude": "-1.464046"}, "context": "", "outcome_status": null, "persistent_id": "", "id": 118065637, "location_subtype": "", "month": "2024-04"}, {"category": "anti-social-behaviour", "location_type": "Force", "location": {"latitude": "53.361017", "street": {"id": 1719438, "name": "On or near Richmond Hill Road"}, "longitude": "-1.400419"}, "context": "", "outcome_status": null, "persistent_id": "", "id": 118065712, "location_subtype": "", "month": "2024-04"}, {"category": "anti-social-behaviour", "location_type": "Force", "location": {"latitude": "53.362395", "street": {"id": 1719342, "name": "On or near Stradbroke Avenue"}, "longitude": "-1.404683"}, "context": "", "outcome_status": null, "persistent_id": "", "id": 118065706, "location_subtype": "", "month": "2024-04"}, {"category": "anti-social-behaviour", "location_type": "Force", "location": {"latitude": "53.405801", "street": {"id": 1716323, "name": "On or near Norwood Drive"}, "longitude": "-1.463222"}, "context": "", "outcome_status": null, "persistent_id": "", "id": 118065634, "location_subtype": "", "month": "2024-04"}, {"category": "anti-social-behaviour", "location_type": "Force", "location": {"latitude": "53.336849", "street": {"id": 1722307, "name": "On or near Dalby Gardens"}, "longitude": "-1.333178"}, "context": "", "outcome_status": null, "persistent_id": "", "id": 118073994, "location_subtype": "", "month": "2024-04"}, {"category": "anti-social-behaviour", "location_type": "Force", "location": {"latitude": "53.369973", "street": {"id": 1719044, "name": "On or near Danewood Avenue"}, "longitude": "-1.410168"}, "context": "", "outcome_status": null, "persistent_id": "", "id": 118065703, "location_subtype": "", "month": "2024-04"}, {"category": "anti-social-behaviour", "location_type": "Force", "location": {"latitude": "53.435771", "street": {"id": 1722525, "name": "On or near Broadway East"}, "longitude": "-1.325399"}, "context": "", "outcome_status": null, "persistent_id": "", "id": 118073998, "location_subtype": "", "month": "2024-04"}, {"category": "anti-social-behaviour", "location_type": "Force", "location": {"latitude": "53.433197", "street": {"id": 1722533, "name": "On or near The Lanes"}, "longitude": "-1.324793"}, "context": "", "outcome_status": null, "persistent_id": "", "id": 118074000, "location_subtype": "", "month": "2024-04"}, {"category": "anti-social-behaviour", "location_type": "Force", "location": {"latitude": "53.443541", "street": {"id": 1722743, "name": "On or near Supermarket"}, "longitude": "-1.319167"}, "context": "", "outcome_status": null, "persistent_id": "", "id": 118074002, "location_subtype": "", "month": "2024-04"}, {"category": "anti-social-behaviour", "location_type": "Force", "location": {"latitude": "53.324525", "street": {"id": 1714180, "name": "On or near Greenhill Parkway"}, "longitude": "-1.487948"}, "context": "", "outcome_status": null, "persistent_id": "", "id": 118056817, "location_subtype": "", "month": "2024-04"}, {"category": "anti-social-behaviour", "location_type": "Force", "location": {"latitude": "53.337568", "street": {"id": 1722049, "name": "On or near Willingham Gardens"}, "longitude": "-1.339625"}, "context": "", "outcome_status": null, "persistent_id": "", "id": 118055504, "location_subtype": "", "month": "2024-04"}, {"category": "anti-social-behaviour", "location_type": "Force", "location": {"latitude": "53.416522", "street": {"id": 1718912, "name": "On or near Meadowhall Interchange"}, "longitude": "-1.413015"}, "context": "", "outcome_status": null, "persistent_id": "", "id": 118065702, "location_subtype": "", "month": "2024-04"}, {"category": "anti-social-behaviour", "location_type": "Force", "location": {"latitude": "53.334913", "street": {"id": 1721774, "name": "On or near Owlthorpe Greenway"}, "longitude": "-1.343915"}, "context": "", "outcome_status": null, "persistent_id": "", "id": 118055502, "location_subtype": "", "month": "2024-04"}, {"category": "anti-social-behaviour", "location_type": "Force", "location": {"latitude": "53.427495", "street": {"id": 1721738, "name": "On or near Aldred Street"}, "longitude": "-1.346886"}, "context": "", "outcome_status": null, "persistent_id": "", "id": 118055500, "location_subtype": "", "month": "2024-04"}, {"category": "anti-social-behaviour", "location_type": "Force", "location": {"latitude": "53.386826", "street": {"id": 1718900, "name": "On or near Gainsford Road"}, "longitude": "-1.413709"}, "context": "", "outcome_status": null, "persistent_id": "", "id": 118065699, "location_subtype": "", "month": "2024-04"}, {"category": "anti-social-behaviour", "location_type": "Force", "location": {"latitude": "53.453640", "street": {"id": 1719676, "name": "On or near Town Lane"}, "longitude": "-1.392385"}, "context": "", "outcome_status": null, "persistent_id": "", "id": 118065724, "location_subtype": "", "month": "2024-04"}, {"category": "anti-social-behaviour", "location_type": "Force", "location": {"latitude": "53.431910", "street": {"id": 1721188, "name": "On or near Bridgegate"}, "longitude": "-1.357098"}, "context": "", "outcome_status": null, "persistent_id": "", "id": 118055494, "location_subtype": "", "month": "2024-04"}, {"category": "anti-social-behaviour", "location_type": "Force", "location": {"latitude": "53.461650", "street": {"id": 1715968, "name": "On or near Market Place"}, "longitude": "-1.465832"}, "context": "", "outcome_status": null, "persistent_id": "", "id": 118065631, "location_subtype": "", "month": "2024-04"}, {"category": "anti-social-behaviour", "location_type": "Force", "location": {"latitude": "53.352170", "street": {"id": 1717410, "name": "On or near Spotswood Drive"}, "longitude": "-1.444771"}, "context": "", "outcome_status": null, "persistent_id": "", "id": 118080091, "location_subtype": "", "month": "2024-04"}, {"category": "anti-social-behaviour", "location_type": "Force", "location": {"latitude": "53.408293", "street": {"id": 1717345, "name": "On or near Page Hall Road"}, "longitude": "-1.446057"}, "context": "", "outcome_status": null, "persistent_id": "", "id": 118080090, "location_subtype": "", "month": "2024-04"}, {"category": "anti-social-behaviour", "location_type": "Force", "location": {"latitude": "53.365554", "street": {"id": 1716554, "name": "On or near Park Spring Way"}, "longitude": "-1.458393"}, "context": "", "outcome_status": null, "persistent_id": "", "id": 118080087, "location_subtype": "", "month": "2024-04"}, {"category": "anti-social-behaviour", "location_type": "Force", "location": {"latitude": "53.415373", "street": {"id": 1716452, "name": "On or near Longley Lane"}, "longitude": "-1.461191"}, "context": "", "outcome_status": null, "persistent_id": "", "id": 118080086, "location_subtype": "", "month": "2024-04"}, {"category": "anti-social-behaviour", "location_type": "Force", "location": {"latitude": "53.401117", "street": {"id": 1716273, "name": "On or near Firshill Close"}, "longitude": "-1.463040"}, "context": "", "outcome_status": null, "persistent_id": "", "id": 118080085, "location_subtype": "", "month": "2024-04"}, {"category": "anti-social-behaviour", "location_type": "Force", "location": {"latitude": "53.416302", "street": {"id": 1715843, "name": "On or near Piper Close"}, "longitude": "-1.467784"}, "context": "", "outcome_status": null, "persistent_id": "", "id": 118080084, "location_subtype": "", "month": "2024-04"}, {"category": "anti-social-behaviour", "location_type": "Force", "location": {"latitude": "53.373264", "street": {"id": 1715538, "name": "On or near Hereford Street"}, "longitude": "-1.471928"}, "context": "", "outcome_status": null, "persistent_id": "", "id": 118080083, "location_subtype": "", "month": "2024-04"}, {"category": "anti-social-behaviour", "location_type": "Force", "location": {"latitude": "53.384448", "street": {"id": 1715532, "name": "On or near Tenter Street"}, "longitude": "-1.472286"}, "context": "", "outcome_status": null, "persistent_id": "", "id": 118080082, "location_subtype": "", "month": "2024-04"}, {"category": "anti-social-behaviour", "location_type": "Force", "location": {"latitude": "53.379969", "street": {"id": 1714845, "name": "On or near Nightclub"}, "longitude": "-1.479653"}, "context": "", "outcome_status": null, "persistent_id": "", "id": 118080080, "location_subtype": "", "month": "2024-04"}, {"category": "anti-social-behaviour", "location_type": "Force", "location": {"latitude": "53.380410", "street": {"id": 1714786, "name": "On or near Charlotte Lane"}, "longitude": "-1.480093"}, "context": "", "outcome_status": null, "persistent_id": "", "id": 118080079, "location_subtype": "", "month": "2024-04"}, {"category": "anti-social-behaviour", "location_type": "Force", "location": {"latitude": "53.431576", "street": {"id": 1714744, "name": "On or near Margetson Crescent"}, "longitude": "-1.478596"}, "context": "", "outcome_status": null, "persistent_id": "", "id": 118080078, "location_subtype": "", "month": "2024-04"}, {"category": "anti-social-behaviour", "location_type": "Force", "location": {"latitude": "53.360497", "street": {"id": 1714527, "name": "On or near Wath Road"}, "longitude": "-1.483506"}, "context": "", "outcome_status": null, "persistent_id": "", "id": 118080077, "location_subtype": "", "month": "2024-04"}, {"category": "anti-social-behaviour", "location_type": "Force", "location": {"latitude": "53.428799", "street": {"id": 1714350, "name": "On or near Wordsworth Close"}, "longitude": "-1.484891"}, "context": "", "outcome_status": null, "persistent_id": "", "id": 118080075, "location_subtype": "", "month": "2024-04"}, {"category": "anti-social-behaviour", "location_type": "Force", "location": {"latitude": "53.428108", "street": {"id": 1714149, "name": "On or near Supermarket"}, "longitude": "-1.487202"}, "context": "", "outcome_status": null, "persistent_id": "", "id": 118080074, "location_subtype": "", "month": "2024-04"}, {"category": "anti-social-behaviour", "location_type": "Force", "location": {"latitude": "53.413328", "street": {"id": 1713914, "name": "On or near Scraith Wood Drive"}, "longitude": "-1.488779"}, "context": "", "outcome_status": null, "persistent_id": "", "id": 118080072, "location_subtype": "", "month": "2024-04"}, {"category": "anti-social-behaviour", "location_type": "Force", "location": {"latitude": "53.352846", "street": {"id": 1714064, "name": "On or near Coverdale Road"}, "longitude": "-1.489412"}, "context": "", "outcome_status": null, "persistent_id": "", "id": 118080071, "location_subtype": "", "month": "2024-04"}, {"category": "anti-social-behaviour", "location_type": "Force", "location": {"latitude": "53.472561", "street": {"id": 1713049, "name": "On or near Furness Road"}, "longitude": "-1.503193"}, "context": "", "outcome_status": null, "persistent_id": "", "id": 118080069, "location_subtype": "", "month": "2024-04"}, {"category": "anti-social-behaviour", "location_type": "Force", "location": {"latitude": "53.385339", "street": {"id": 1712824, "name": "On or near Supermarket"}, "longitude": "-1.507955"}, "context": "", "outcome_status": null, "persistent_id": "", "id": 118080068, "location_subtype": "", "month": "2024-04"}, {"category": "anti-social-behaviour", "location_type": "Force", "location": {"latitude": "53.370513", "street": {"id": 1712706, "name": "On or near The Glade"}, "longitude": "-1.507597"}, "context": "", "outcome_status": null, "persistent_id": "", "id": 118080067, "location_subtype": "", "month": "2024-04"}, {"category": "anti-social-behaviour", "location_type": "Force", "location": {"latitude": "53.377008", "street": {"id": 1715673, "name": "On or near Parking Area"}, "longitude": "-1.470860"}, "context": "", "outcome_status": null, "persistent_id": "", "id": 118065626, "location_subtype": "", "month": "2024-04"}, {"category": "anti-social-behaviour", "location_type": "Force", "location": {"latitude": "53.351483", "street": {"id": 1718475, "name": "On or near Hollinsend Road"}, "longitude": "-1.421074"}, "context": "", "outcome_status": null, "persistent_id": "", "id": 118065693, "location_subtype": "", "month": "2024-04"}, {"category": "anti-social-behaviour", "location_type": "Force", "location": {"latitude": "53.359208", "street": {"id": 1720922, "name": "On or near Tilford Road"}, "longitude": "-1.365225"}, "context": "", "outcome_status": null, "persistent_id": "", "id": 118055492, "location_subtype": "", "month": "2024-04"}, {"category": "anti-social-behaviour", "location_type": "Force", "location": {"latitude": "53.349820", "street": {"id": 1712181, "name": "On or near Hill Turrets Close"}, "longitude": "-1.522828"}, "context": "", "outcome_status": null, "persistent_id": "", "id": 118072965, "location_subtype": "", "month": "2024-04"}, {"category": "anti-social-behaviour", "location_type": "Force", "location": {"latitude": "53.372217", "street": {"id": 1712304, "name": "On or near Ranmoor Gardens"}, "longitude": "-1.519887"}, "context": "", "outcome_status": null, "persistent_id": "", "id": 118072967, "location_subtype": "", "month": "2024-04"}, {"category": "anti-social-behaviour", "location_type": "Force", "location": {"latitude": "53.366447", "street": {"id": 1712927, "name": "On or near Kenilworth Place"}, "longitude": "-1.504488"}, "context": "", "outcome_status": null, "persistent_id": "", "id": 118072968, "location_subtype": "", "month": "2024-04"}, {"category": "anti-social-behaviour", "location_type": "Force", "location": {"latitude": "53.396917", "street": {"id": 1713953, "name": "On or near Langsett Rise"}, "longitude": "-1.491366"}, "context": "", "outcome_status": null, "persistent_id": "", "id": 118072970, "location_subtype": "", "month": "2024-04"}, {"category": "anti-social-behaviour", "location_type": "Force", "location": {"latitude": "53.381142", "street": {"id": 1714510, "name": "On or near Leavy Greave Road"}, "longitude": "-1.482925"}, "context": "", "outcome_status": null, "persistent_id": "", "id": 118072972, "location_subtype": "", "month": "2024-04"}, {"category": "anti-social-behaviour", "location_type": "Force", "location": {"latitude": "53.382893", "street": {"id": 1715110, "name": "On or near Boden Lane"}, "longitude": "-1.476379"}, "context": "", "outcome_status": null, "persistent_id": "", "id": 118072975, "location_subtype": "", "month": "2024-04"}, {"category": "anti-social-behaviour", "location_type": "Force", "location": {"latitude": "53.380604", "street": {"id": 1715626, "name": "On or near Barker's Pool"}, "longitude": "-1.471025"}, "context": "", "outcome_status": null, "persistent_id": "", "id": 118065623, "location_subtype": "", "month": "2024-04"}, {"category": "anti-social-behaviour", "location_type": "Force", "location": {"latitude": "53.473415", "street": {"id": 1720999, "name": "On or near Durnan Grove"}, "longitude": "-1.363040"}, "context": "", "outcome_status": null, "persistent_id": "", "id": 118065734, "location_subtype": "", "month": "2024-04"}, {"category": "anti-social-behaviour", "location_type": "Force", "location": {"latitude": "53.422992", "street": {"id": 1718252, "name": "On or near Stanwell Close"}, "longitude": "-1.425762"}, "context": "", "outcome_status": null, "persistent_id": "", "id": 118065690, "location_subtype": "", "month": "2024-04"}, {"category": "anti-social-behaviour", "location_type": "Force", "location": {"latitude": "53.384198", "street": {"id": 1715684, "name": "On or near Paradise Lane"}, "longitude": "-1.470560"}, "context": "", "outcome_status": null, "persistent_id": "", "id": 118072978, "location_subtype": "", "month": "2024-04"}, {"category": "anti-social-behaviour", "location_type": "Force", "location": {"latitude": "53.401134", "street": {"id": 1716004, "name": "On or near Shirecliffe Close"}, "longitude": "-1.466815"}, "context": "", "outcome_status": null, "persistent_id": "", "id": 118072979, "location_subtype": "", "month": "2024-04"}, {"category": "anti-social-behaviour", "location_type": "Force", "location": {"latitude": "53.352659", "street": {"id": 1715151, "name": "On or near Cliffe View Road"}, "longitude": "-1.475217"}, "context": "", "outcome_status": null, "persistent_id": "", "id": 118065620, "location_subtype": "", "month": "2024-04"}, {"category": "anti-social-behaviour", "location_type": "Force", "location": {"latitude": "53.353337", "street": {"id": 1716134, "name": "On or near Carfield Place"}, "longitude": "-1.464046"}, "context": "", "outcome_status": null, "persistent_id": "", "id": 118072981, "location_subtype": "", "month": "2024-04"}, {"category": "anti-social-behaviour", "location_type": "Force", "location": {"latitude": "53.405645", "street": {"id": 1716455, "name": "On or near Crabtree Road"}, "longitude": "-1.460667"},