[{"category": "anti-social-behaviour", "location_type": "Force", "location": {"latitude": "53.341540", "street": {"id": 1718070, "name": "On or near Kew Crescent"}, "longitude": "-1.430145"}, "context": "", "outcome_status": null, "persistent_id": "", "id": 132534447, "location_subtype": "", "month": "2025-11"}, {"category": "anti-social-behaviour", "location_type": "Force", "location": {"latitude": "53.340398", "street": {"id": 1716982, "name": "On or near Ashbury Drive"}, "longitude": "-1.453275"}, "context": "", "outcome_status": null, "persistent_id": "", "id": 132534445, "location_subtype": "", "month": "2025-11"}, {"category": "anti-social-behaviour", "location_type": "Force", "location": {"latitude": "53.416540", "street": {"id": 1716922, "name": "On or near Merlin Way"}, "longitude": "-1.452871"}, "context": "", "outcome_status": null, "persistent_id": "", "id": 132534444, "location_subtype": "", "month": "2025-11"}, {"category": "anti-social-behaviour", "location_type": "Force", "location": {"latitude": "53.379702", "street": {"id": 1716052, "name": "On or near Arundel Gate"}, "longitude": "-1.466241"}, "context": "", "outcome_status": null, "persistent_id": "", "id": 132533520, "location_subtype": "", "month": "2025-11"}, {"category": "anti-social-behaviour", "location_type": "Force", "location": {"latitude": "53.340363", "street": {"id": 1717168, "name": "On or near Supermarket"}, "longitude": "-1.449663"}, "context": "", "outcome_status": null, "persistent_id": "", "id": 132533525, "location_subtype": "", "month": "2025-11"}, {"category": "anti-social-behaviour", "location_type": "Force", "location": {"latitude": "53.374136", "street": {"id": 1716916, "name": "On or near Claywood Road"}, "longitude": "-1.453790"}, "context": "", "outcome_status": null, "persistent_id": "", "id": 132533524, "location_subtype": "", "month": "2025-11"}, {"category": "anti-social-behaviour", "location_type": "Force", "location": {"latitude": "53.387172", "street": {"id": 1716259, "name": "On or near Wicker"}, "longitude": "-1.462359"}, "context": "", "outcome_status": null, "persistent_id": "", "id": 132533521, "location_subtype": "", "month": "2025-11"}, {"category": "anti-social-behaviour", "location_type": "Force", "location": {"latitude": "53.473421", "street": {"id": 1711031, "name": "On or near Coultas Avenue"}, "longitude": "-1.579763"}, "context": "", "outcome_status": null, "persistent_id": "", "id": 132525463, "location_subtype": "", "month": "2025-11"}, {"category": "anti-social-behaviour", "location_type": "Force", "location": {"latitude": "53.437183", "street": {"id": 1721597, "name": "On or near Selborne Street"}, "longitude": "-1.349733"}, "context": "", "outcome_status": null, "persistent_id": "", "id": 132526026, "location_subtype": "", "month": "2025-11"}, {"category": "anti-social-behaviour", "location_type": "Force", "location": {"latitude": "53.323113", "street": {"id": 1721484, "name": "On or near Borrowdale Avenue"}, "longitude": "-1.350927"}, "context": "", "outcome_status": null, "persistent_id": "", "id": 132526025, "location_subtype": "", "month": "2025-11"}, {"category": "anti-social-behaviour", "location_type": "Force", "location": {"latitude": "53.433223", "street": {"id": 1721503, "name": "On or near Carlisle Street"}, "longitude": "-1.350591"}, "context": "", "outcome_status": null, "persistent_id": "", "id": 132526024, "location_subtype": "", "month": "2025-11"}, {"category": "anti-social-behaviour", "location_type": "Force", "location": {"latitude": "53.326176", "street": {"id": 1720961, "name": "On or near Parking Area"}, "longitude": "-1.363853"}, "context": "", "outcome_status": null, "persistent_id": "", "id": 132526023, "location_subtype": "", "month": "2025-11"}, {"category": "anti-social-behaviour", "location_type": "Force", "location": {"latitude": "53.434342", "street": {"id": 1720779, "name": "On or near Walter Street"}, "longitude": "-1.368050"}, "context": "", "outcome_status": null, "persistent_id": "", "id": 132526022, "location_subtype": "", "month": "2025-11"}, {"category": "anti-social-behaviour", "location_type": "Force", "location": {"latitude": "53.405962", "street": {"id": 1721249, "name": "On or near Haworth Crescent"}, "longitude": "-1.344297"}, "context": "", "outcome_status": null, "persistent_id": "", "id": 132525020, "location_subtype": "", "month": "2025-11"}, {"category": "anti-social-behaviour", "location_type": "Force", "location": {"latitude": "53.326176", "street": {"id": 1720961, "name": "On or near Parking Area"}, "longitude": "-1.363853"}, "context": "", "outcome_status": null, "persistent_id": "", "id": 132525019, "location_subtype": "", "month": "2025-11"}, {"category": "anti-social-behaviour", "location_type": "Force", "location": {"latitude": "53.351588", "street": {"id": 1717496, "name": "On or near Middle Hay Close"}, "longitude": "-1.443172"}, "context": "", "outcome_status": null, "persistent_id": "", "id": 132522332, "location_subtype": "", "month": "2025-11"}, {"category": "anti-social-behaviour", "location_type": "Force", "location": {"latitude": "53.366159", "street": {"id": 1713157, "name": "On or near Pinner Road"}, "longitude": "-1.502372"}, "context": "", "outcome_status": null, "persistent_id": "", "id": 132525987, "location_subtype": "", "month": "2025-11"}, {"category": "anti-social-behaviour", "location_type": "Force", "location": {"latitude": "53.382239", "street": {"id": 1712816, "name": "On or near Carson Road"}, "longitude": "-1.508619"}, "context": "", "outcome_status": null, "persistent_id": "", "id": 132525986, "location_subtype": "", "month": "2025-11"}, {"category": "anti-social-behaviour", "location_type": "Force", "location": {"latitude": "53.382431", "street": {"id": 1712623, "name": "On or near Cross Lane"}, "longitude": "-1.511744"}, "context": "", "outcome_status": null, "persistent_id": "", "id": 132525985, "location_subtype": "", "month": "2025-11"}, {"category": "anti-social-behaviour", "location_type": "Force", "location": {"latitude": "53.313083", "street": {"id": 1711868, "name": "On or near Green Oak Drive"}, "longitude": "-1.531853"}, "context": "", "outcome_status": null, "persistent_id": "", "id": 132525981, "location_subtype": "", "month": "2025-11"}, {"category": "anti-social-behaviour", "location_type": "Force", "location": {"latitude": "53.401603", "street": {"id": 1710572, "name": "On or near Sugworth Road"}, "longitude": "-1.649837"}, "context": "", "outcome_status": null, "persistent_id": "", "id": 132525979, "location_subtype": "", "month": "2025-11"}, {"category": "anti-social-behaviour", "location_type": "Force", "location": {"latitude": "53.341344", "street": {"id": 1713058, "name": "On or near A621"}, "longitude": "-1.502932"}, "context": "", "outcome_status": null, "persistent_id": "", "id": 132521804, "location_subtype": "", "month": "2025-11"}, {"category": "anti-social-behaviour", "location_type": "Force", "location": {"latitude": "53.405916", "street": {"id": 1711715, "name": "On or near Occupation Lane"}, "longitude": "-1.535844"}, "context": "", "outcome_status": null, "persistent_id": "", "id": 132525465, "location_subtype": "", "month": "2025-11"}, {"category": "anti-social-behaviour", "location_type": "Force", "location": {"latitude": "53.437602", "street": {"id": 1717896, "name": "On or near Grange Mill Lane"}, "longitude": "-1.433874"}, "context": "", "outcome_status": null, "persistent_id": "", "id": 132534446, "location_subtype": "", "month": "2025-11"}, {"category": "anti-social-behaviour", "location_type": "Force", "location": {"latitude": "53.378516", "street": {"id": 1716764, "name": "On or near Stafford Street"}, "longitude": "-1.456410"}, "context": "", "outcome_status": null, "persistent_id": "", "id": 132524998, "location_subtype": "", "month": "2025-11"}, {"category": "anti-social-behaviour", "location_type": "Force", "location": {"latitude": "53.412702", "street": {"id": 1716730, "name": "On or near Fox Way"}, "longitude": "-1.456892"}, "context": "", "outcome_status": null, "persistent_id": "", "id": 132524997, "location_subtype": "", "month": "2025-11"}, {"category": "anti-social-behaviour", "location_type": "Force", "location": {"latitude": "53.359017", "street": {"id": 1716495, "name": "On or near Derby Place"}, "longitude": "-1.459858"}, "context": "", "outcome_status": null, "persistent_id": "", "id": 132524996, "location_subtype": "", "month": "2025-11"}, {"category": "anti-social-behaviour", "location_type": "Force", "location": {"latitude": "53.377279", "street": {"id": 1716573, "name": "On or near Claywood Drive"}, "longitude": "-1.459101"}, "context": "", "outcome_status": null, "persistent_id": "", "id": 132524994, "location_subtype": "", "month": "2025-11"}, {"category": "anti-social-behaviour", "location_type": "Force", "location": {"latitude": "53.305217", "street": {"id": 2215471, "name": "On or near Haddon Close"}, "longitude": "-1.461227"}, "context": "", "outcome_status": null, "persistent_id": "", "id": 132151490, "location_subtype": "", "month": "2025-11"}, {"category": "anti-social-behaviour", "location_type": "Force", "location": {"latitude": "53.433892", "street": {"id": 1717718, "name": "On or near Woolley Wood Road"}, "longitude": "-1.438259"}, "context": "", "outcome_status": null, "persistent_id": "", "id": 132522334, "location_subtype": "", "month": "2025-11"}, {"category": "anti-social-behaviour", "location_type": "Force", "location": {"latitude": "53.381892", "street": {"id": 1716577, "name": "On or near Anson Street"}, "longitude": "-1.459464"}, "context": "", "outcome_status": null, "persistent_id": "", "id": 132524993, "location_subtype": "", "month": "2025-11"}, {"category": "anti-social-behaviour", "location_type": "Force", "location": {"latitude": "53.360699", "street": {"id": 1717839, "name": "On or near Aylward Close"}, "longitude": "-1.436712"}, "context": "", "outcome_status": null, "persistent_id": "", "id": 132522336, "location_subtype": "", "month": "2025-11"}, {"category": "anti-social-behaviour", "location_type": "Force", "location": {"latitude": "53.352817", "street": {"id": 1711965, "name": "On or near Bents Close"}, "longitude": "-1.528233"}, "context": "", "outcome_status": null, "persistent_id": "", "id": 132532138, "location_subtype": "", "month": "2025-11"}, {"category": "anti-social-behaviour", "location_type": "Force", "location": {"latitude": "53.346236", "street": {"id": 1714125, "name": "On or near Sports/recreation Area"}, "longitude": "-1.488262"}, "context": "", "outcome_status": null, "persistent_id": "", "id": 132532140, "location_subtype": "", "month": "2025-11"}, {"category": "anti-social-behaviour", "location_type": "Force", "location": {"latitude": "53.415437", "street": {"id": 1714176, "name": "On or near Adkins Drive"}, "longitude": "-1.485865"}, "context": "", "outcome_status": null, "persistent_id": "", "id": 132532141, "location_subtype": "", "month": "2025-11"}, {"category": "anti-social-behaviour", "location_type": "Force", "location": {"latitude": "53.366822", "street": {"id": 1714580, "name": "On or near Priory Avenue"}, "longitude": "-1.482753"}, "context": "", "outcome_status": null, "persistent_id": "", "id": 132532142, "location_subtype": "", "month": "2025-11"}, {"category": "anti-social-behaviour", "location_type": "Force", "location": {"latitude": "53.429260", "street": {"id": 1721316, "name": "On or near Parking Area"}, "longitude": "-1.354023"}, "context": "", "outcome_status": null, "persistent_id": "", "id": 132532159, "location_subtype": "", "month": "2025-11"}, {"category": "anti-social-behaviour", "location_type": "Force", "location": {"latitude": "53.346169", "street": {"id": 1721265, "name": "On or near Sevenairs Road"}, "longitude": "-1.350908"}, "context": "", "outcome_status": null, "persistent_id": "", "id": 132532160, "location_subtype": "", "month": "2025-11"}, {"category": "anti-social-behaviour", "location_type": "Force", "location": {"latitude": "53.370253", "street": {"id": 1722930, "name": "On or near Mason Avenue"}, "longitude": "-1.315944"}, "context": "", "outcome_status": null, "persistent_id": "", "id": 132532162, "location_subtype": "", "month": "2025-11"}, {"category": "anti-social-behaviour", "location_type": "Force", "location": {"latitude": "53.307670", "street": {"id": 2219360, "name": "On or near School Lane"}, "longitude": "-1.395449"}, "context": "", "outcome_status": null, "persistent_id": "", "id": 132151131, "location_subtype": "", "month": "2025-11"}, {"category": "anti-social-behaviour", "location_type": "Force", "location": {"latitude": "53.419300", "street": {"id": 1723295, "name": "On or near Petrol Station"}, "longitude": "-1.307423"}, "context": "", "outcome_status": null, "persistent_id": "", "id": 132532164, "location_subtype": "", "month": "2025-11"}, {"category": "anti-social-behaviour", "location_type": "Force", "location": {"latitude": "53.367448", "street": {"id": 1718255, "name": "On or near Payler Close"}, "longitude": "-1.426990"}, "context": "", "outcome_status": null, "persistent_id": "", "id": 132522337, "location_subtype": "", "month": "2025-11"}, {"category": "anti-social-behaviour", "location_type": "Force", "location": {"latitude": "53.381892", "street": {"id": 1716577, "name": "On or near Anson Street"}, "longitude": "-1.459464"}, "context": "", "outcome_status": null, "persistent_id": "", "id": 132524992, "location_subtype": "", "month": "2025-11"}, {"category": "anti-social-behaviour", "location_type": "Force", "location": {"latitude": "53.377279", "street": {"id": 1716573, "name": "On or near Claywood Drive"}, "longitude": "-1.459101"}, "context": "", "outcome_status": null, "persistent_id": "", "id": 132524991, "location_subtype": "", "month": "2025-11"}, {"category": "anti-social-behaviour", "location_type": "Force", "location": {"latitude": "53.469819", "street": {"id": 1714258, "name": "On or near Entwhistle Road"}, "longitude": "-1.484033"}, "context": "", "outcome_status": null, "persistent_id": "", "id": 132524978, "location_subtype": "", "month": "2025-11"}, {"category": "anti-social-behaviour", "location_type": "Force", "location": {"latitude": "53.352846", "street": {"id": 1714064, "name": "On or near Coverdale Road"}, "longitude": "-1.489412"}, "context": "", "outcome_status": null, "persistent_id": "", "id": 132524977, "location_subtype": "", "month": "2025-11"}, {"category": "anti-social-behaviour", "location_type": "Force", "location": {"latitude": "53.387180", "street": {"id": 1718300, "name": "On or near Ouseburn Road"}, "longitude": "-1.425432"}, "context": "", "outcome_status": null, "persistent_id": "", "id": 132522338, "location_subtype": "", "month": "2025-11"}, {"category": "anti-social-behaviour", "location_type": "Force", "location": {"latitude": "53.387465", "street": {"id": 1714016, "name": "On or near Albion Street"}, "longitude": "-1.490216"}, "context": "", "outcome_status": null, "persistent_id": "", "id": 132524976, "location_subtype": "", "month": "2025-11"}, {"category": "anti-social-behaviour", "location_type": "Force", "location": {"latitude": "53.332644", "street": {"id": 1722063, "name": "On or near Holbrook Green"}, "longitude": "-1.338424"}, "context": "", "outcome_status": null, "persistent_id": "", "id": 132532621, "location_subtype": "", "month": "2025-11"}, {"category": "anti-social-behaviour", "location_type": "Force", "location": {"latitude": "53.433223", "street": {"id": 1721503, "name": "On or near Carlisle Street"}, "longitude": "-1.350591"}, "context": "", "outcome_status": null, "persistent_id": "", "id": 132532620, "location_subtype": "", "month": "2025-11"}, {"category": "anti-social-behaviour", "location_type": "Force", "location": {"latitude": "53.346169", "street": {"id": 1721265, "name": "On or near Sevenairs Road"}, "longitude": "-1.350908"}, "context": "", "outcome_status": null, "persistent_id": "", "id": 132532619, "location_subtype": "", "month": "2025-11"}, {"category": "anti-social-behaviour", "location_type": "Force", "location": {"latitude": "53.394650", "street": {"id": 1718123, "name": "On or near Titterton Street"}, "longitude": "-1.429361"}, "context": "", "outcome_status": null, "persistent_id": "", "id": 132532612, "location_subtype": "", "month": "2025-11"}, {"category": "anti-social-behaviour", "location_type": "Force", "location": {"latitude": "53.359303", "street": {"id": 1717817, "name": "On or near Atherton Close"}, "longitude": "-1.436204"}, "context": "", "outcome_status": null, "persistent_id": "", "id": 132532611, "location_subtype": "", "month": "2025-11"}, {"category": "anti-social-behaviour", "location_type": "Force", "location": {"latitude": "53.404284", "street": {"id": 1717492, "name": "On or near Margate Street"}, "longitude": "-1.444184"}, "context": "", "outcome_status": null, "persistent_id": "", "id": 132532610, "location_subtype": "", "month": "2025-11"}, {"category": "anti-social-behaviour", "location_type": "Force", "location": {"latitude": "53.418908", "street": {"id": 1717214, "name": "On or near Shopping Area"}, "longitude": "-1.448670"}, "context": "", "outcome_status": null, "persistent_id": "", "id": 132532609, "location_subtype": "", "month": "2025-11"}, {"category": "anti-social-behaviour", "location_type": "Force", "location": {"latitude": "53.382133", "street": {"id": 1715928, "name": "On or near George Street"}, "longitude": "-1.467068"}, "context": "", "outcome_status": null, "persistent_id": "", "id": 132532605, "location_subtype": "", "month": "2025-11"}, {"category": "anti-social-behaviour", "location_type": "Force", "location": {"latitude": "53.469695", "street": {"id": 1714904, "name": "On or near Thorncliffe Lane"}, "longitude": "-1.478204"}, "context": "", "outcome_status": null, "persistent_id": "", "id": 132532600, "location_subtype": "", "month": "2025-11"}, {"category": "anti-social-behaviour", "location_type": "Force", "location": {"latitude": "53.389461", "street": {"id": 1714815, "name": "On or near St Philip's Lane"}, "longitude": "-1.479877"}, "context": "", "outcome_status": null, "persistent_id": "", "id": 132532599, "location_subtype": "", "month": "2025-11"}, {"category": "anti-social-behaviour", "location_type": "Force", "location": {"latitude": "53.361622", "street": {"id": 1714574, "name": "On or near Alcester Road"}, "longitude": "-1.481854"}, "context": "", "outcome_status": null, "persistent_id": "", "id": 132532598, "location_subtype": "", "month": "2025-11"}, {"category": "anti-social-behaviour", "location_type": "Force", "location": {"latitude": "53.338467", "street": {"id": 1711098, "name": "On or near Jumble Road"}, "longitude": "-1.570111"}, "context": "", "outcome_status": null, "persistent_id": "", "id": 132532588, "location_subtype": "", "month": "2025-11"}, {"category": "anti-social-behaviour", "location_type": "Force", "location": {"latitude": "53.324050", "street": {"id": 1713844, "name": "On or near Reney Avenue"}, "longitude": "-1.492488"}, "context": "", "outcome_status": null, "persistent_id": "", "id": 132524975, "location_subtype": "", "month": "2025-11"}, {"category": "anti-social-behaviour", "location_type": "Force", "location": {"latitude": "53.306485", "street": {"id": 2213993, "name": "On or near Stubley Close"}, "longitude": "-1.488044"}, "context": "", "outcome_status": null, "persistent_id": "", "id": 132151580, "location_subtype": "", "month": "2025-11"}, {"category": "anti-social-behaviour", "location_type": "Force", "location": {"latitude": "53.369790", "street": {"id": 1717564, "name": "On or near St Aidan's Rise"}, "longitude": "-1.443160"}, "context": "", "outcome_status": null, "persistent_id": "", "id": 132527401, "location_subtype": "", "month": "2025-11"}, {"category": "anti-social-behaviour", "location_type": "Force", "location": {"latitude": "53.365319", "street": {"id": 1713366, "name": "On or near Hardwick Crescent"}, "longitude": "-1.499286"}, "context": "", "outcome_status": null, "persistent_id": "", "id": 132524974, "location_subtype": "", "month": "2025-11"}, {"category": "anti-social-behaviour", "location_type": "Force", "location": {"latitude": "53.375520", "street": {"id": 1713407, "name": "On or near Melbourne Avenue"}, "longitude": "-1.498836"}, "context": "", "outcome_status": null, "persistent_id": "", "id": 132524973, "location_subtype": "", "month": "2025-11"}, {"category": "anti-social-behaviour", "location_type": "Force", "location": {"latitude": "53.373833", "street": {"id": 1713320, "name": "On or near Southbourne Road"}, "longitude": "-1.499698"}, "context": "", "outcome_status": null, "persistent_id": "", "id": 132524972, "location_subtype": "", "month": "2025-11"}, {"category": "anti-social-behaviour", "location_type": "Force", "location": {"latitude": "53.365980", "street": {"id": 1718516, "name": "On or near Hastilar Close"}, "longitude": "-1.420818"}, "context": "", "outcome_status": null, "persistent_id": "", "id": 132522339, "location_subtype": "", "month": "2025-11"}, {"category": "anti-social-behaviour", "location_type": "Force", "location": {"latitude": "53.341344", "street": {"id": 1713058, "name": "On or near A621"}, "longitude": "-1.502932"}, "context": "", "outcome_status": null, "persistent_id": "", "id": 132524971, "location_subtype": "", "month": "2025-11"}, {"category": "anti-social-behaviour", "location_type": "Force", "location": {"latitude": "53.387833", "street": {"id": 1712781, "name": "On or near Netherfield Road"}, "longitude": "-1.509412"}, "context": "", "outcome_status": null, "persistent_id": "", "id": 132524970, "location_subtype": "", "month": "2025-11"}, {"category": "anti-social-behaviour", "location_type": "Force", "location": {"latitude": "53.378869", "street": {"id": 1712366, "name": "On or near Tapton Bank"}, "longitude": "-1.515468"}, "context": "", "outcome_status": null, "persistent_id": "", "id": 132527878, "location_subtype": "", "month": "2025-11"}, {"category": "anti-social-behaviour", "location_type": "Force", "location": {"latitude": "53.430906", "street": {"id": 1718450, "name": "On or near M1"}, "longitude": "-1.420899"}, "context": "", "outcome_status": null, "persistent_id": "", "id": 132522340, "location_subtype": "", "month": "2025-11"}, {"category": "anti-social-behaviour", "location_type": "Force", "location": {"latitude": "53.350510", "street": {"id": 1719685, "name": "On or near Newhill Lane"}, "longitude": "-1.391673"}, "context": "", "outcome_status": null, "persistent_id": "", "id": 132522341, "location_subtype": "", "month": "2025-11"}, {"category": "anti-social-behaviour", "location_type": "Force", "location": {"latitude": "53.359466", "street": {"id": 1720131, "name": "On or near New Cross Way"}, "longitude": "-1.381959"}, "context": "", "outcome_status": null, "persistent_id": "", "id": 132522344, "location_subtype": "", "month": "2025-11"}, {"category": "anti-social-behaviour", "location_type": "Force", "location": {"latitude": "53.435745", "street": {"id": 1719516, "name": "On or near Crane Drive"}, "longitude": "-1.396102"}, "context": "", "outcome_status": null, "persistent_id": "", "id": 132526965, "location_subtype": "", "month": "2025-11"}, {"category": "anti-social-behaviour", "location_type": "Force", "location": {"latitude": "53.364106", "street": {"id": 1719344, "name": "On or near Richmond Hall Way"}, "longitude": "-1.403502"}, "context": "", "outcome_status": null, "persistent_id": "", "id": 132526964, "location_subtype": "", "month": "2025-11"}, {"category": "anti-social-behaviour", "location_type": "Force", "location": {"latitude": "53.404982", "street": {"id": 1717490, "name": "On or near Wood Spring Court"}, "longitude": "-1.443498"}, "context": "", "outcome_status": null, "persistent_id": "", "id": 132533969, "location_subtype": "", "month": "2025-11"}, {"category": "anti-social-behaviour", "location_type": "Force", "location": {"latitude": "53.385970", "street": {"id": 1716859, "name": "On or near Cutlers Gate"}, "longitude": "-1.454841"}, "context": "", "outcome_status": null, "persistent_id": "", "id": 132521829, "location_subtype": "", "month": "2025-11"}, {"category": "anti-social-behaviour", "location_type": "Force", "location": {"latitude": "53.381809", "street": {"id": 1715708, "name": "On or near Shopping Area"}, "longitude": "-1.468581"}, "context": "", "outcome_status": null, "persistent_id": "", "id": 132521823, "location_subtype": "", "month": "2025-11"}, {"category": "anti-social-behaviour", "location_type": "Force", "location": {"latitude": "53.425187", "street": {"id": 1717021, "name": "On or near Valentine Road"}, "longitude": "-1.452880"}, "context": "", "outcome_status": null, "persistent_id": "", "id": 132521831, "location_subtype": "", "month": "2025-11"}, {"category": "anti-social-behaviour", "location_type": "Force", "location": {"latitude": "53.337414", "street": {"id": 1717024, "name": "On or near Sports/recreation Area"}, "longitude": "-1.450898"}, "context": "", "outcome_status": null, "persistent_id": "", "id": 132521832, "location_subtype": "", "month": "2025-11"}, {"category": "anti-social-behaviour", "location_type": "Force", "location": {"latitude": "53.418908", "street": {"id": 1717214, "name": "On or near Shopping Area"}, "longitude": "-1.448670"}, "context": "", "outcome_status": null, "persistent_id": "", "id": 132521835, "location_subtype": "", "month": "2025-11"}, {"category": "anti-social-behaviour", "location_type": "Force", "location": {"latitude": "53.383535", "street": {"id": 1712800, "name": "On or near Brick Drive"}, "longitude": "-1.509056"}, "context": "", "outcome_status": null, "persistent_id": "", "id": 132522298, "location_subtype": "", "month": "2025-11"}, {"category": "anti-social-behaviour", "location_type": "Force", "location": {"latitude": "53.401768", "street": {"id": 1720910, "name": "On or near Whitehill Avenue"}, "longitude": "-1.364907"}, "context": "", "outcome_status": null, "persistent_id": "", "id": 132522349, "location_subtype": "", "month": "2025-11"}, {"category": "anti-social-behaviour", "location_type": "Force", "location": {"latitude": "53.427917", "street": {"id": 1722043, "name": "On or near Granville Terrace"}, "longitude": "-1.340137"}, "context": "", "outcome_status": null, "persistent_id": "", "id": 132522355, "location_subtype": "", "month": "2025-11"}, {"category": "anti-social-behaviour", "location_type": "Force", "location": {"latitude": "53.425582", "street": {"id": 1716722, "name": "On or near Kinnaird Avenue"}, "longitude": "-1.456638"}, "context": "", "outcome_status": null, "persistent_id": "", "id": 132522822, "location_subtype": "", "month": "2025-11"}, {"category": "anti-social-behaviour", "location_type": "Force", "location": {"latitude": "53.394234", "street": {"id": 1716872, "name": "On or near Buckenham Drive"}, "longitude": "-1.453713"}, "context": "", "outcome_status": null, "persistent_id": "", "id": 132522823, "location_subtype": "", "month": "2025-11"}, {"category": "anti-social-behaviour", "location_type": "Force", "location": {"latitude": "53.405627", "street": {"id": 1718720, "name": "On or near Park/open Space"}, "longitude": "-1.409314"}, "context": "", "outcome_status": null, "persistent_id": "", "id": 132522837, "location_subtype": "", "month": "2025-11"}, {"category": "anti-social-behaviour", "location_type": "Force", "location": {"latitude": "53.434226", "street": {"id": 1721565, "name": "On or near Parking Area"}, "longitude": "-1.349899"}, "context": "", "outcome_status": null, "persistent_id": "", "id": 132522847, "location_subtype": "", "month": "2025-11"}, {"category": "anti-social-behaviour", "location_type": "Force", "location": {"latitude": "53.439521", "street": {"id": 1722261, "name": "On or near Bus/coach Station"}, "longitude": "-1.332051"}, "context": "", "outcome_status": null, "persistent_id": "", "id": 132522851, "location_subtype": "", "month": "2025-11"}, {"category": "anti-social-behaviour", "location_type": "Force", "location": {"latitude": "53.457510", "street": {"id": 1717252, "name": "On or near Hesley Bar"}, "longitude": "-1.443158"}, "context": "", "outcome_status": null, "persistent_id": "", "id": 132521836, "location_subtype": "", "month": "2025-11"}, {"category": "anti-social-behaviour", "location_type": "Force", "location": {"latitude": "53.406916", "street": {"id": 1717665, "name": "On or near Upwell Hill"}, "longitude": "-1.439862"}, "context": "", "outcome_status": null, "persistent_id": "", "id": 132527403, "location_subtype": "", "month": "2025-11"}, {"category": "anti-social-behaviour", "location_type": "Force", "location": {"latitude": "53.360699", "street": {"id": 1717839, "name": "On or near Aylward Close"}, "longitude": "-1.436712"}, "context": "", "outcome_status": null, "persistent_id": "", "id": 132527405, "location_subtype": "", "month": "2025-11"}, {"category": "anti-social-behaviour", "location_type": "Force", "location": {"latitude": "53.409800", "street": {"id": 1717234, "name": "On or near Bolsover Road East"}, "longitude": "-1.447346"}, "context": "", "outcome_status": null, "persistent_id": "", "id": 132521837, "location_subtype": "", "month": "2025-11"}, {"category": "anti-social-behaviour", "location_type": "Force", "location": {"latitude": "53.435475", "street": {"id": 1717453, "name": "On or near Beck Close"}, "longitude": "-1.442302"}, "context": "", "outcome_status": null, "persistent_id": "", "id": 132521839, "location_subtype": "", "month": "2025-11"}, {"category": "anti-social-behaviour", "location_type": "Force", "location": {"latitude": "53.362893", "street": {"id": 1715497, "name": "On or near Sark Road"}, "longitude": "-1.472342"}, "context": "", "outcome_status": null, "persistent_id": "", "id": 132523345, "location_subtype": "", "month": "2025-11"}, {"category": "anti-social-behaviour", "location_type": "Force", "location": {"latitude": "53.383425", "street": {"id": 1716763, "name": "On or near Stepney Street"}, "longitude": "-1.456648"}, "context": "", "outcome_status": null, "persistent_id": "", "id": 132527398, "location_subtype": "", "month": "2025-11"}, {"category": "anti-social-behaviour", "location_type": "Force", "location": {"latitude": "53.360336", "street": {"id": 1717646, "name": "On or near Errington Way"}, "longitude": "-1.441705"}, "context": "", "outcome_status": null, "persistent_id": "", "id": 132521840, "location_subtype": "", "month": "2025-11"}, {"category": "anti-social-behaviour", "location_type": "Force", "location": {"latitude": "53.372528", "street": {"id": 1711307, "name": "On or near Westminster Crescent"}, "longitude": "-1.553641"}, "context": "", "outcome_status": null, "persistent_id": "", "id": 132522295, "location_subtype": "", "month": "2025-11"}, {"category": "anti-social-behaviour", "location_type": "Force", "location": {"latitude": "53.463653", "street": {"id": 1717922, "name": "On or near Chapelfield Way"}, "longitude": "-1.434296"}, "context": "", "outcome_status": null, "persistent_id": "", "id": 132527406, "location_subtype": "", "month": "2025-11"}, {"category": "anti-social-behaviour", "location_type": "Force", "location": {"latitude": "53.417459", "street": {"id": 1712484, "name": "On or near Middlewood Chase"}, "longitude": "-1.513630"}, "context": "", "outcome_status": null, "persistent_id": "", "id": 132522297, "location_subtype": "", "month": "2025-11"}, {"category": "anti-social-behaviour", "location_type": "Force", "location": {"latitude": "53.385339", "street": {"id": 1712824, "name": "On or near Supermarket"}, "longitude": "-1.507955"}, "context": "", "outcome_status": null, "persistent_id": "", "id": 132522299, "location_subtype": "", "month": "2025-11"}, {"category": "anti-social-behaviour", "location_type": "Force", "location": {"latitude": "53.385980", "street": {"id": 1712884, "name": "On or near Toyne Street"}, "longitude": "-1.506832"}, "context": "", "outcome_status": null, "persistent_id": "", "id": 132522300, "location_subtype": "", "month": "2025-11"}, {"category": "anti-social-behaviour", "location_type": "Force", "location": {"latitude": "53.368971", "street": {"id": 1712896, "name": "On or near Rossington Road"}, "longitude": "-1.504188"}, "context": "", "outcome_status": null, "persistent_id": "", "id": 132522301, "location_subtype": "", "month": "2025-11"}, {"category": "anti-social-behaviour", "location_type": "Force", "location": {"latitude": "53.406961", "street": {"id": 1713464, "name": "On or near Broughton Road"}, "longitude": "-1.498587"}, "context": "", "outcome_status": null, "persistent_id": "", "id": 132522302, "location_subtype": "", "month": "2025-11"}, {"category": "anti-social-behaviour", "location_type": "Force", "location": {"latitude": "53.373941", "street": {"id": 1711306, "name": "On or near Westminster Avenue"}, "longitude": "-1.551793"}, "context": "", "outcome_status": null, "persistent_id": "", "id": 132528678, "location_subtype": "", "month": "2025-11"}, {"category": "anti-social-behaviour", "location_type": "Force", "location": {"latitude": "53.375285", "street": {"id": 1715569, "name": "On or near Hallam Lane"}, "longitude": "-1.471482"}, "context": "", "outcome_status": null, "persistent_id": "", "id": 132528694, "location_subtype": "", "month": "2025-11"}, {"category": "anti-social-behaviour", "location_type": "Force", "location": {"latitude": "53.367218", "street": {"id": 1722645, "name": "On or near Aughton Road"}, "longitude": "-1.322951"}, "context": "", "outcome_status": null, "persistent_id": "", "id": 132528717, "location_subtype": "", "month": "2025-11"}, {"category": "anti-social-behaviour", "location_type": "Force", "location": {"latitude": "53.415108", "street": {"id": 1713281, "name": "On or near Petrol Station"}, "longitude": "-1.501621"}, "context": "", "outcome_status": null, "persistent_id": "", "id": 132522303, "location_subtype": "", "month": "2025-11"}, {"category": "anti-social-behaviour", "location_type": "Force", "location": {"latitude": "53.404464", "street": {"id": 1713558, "name": "On or near Owlerton Green"}, "longitude": "-1.497022"}, "context": "", "outcome_status": null, "persistent_id": "", "id": 132522304, "location_subtype": "", "month": "2025-11"}, {"category": "anti-social-behaviour", "location_type": "Force", "location": {"latitude": "53.348665", "street": {"id": 1719412, "name": "On or near Heathfield Road"}, "longitude": "-1.401990"}, "context": "", "outcome_status": null, "persistent_id": "", "id": 132527409, "location_subtype": "", "month": "2025-11"}, {"category": "anti-social-behaviour", "location_type": "Force", "location": {"latitude": "53.394992", "street": {"id": 1714033, "name": "On or near Ash Street"}, "longitude": "-1.488848"}, "context": "", "outcome_status": null, "persistent_id": "", "id": 132522305, "location_subtype": "", "month": "2025-11"}, {"category": "anti-social-behaviour", "location_type": "Force", "location": {"latitude": "53.315601", "street": {"id": 1712032, "name": "On or near Laverdene Drive"}, "longitude": "-1.527652"}, "context": "", "outcome_status": null, "persistent_id": "", "id": 132529143, "location_subtype": "", "month": "2025-11"}, {"category": "anti-social-behaviour", "location_type": "Force", "location": {"latitude": "53.366575", "street": {"id": 1718026, "name": "On or near Scotia Drive"}, "longitude": "-1.432381"}, "context": "", "outcome_status": null, "persistent_id": "", "id": 132529164, "location_subtype": "", "month": "2025-11"}, {"category": "anti-social-behaviour", "location_type": "Force", "location": {"latitude": "53.428108", "street": {"id": 1714149, "name": "On or near Supermarket"}, "longitude": "-1.487202"}, "context": "", "outcome_status": null, "persistent_id": "", "id": 132522306, "location_subtype": "", "month": "2025-11"}, {"category": "anti-social-behaviour", "location_type": "Force", "location": {"latitude": "53.380967", "street": {"id": 1714044, "name": "On or near Western Bank"}, "longitude": "-1.490339"}, "context": "", "outcome_status": null, "persistent_id": "", "id": 132529622, "location_subtype": "", "month": "2025-11"}, {"category": "anti-social-behaviour", "location_type": "Force", "location": {"latitude": "53.428108", "street": {"id": 1714149, "name": "On or near Supermarket"}, "longitude": "-1.487202"}, "context": "", "outcome_status": null, "persistent_id": "", "id": 132522307, "location_subtype": "", "month": "2025-11"}, {"category": "anti-social-behaviour", "location_type": "Force", "location": {"latitude": "53.394665", "street": {"id": 1714151, "name": "On or near Wood Street"}, "longitude": "-1.488175"}, "context": "", "outcome_status": null, "persistent_id": "", "id": 132522308, "location_subtype": "", "month": "2025-11"}, {"category": "anti-social-behaviour", "location_type": "Force", "location": {"latitude": "53.388439", "street": {"id": 1714257, "name": "On or near Burlington Street"}, "longitude": "-1.486836"}, "context": "", "outcome_status": null, "persistent_id": "", "id": 132522309, "location_subtype": "", "month": "2025-11"}, {"category": "anti-social-behaviour", "location_type": "Force", "location": {"latitude": "53.407385", "street": {"id": 1717508, "name": "On or near Petrol Station"}, "longitude": "-1.442808"}, "context": "", "outcome_status": null, "persistent_id": "", "id": 132530075, "location_subtype": "", "month": "2025-11"}, {"category": "anti-social-behaviour", "location_type": "Force", "location": {"latitude": "53.390949", "street": {"id": 1714362, "name": "On or near Philadelphia Drive"}, "longitude": "-1.485212"}, "context": "", "outcome_status": null, "persistent_id": "", "id": 132522310, "location_subtype": "", "month": "2025-11"}, {"category": "anti-social-behaviour", "location_type": "Force", "location": {"latitude": "53.361622", "street": {"id": 1714574, "name": "On or near Alcester Road"}, "longitude": "-1.481854"}, "context": "", "outcome_status": null, "persistent_id": "", "id": 132522313, "location_subtype": "", "month": "2025-11"}, {"category": "anti-social-behaviour", "location_type": "Force", "location": {"latitude": "53.343854", "street": {"id": 1719713, "name": "On or near Weakland Way"}, "longitude": "-1.390972"}, "context": "", "outcome_status": null, "persistent_id": "", "id": 132521848, "location_subtype": "", "month": "2025-11"}, {"category": "anti-social-behaviour", "location_type": "Force", "location": {"latitude": "53.355796", "street": {"id": 1719889, "name": "On or near Coisley Road"}, "longitude": "-1.384807"}, "context": "", "outcome_status": null, "persistent_id": "", "id": 132521849, "location_subtype": "", "month": "2025-11"}, {"category": "anti-social-behaviour", "location_type": "Force", "location": {"latitude": "53.367681", "street": {"id": 1719973, "name": "On or near Richworth Road"}, "longitude": "-1.385297"}, "context": "", "outcome_status": null, "persistent_id": "", "id": 132521850, "location_subtype": "", "month": "2025-11"}, {"category": "anti-social-behaviour", "location_type": "Force", "location": {"latitude": "53.431111", "street": {"id": 1720584, "name": "On or near Princes Street"}, "longitude": "-1.370686"}, "context": "", "outcome_status": null, "persistent_id": "", "id": 132521852, "location_subtype": "", "month": "2025-11"}, {"category": "anti-social-behaviour", "location_type": "Force", "location": {"latitude": "53.382689", "street": {"id": 1720683, "name": "On or near Highfield Lane"}, "longitude": "-1.369100"}, "context": "", "outcome_status": null, "persistent_id": "", "id": 132521853, "location_subtype": "", "month": "2025-11"}, {"category": "anti-social-behaviour", "location_type": "Force", "location": {"latitude": "53.432816", "street": {"id": 1720815, "name": "On or near Thornhill Edge"}, "longitude": "-1.366778"}, "context": "", "outcome_status": null, "persistent_id": "", "id": 132521854, "location_subtype": "", "month": "2025-11"}, {"category": "anti-social-behaviour", "location_type": "Force", "location": {"latitude": "53.404112", "street": {"id": 1720843, "name": "On or near Field View Court"}, "longitude": "-1.366211"}, "context": "", "outcome_status": null, "persistent_id": "", "id": 132521855, "location_subtype": "", "month": "2025-11"}, {"category": "anti-social-behaviour", "location_type": "Force", "location": {"latitude": "53.439484", "street": {"id": 1719409, "name": "On or near Supermarket"}, "longitude": "-1.400254"}, "context": "", "outcome_status": null, "persistent_id": "", "id": 132527410, "location_subtype": "", "month": "2025-11"}, {"category": "anti-social-behaviour", "location_type": "Force", "location": {"latitude": "53.426105", "street": {"id": 1713341, "name": "On or near Fox Hill Road"}, "longitude": "-1.500273"}, "context": "", "outcome_status": null, "persistent_id": "", "id": 132521805, "location_subtype": "", "month": "2025-11"}, {"category": "anti-social-behaviour", "location_type": "Force", "location": {"latitude": "53.358563", "street": {"id": 1720832, "name": "On or near Market Street"}, "longitude": "-1.367278"}, "context": "", "outcome_status": null, "persistent_id": "", "id": 132521856, "location_subtype": "", "month": "2025-11"}, {"category": "anti-social-behaviour", "location_type": "Force", "location": {"latitude": "53.411038", "street": {"id": 1719505, "name": "On or near Ingfield Avenue"}, "longitude": "-1.396662"}, "context": "", "outcome_status": null, "persistent_id": "", "id": 132527411, "location_subtype": "", "month": "2025-11"}, {"category": "anti-social-behaviour", "location_type": "Force", "location": {"latitude": "53.348430", "street": {"id": 1720819, "name": "On or near Rainbow Crescent"}, "longitude": "-1.366827"}, "context": "", "outcome_status": null, "persistent_id": "", "id": 132521857, "location_subtype": "", "month": "2025-11"}, {"category": "anti-social-behaviour", "location_type": "Force", "location": {"latitude": "53.387568", "street": {"id": 1720891, "name": "On or near Highfield Lane"}, "longitude": "-1.365419"}, "context": "", "outcome_status": null, "persistent_id": "", "id": 132521858, "location_subtype": "", "month": "2025-11"}, {"category": "anti-social-behaviour", "location_type": "Force", "location": {"latitude": "53.431195", "street": {"id": 1721189, "name": "On or near Corporation Street"}, "longitude": "-1.357892"}, "context": "", "outcome_status": null, "persistent_id": "", "id": 132521859, "location_subtype": "", "month": "2025-11"}, {"category": "anti-social-behaviour", "location_type": "Force", "location": {"latitude": "53.384443", "street": {"id": 1715993, "name": "On or near Bank Street"}, "longitude": "-1.467204"}, "context": "", "outcome_status": null, "persistent_id": "", "id": 132531341, "location_subtype": "", "month": "2025-11"}, {"category": "anti-social-behaviour", "location_type": "Force", "location": {"latitude": "53.438853", "street": {"id": 1722235, "name": "On or near Haldane Road"}, "longitude": "-1.334819"}, "context": "", "outcome_status": null, "persistent_id": "", "id": 132531362, "location_subtype": "", "month": "2025-11"}, {"category": "anti-social-behaviour", "location_type": "Force", "location": {"latitude": "53.360511", "street": {"id": 1721023, "name": "On or near Station Road"}, "longitude": "-1.361734"}, "context": "", "outcome_status": null, "persistent_id": "", "id": 132521860, "location_subtype": "", "month": "2025-11"}, {"category": "anti-social-behaviour", "location_type": "Force", "location": {"latitude": "53.421869", "street": {"id": 1721062, "name": "On or near Robinson Street"}, "longitude": "-1.358694"}, "context": "", "outcome_status": null, "persistent_id": "", "id": 132521861, "location_subtype": "", "month": "2025-11"}, {"category": "anti-social-behaviour", "location_type": "Force", "location": {"latitude": "53.389657", "street": {"id": 1718779, "name": "On or near Malvern Road"}, "longitude": "-1.415369"}, "context": "", "outcome_status": null, "persistent_id": "", "id": 132526963, "location_subtype": "", "month": "2025-11"}, {"category": "anti-social-behaviour", "location_type": "Force", "location": {"latitude": "53.344804", "street": {"id": 1719586, "name": "On or near Birley Moor Close"}, "longitude": "-1.395660"}, "context": "", "outcome_status": null, "persistent_id": "", "id": 132527412, "location_subtype": "", "month": "2025-11"}, {"category": "anti-social-behaviour", "location_type": "Force", "location": {"latitude": "53.363903", "street": {"id": 1717982, "name": "On or near A6135"}, "longitude": "-1.433664"}, "context": "", "outcome_status": null, "persistent_id": "", "id": 132526962, "location_subtype": "", "month": "2025-11"}, {"category": "anti-social-behaviour", "location_type": "Force", "location": {"latitude": "53.418961", "street": {"id": 1717953, "name": "On or near Tenterden Road"}, "longitude": "-1.434182"}, "context": "", "outcome_status": null, "persistent_id": "", "id": 132526961, "location_subtype": "", "month": "2025-11"}, {"category": "anti-social-behaviour", "location_type": "Force", "location": {"latitude": "53.360904", "street": {"id": 1722503, "name": "On or near Wishing Well Green"}, "longitude": "-1.326973"}, "context": "", "outcome_status": null, "persistent_id": "", "id": 132522361, "location_subtype": "", "month": "2025-11"}, {"category": "anti-social-behaviour", "location_type": "Force", "location": {"latitude": "53.439854", "street": {"id": 1722499, "name": "On or near Willow Beck"}, "longitude": "-1.327337"}, "context": "", "outcome_status": null, "persistent_id": "", "id": 132526521, "location_subtype": "", "month": "2025-11"}, {"category": "anti-social-behaviour", "location_type": "Force", "location": {"latitude": "53.371235", "street": {"id": 1711020, "name": "On or near Parking Area"}, "longitude": "-1.578694"}, "context": "", "outcome_status": null, "persistent_id": "", "id": 132522801, "location_subtype": "", "month": "2025-11"}, {"category": "anti-social-behaviour", "location_type": "Force", "location": {"latitude": "53.346169", "street": {"id": 1721265, "name": "On or near Sevenairs Road"}, "longitude": "-1.350908"}, "context": "", "outcome_status": null, "persistent_id": "", "id": 132527416, "location_subtype": "", "month": "2025-11"}, {"category": "anti-social-behaviour", "location_type": "Force", "location": {"latitude": "53.367155", "street": {"id": 1712669, "name": "On or near Stainton Road"}, "longitude": "-1.510671"}, "context": "", "outcome_status": null, "persistent_id": "", "id": 132531762, "location_subtype": "", "month": "2025-11"}, {"category": "anti-social-behaviour", "location_type": "Force", "location": {"latitude": "53.468161", "street": {"id": 1713958, "name": "On or near Dikelands Mount"}, "longitude": "-1.491359"}, "context": "", "outcome_status": null, "persistent_id": "", "id": 132521807, "location_subtype": "", "month": "2025-11"}, {"category": "anti-social-behaviour", "location_type": "Force", "location": {"latitude": "53.391589", "street": {"id": 1716562, "name": "On or near Spital Lane"}, "longitude": "-1.459191"}, "context": "", "outcome_status": null, "persistent_id": "", "id": 132527396, "location_subtype": "", "month": "2025-11"}, {"category": "anti-social-behaviour", "location_type": "Force", "location": {"latitude": "53.476086", "street": {"id": 1711091, "name": "On or near Sports/recreation Area"}, "longitude": "-1.571839"}, "context": "", "outcome_status": null, "persistent_id": "", "id": 132522802, "location_subtype": "", "month": "2025-11"}, {"category": "anti-social-behaviour", "location_type": "Force", "location": {"latitude": "53.385339", "street": {"id": 1712824, "name": "On or near Supermarket"}, "longitude": "-1.507955"}, "context": "", "outcome_status": null, "persistent_id": "", "id": 132522803, "location_subtype": "", "month": "2025-11"}, {"category": "anti-social-behaviour", "location_type": "Force", "location": {"latitude": "53.407733", "street": {"id": 1713019, "name": "On or near Keyworth Road"}, "longitude": "-1.504851"}, "context": "", "outcome_status": null, "persistent_id": "", "id": 132522804, "location_subtype": "", "month": "2025-11"}, {"category": "anti-social-behaviour", "location_type": "Force", "location": {"latitude": "53.404284", "street": {"id": 1717492, "name": "On or near Margate Street"}, "longitude": "-1.444184"}, "context": "", "outcome_status": null, "persistent_id": "", "id": 132532152, "location_subtype": "", "month": "2025-11"}, {"category": "anti-social-behaviour", "location_type": "Force", "location": {"latitude": "53.471041", "street": {"id": 1713566, "name": "On or near Cottam Road"}, "longitude": "-1.496507"}, "context": "", "outcome_status": null, "persistent_id": "", "id": 132522805, "location_subtype": "", "month": "2025-11"}, {"category": "anti-social-behaviour", "location_type": "Force", "location": {"latitude": "53.390353", "street": {"id": 1714263, "name": "On or near Straw Lane"}, "longitude": "-1.486558"}, "context": "", "outcome_status": null, "persistent_id": "", "id": 132522806, "location_subtype": "", "month": "2025-11"}, {"category": "anti-social-behaviour", "location_type": "Force", "location": {"latitude": "53.380631", "street": {"id": 1714174, "name": "On or near Further/higher Educational Building"}, "longitude": "-1.487396"}, "context": "", "outcome_status": null, "persistent_id": "", "id": 132521811, "location_subtype": "", "month": "2025-11"}, {"category": "anti-social-behaviour", "location_type": "Force", "location": {"latitude": "53.389062", "street": {"id": 1714311, "name": "On or near Adelphi Street"}, "longitude": "-1.485325"}, "context": "", "outcome_status": null, "persistent_id": "", "id": 132522807, "location_subtype": "", "month": "2025-11"}, {"category": "anti-social-behaviour", "location_type": "Force", "location": {"latitude": "53.366913", "street": {"id": 1714664, "name": "On or near Smeaton Street"}, "longitude": "-1.480888"}, "context": "", "outcome_status": null, "persistent_id": "", "id": 132522810, "location_subtype": "", "month": "2025-11"}, {"category": "anti-social-behaviour", "location_type": "Force", "location": {"latitude": "53.381470", "street": {"id": 1714999, "name": "On or near Portobello Street"}, "longitude": "-1.477840"}, "context": "", "outcome_status": null, "persistent_id": "", "id": 132522813, "location_subtype": "", "month": "2025-11"}, {"category": "anti-social-behaviour", "location_type": "Force", "location": {"latitude": "53.362942", "street": {"id": 1714989, "name": "On or near Chippinghouse Road"}, "longitude": "-1.477375"}, "context": "", "outcome_status": null, "persistent_id": "", "id": 132522814, "location_subtype": "", "month": "2025-11"}, {"category": "anti-social-behaviour", "location_type": "Force", "location": {"latitude": "53.361311", "street": {"id": 1717320, "name": "On or near Framlingham Place"}, "longitude": "-1.446441"}, "context": "", "outcome_status": null, "persistent_id": "", "id": 132522826, "location_subtype": "", "month": "2025-11"}, {"category": "anti-social-behaviour", "location_type": "Force", "location": {"latitude": "53.370914", "street": {"id": 1712094, "name": "On or near Gladstone Road"}, "longitude": "-1.526740"}, "context": "", "outcome_status": null, "persistent_id": "", "id": 132526933, "location_subtype": "", "month": "2025-11"}, {"category": "anti-social-behaviour", "location_type": "Force", "location": {"latitude": "53.408971", "street": {"id": 1717500, "name": "On or near Robey Street"}, "longitude": "-1.444875"}, "context": "", "outcome_status": null, "persistent_id": "", "id": 132522827, "location_subtype": "", "month": "2025-11"}, {"category": "anti-social-behaviour", "location_type": "Force", "location": {"latitude": "53.409027", "street": {"id": 1717507, "name": "On or near Hinde Street"}, "longitude": "-1.443520"}, "context": "", "outcome_status": null, "persistent_id": "", "id": 132522828, "location_subtype": "", "month": "2025-11"}, {"category": "anti-social-behaviour", "location_type": "Force", "location": {"latitude": "53.392656", "street": {"id": 1717961, "name": "On or near Nightclub"}, "longitude": "-1.434223"}, "context": "", "outcome_status": null, "persistent_id": "", "id": 132522831, "location_subtype": "", "month": "2025-11"}, {"category": "anti-social-behaviour", "location_type": "Force", "location": {"latitude": "53.399992", "street": {"id": 1718032, "name": "On or near Don Road"}, "longitude": "-1.431756"}, "context": "", "outcome_status": null, "persistent_id": "", "id": 132522832, "location_subtype": "", "month": "2025-11"}, {"category": "anti-social-behaviour", "location_type": "Force", "location": {"latitude": "53.412199", "street": {"id": 1718274, "name": "On or near Eben Street"}, "longitude": "-1.422402"}, "context": "", "outcome_status": null, "persistent_id": "", "id": 132522833, "location_subtype": "", "month": "2025-11"}, {"category": "anti-social-behaviour", "location_type": "Force", "location": {"latitude": "53.420442", "street": {"id": 1718604, "name": "On or near Vauxhall Road"}, "longitude": "-1.418724"}, "context": "", "outcome_status": null, "persistent_id": "", "id": 132522834, "location_subtype": "", "month": "2025-11"}, {"category": "anti-social-behaviour", "location_type": "Force", "location": {"latitude": "53.373102", "street": {"id": 1718687, "name": "On or near Prince Of Wales Road"}, "longitude": "-1.417715"}, "context": "", "outcome_status": null, "persistent_id": "", "id": 132522835, "location_subtype": "", "month": "2025-11"}, {"category": "anti-social-behaviour", "location_type": "Force", "location": {"latitude": "53.374266", "street": {"id": 1718777, "name": "On or near Sheffield Parkway Services"}, "longitude": "-1.414888"}, "context": "", "outcome_status": null, "persistent_id": "", "id": 132522836, "location_subtype": "", "month": "2025-11"}, {"category": "anti-social-behaviour", "location_type": "Force", "location": {"latitude": "53.350584", "street": {"id": 1719414, "name": "On or near Silkstone Drive"}, "longitude": "-1.401136"}, "context": "", "outcome_status": null, "persistent_id": "", "id": 132522838, "location_subtype": "", "month": "2025-11"}, {"category": "anti-social-behaviour", "location_type": "Force", "location": {"latitude": "53.362304", "street": {"id": 1719519, "name": "On or near Stradbroke Crescent"}, "longitude": "-1.397155"}, "context": "", "outcome_status": null, "persistent_id": "", "id": 132522839, "location_subtype": "", "month": "2025-11"}, {"category": "anti-social-behaviour", "location_type": "Force", "location": {"latitude": "53.331076", "street": {"id": 1720445, "name": "On or near Rose Hill Close"}, "longitude": "-1.375973"}, "context": "", "outcome_status": null, "persistent_id": "", "id": 132522841, "location_subtype": "", "month": "2025-11"}, {"category": "anti-social-behaviour", "location_type": "Force", "location": {"latitude": "53.344307", "street": {"id": 1721226, "name": "On or near Shopping Area"}, "longitude": "-1.357183"}, "context": "", "outcome_status": null, "persistent_id": "", "id": 132522844, "location_subtype": "", "month": "2025-11"}, {"category": "anti-social-behaviour", "location_type": "Force", "location": {"latitude": "53.375550", "street": {"id": 1716489, "name": "On or near Barnes Court"}, "longitude": "-1.460326"}, "context": "", "outcome_status": null, "persistent_id": "", "id": 132527394, "location_subtype": "", "month": "2025-11"}, {"category": "anti-social-behaviour", "location_type": "Force", "location": {"latitude": "53.432472", "street": {"id": 1721615, "name": "On or near Nelson Street"}, "longitude": "-1.349594"}, "context": "", "outcome_status": null, "persistent_id": "", "id": 132522846, "location_subtype": "", "month": "2025-11"}, {"category": "anti-social-behaviour", "location_type": "Force", "location": {"latitude": "53.348386", "street": {"id": 1721650, "name": "On or near Springwell Avenue"}, "longitude": "-1.348651"}, "context": "", "outcome_status": null, "persistent_id": "", "id": 132522848, "location_subtype": "", "month": "2025-11"}, {"category": "anti-social-behaviour", "location_type": "Force", "location": {"latitude": "53.382289", "street": {"id": 1716088, "name": "On or near Parking Area"}, "longitude": "-1.465818"}, "context": "", "outcome_status": null, "persistent_id": "", "id": 132527393, "location_subtype": "", "month": "2025-11"}, {"category": "anti-social-behaviour", "location_type": "Force", "location": {"latitude": "53.450380", "street": {"id": 1721946, "name": "On or near Great Eastern Way"}, "longitude": "-1.341822"}, "context": "", "outcome_status": null, "persistent_id": "", "id": 132522849, "location_subtype": "", "month": "2025-11"}, {"category": "anti-social-behaviour", "location_type": "Force", "location": {"latitude": "53.322972", "street": {"id": 1721859, "name": "On or near Oxclose Park Gardens"}, "longitude": "-1.343288"}, "context": "", "outcome_status": null, "persistent_id": "", "id": 132522850, "location_subtype": "", "month": "2025-11"}, {"category": "anti-social-behaviour", "location_type": "Force", "location": {"latitude": "53.433903", "street": {"id": 1722184, "name": "On or near Oxford Street"}, "longitude": "-1.336823"}, "context": "", "outcome_status": null, "persistent_id": "", "id": 132526520, "location_subtype": "", "month": "2025-11"}, {"category": "anti-social-behaviour", "location_type": "Force", "location": {"latitude": "53.383711", "street": {"id": 1716241, "name": "On or near Haymarket"}, "longitude": "-1.464252"}, "context": "", "outcome_status": null, "persistent_id": "", "id": 132530935, "location_subtype": "", "month": "2025-11"}, {"category": "anti-social-behaviour", "location_type": "Force", "location": {"latitude": "53.340476", "street": {"id": 1717346, "name": "On or near Constable Road"}, "longitude": "-1.446711"}, "context": "", "outcome_status": null, "persistent_id": "", "id": 132530938, "location_subtype": "", "month": "2025-11"}, {"category": "anti-social-behaviour", "location_type": "Force", "location": {"latitude": "53.425493", "street": {"id": 1717608, "name": "On or near Oaks Lane"}, "longitude": "-1.441394"}, "context": "", "outcome_status": null, "persistent_id": "", "id": 132530939, "location_subtype": "", "month": "2025-11"}, {"category": "anti-social-behaviour", "location_type": "Force", "location": {"latitude": "53.410763", "street": {"id": 1717617, "name": "On or near Wensley Croft"}, "longitude": "-1.441768"}, "context": "", "outcome_status": null, "persistent_id": "", "id": 132530940, "location_subtype": "", "month": "2025-11"}, {"category": "anti-social-behaviour", "location_type": "Force", "location": {"latitude": "53.422097", "street": {"id": 1717556, "name": "On or near Sports/recreation Area"}, "longitude": "-1.441369"}, "context": "", "outcome_status": null, "persistent_id": "", "id": 132530941, "location_subtype": "", "month": "2025-11"}, {"category": "anti-social-behaviour", "location_type": "Force", "location": {"latitude": "53.366575", "street": {"id": 1718026, "name": "On or near Scotia Drive"}, "longitude": "-1.432381"}, "context": "", "outcome_status": null, "persistent_id": "", "id": 132530943, "location_subtype": "", "month": "2025-11"}, {"category": "anti-social-behaviour", "location_type": "Force", "location": {"latitude": "53.345141", "street": {"id": 1718297, "name": "On or near Supermarket"}, "longitude": "-1.425833"}, "context": "", "outcome_status": null, "persistent_id": "", "id": 132530944, "location_subtype": "", "month": "2025-11"}, {"category": "anti-social-behaviour", "location_type": "Force", "location": {"latitude": "53.369938", "street": {"id": 1718689, "name": "On or near Vikinglea Glade"}, "longitude": "-1.417698"}, "context": "", "outcome_status": null, "persistent_id": "", "id": 132530945, "location_subtype": "", "month": "2025-11"}, {"category": "anti-social-behaviour", "location_type": "Force", "location": {"latitude": "53.385432", "street": {"id": 1719181, "name": "On or near Waverley Road"}, "longitude": "-1.407955"}, "context": "", "outcome_status": null, "persistent_id": "", "id": 132530949, "location_subtype": "", "month": "2025-11"}, {"category": "anti-social-behaviour", "location_type": "Force", "location": {"latitude": "53.382295", "street": {"id": 1716136, "name": "On or near Esperanto Place"}, "longitude": "-1.465186"}, "context": "", "outcome_status": null, "persistent_id": "", "id": 132521827, "location_subtype": "", "month": "2025-11"}, {"category": "anti-social-behaviour", "location_type": "Force", "location": {"latitude": "53.412164", "street": {"id": 1719576, "name": "On or near Harrowden Road"}, "longitude": "-1.395413"}, "context": "", "outcome_status": null, "persistent_id": "", "id": 132530950, "location_subtype": "", "month": "2025-11"}, {"category": "anti-social-behaviour", "location_type": "Force", "location": {"latitude": "53.456662", "street": {"id": 1720285, "name": "On or near Grayson Road"}, "longitude": "-1.378607"}, "context": "", "outcome_status": null, "persistent_id": "", "id": 132530952, "location_subtype": "", "month": "2025-11"}, {"category": "anti-social-behaviour", "location_type": "Force", "location": {"latitude": "53.431195", "street": {"id": 1721189, "name": "On or near Corporation Street"}, "longitude": "-1.357892"}, "context": "", "outcome_status": null, "persistent_id": "", "id": 132530954, "location_subtype": "", "month": "2025-11"}, {"category": "anti-social-behaviour", "location_type": "Force", "location": {"latitude": "53.432013", "street": {"id": 1721560, "name": "On or near Walker Lane"}, "longitude": "-1.349616"}, "context": "", "outcome_status": null, "persistent_id": "", "id": 132530955, "location_subtype": "", "month": "2025-11"}, {"category": "anti-social-behaviour", "location_type": "Force", "location": {"latitude": "53.429232", "street": {"id": 1721762, "name": "On or near Parkfield Road"}, "longitude": "-1.344015"}, "context": "", "outcome_status": null, "persistent_id": "", "id": 132530956, "location_subtype": "", "month": "2025-11"}, {"category": "anti-social-behaviour", "location_type": "Force", "location": {"latitude": "53.314656", "street": {"id": 2214548, "name": "On or near Bowshaw"}, "longitude": "-1.475623"}, "context": "", "outcome_status": null, "persistent_id": "", "id": 132150757, "location_subtype": "", "month": "2025-11"}, {"category": "anti-social-behaviour", "location_type": "Force", "location": {"latitude": "53.420084", "street": {"id": 1721129, "name": "On or near Jubilee Street"}, "longitude": "-1.359263"}, "context": "", "outcome_status": null, "persistent_id": "", "id": 132526518, "location_subtype": "", "month": "2025-11"}, {"category": "anti-social-behaviour", "location_type": "Force", "location": {"latitude": "53.429893", "street": {"id": 1713129, "name": "On or near Edge Well Crescent"}, "longitude": "-1.503405"}, "context": "", "outcome_status": null, "persistent_id": "", "id": 132521803, "location_subtype": "", "month": "2025-11"}, {"category": "anti-social-behaviour", "location_type": "Force", "location": {"latitude": "53.429659", "street": {"id": 1721606, "name": "On or near Summerfield"}, "longitude": "-1.349652"}, "context": "", "outcome_status": null, "persistent_id": "", "id": 132525525, "location_subtype": "", "month": "2025-11"}, {"category": "anti-social-behaviour", "location_type": "Force", "location": {"latitude": "53.452768", "street": {"id": 1720863, "name": "On or near Providence Street"}, "longitude": "-1.366316"}, "context": "", "outcome_status": null, "persistent_id": "", "id": 132526517, "location_subtype": "", "month": "2025-11"}, {"category": "anti-social-behaviour", "location_type": "Force", "location": {"latitude": "53.418376", "street": {"id": 1717071, "name": "On or near Downham Road"}, "longitude": "-1.451463"}, "context": "", "outcome_status": null, "persistent_id": "", "id": 132527399, "location_subtype": "", "month": "2025-11"}, {"category": "anti-social-behaviour", "location_type": "Force", "location": {"latitude": "53.359340", "street": {"id": 1720502, "name": "On or near Supermarket"}, "longitude": "-1.373467"}, "context": "", "outcome_status": null, "persistent_id": "", "id": 132526516, "location_subtype": "", "month": "2025-11"}, {"category": "anti-social-behaviour", "location_type": "Force", "location": {"latitude": "53.415299", "street": {"id": 1713976, "name": "On or near Lamb Road"}, "longitude": "-1.491403"}, "context": "", "outcome_status": null, "persistent_id": "", "id": 132526496, "location_subtype": "", "month": "2025-11"}, {"category": "anti-social-behaviour", "location_type": "Force", "location": {"latitude": "53.421225", "street": {"id": 1710541, "name": "On or near Hall Lane"}, "longitude": "-1.643627"}, "context": "", "outcome_status": null, "persistent_id": "", "id": 132526490, "location_subtype": "", "month": "2025-11"}, {"category": "anti-social-behaviour", "location_type": "Force", "location": {"latitude": "53.390218", "street": {"id": 1719083, "name": "On or near Greenland View"}, "longitude": "-1.410550"}, "context": "", "outcome_status": null, "persistent_id": "", "id": 132526511, "location_subtype": "", "month": "2025-11"}, {"category": "anti-social-behaviour", "location_type": "Force", "location": {"latitude": "53.399992", "street": {"id": 1718032, "name": "On or near Don Road"}, "longitude": "-1.431756"}, "context": "", "outcome_status": null, "persistent_id": "", "id": 132526510, "location_subtype": "", "month": "2025-11"}, {"category": "anti-social-behaviour", "location_type": "Force", "location": {"latitude": "53.314656", "street": {"id": 2214548, "name": "On or near Bowshaw"}, "longitude": "-1.475623"}, "context": "", "outcome_status": null, "persistent_id": "", "id": 132150853, "location_subtype": "", "month": "2025-11"}, {"category": "anti-social-behaviour", "location_type": "Force", "location": {"latitude": "53.367628", "street": {"id": 1721204, "name": "On or near Rotherwood Avenue"}, "longitude": "-1.358096"}, "context": "", "outcome_status": null, "persistent_id": "", "id": 132534873, "location_subtype": "", "month": "2025-11"}, {"category": "anti-social-behaviour", "location_type": "Force", "location": {"latitude": "53.322803", "street": {"id": 1720753, "name": "On or near Marsh Close"}, "longitude": "-1.368587"}, "context": "", "outcome_status": null, "persistent_id": "", "id": 132534872, "location_subtype": "", "month": "2025-11"}, {"category": "anti-social-behaviour", "location_type": "Force", "location": {"latitude": "53.389172", "street": {"id": 1719110, "name": "On or near Petrol Station"}, "longitude": "-1.409963"}, "context": "", "outcome_status": null, "persistent_id": "", "id": 132534870, "location_subtype": "", "month": "2025-11"}, {"category": "anti-social-behaviour", "location_type": "Force", "location": {"latitude": "53.430904", "street": {"id": 1716811, "name": "On or near Hartley Brook Avenue"}, "longitude": "-1.452927"}, "context": "", "outcome_status": null, "persistent_id": "", "id": 132534868, "location_subtype": "", "month": "2025-11"}, {"category": "anti-social-behaviour", "location_type": "Force", "location": {"latitude": "53.382289", "street": {"id": 1716088, "name": "On or near Parking Area"}, "longitude": "-1.465818"}, "context": "", "outcome_status": null, "persistent_id": "", "id": 132534863, "location_subtype": "", "month": "2025-11"}, {"category": "anti-social-behaviour", "location_type": "Force", "location": {"latitude": "53.410431", "street": {"id": 1715590, "name": "On or near Sports/recreation Area"}, "longitude": "-1.471433"}, "context": "", "outcome_status": null, "persistent_id": "", "id": 132534862, "location_subtype": "", "month": "2025-11"}, {"category": "anti-social-behaviour", "location_type": "Force", "location": {"latitude": "53.461279", "street": {"id": 1715357, "name": "On or near Greenhead Gardens"}, "longitude": "-1.473503"}, "context": "", "outcome_status": null, "persistent_id": "", "id": 132534861, "location_subtype": "", "month": "2025-11"}, {"category": "anti-social-behaviour", "location_type": "Force", "location": {"latitude": "53.389062", "street": {"id": 1714311, "name": "On or near Adelphi Street"}, "longitude": "-1.485325"}, "context": "", "outcome_status": null, "persistent_id": "", "id": 132534857, "location_subtype": "", "month": "2025-11"}, {"category": "anti-social-behaviour", "location_type": "Force", "location": {"latitude": "53.424987", "street": {"id": 1714283, "name": "On or near Lytton Crescent"}, "longitude": "-1.484726"}, "context": "", "outcome_status": null, "persistent_id": "", "id": 132534856, "location_subtype": "", "month": "2025-11"}, {"category": "anti-social-behaviour", "location_type": "Force", "location": {"latitude": "53.437556", "street": {"id": 1713638, "name": "On or near Greno Crescent"}, "longitude": "-1.495819"}, "context": "", "outcome_status": null, "persistent_id": "", "id": 132534853, "location_subtype": "", "month": "2025-11"}, {"category": "anti-social-behaviour", "location_type": "Force", "location": {"latitude": "53.367866", "street": {"id": 1723006, "name": "On or near Cantilupe Crescent"}, "longitude": "-1.313532"}, "context": "", "outcome_status": null, "persistent_id": "", "id": 132526033, "location_subtype": "", "month": "2025-11"}, {"category": "anti-social-behaviour", "location_type": "Force", "location": {"latitude": "53.375140", "street": {"id": 1714516, "name": "On or near Exeter Way"}, "longitude": "-1.483554"}, "context": "", "outcome_status": null, "persistent_id": "", "id": 132521812, "location_subtype": "", "month": "2025-11"}, {"category": "anti-social-behaviour", "location_type": "Force", "location": {"latitude": "53.412994", "street": {"id": 1722698, "name": "On or near East Bawtry Road"}, "longitude": "-1.320720"}, "context": "", "outcome_status": null, "persistent_id": "", "id": 132526032, "location_subtype": "", "month": "2025-11"}, {"category": "anti-social-behaviour", "location_type": "Force", "location": {"latitude": "53.435278", "street": {"id": 1721872, "name": "On or near St Leonard's Lane"}, "longitude": "-1.341799"}, "context": "", "outcome_status": null, "persistent_id": "", "id": 132526030, "location_subtype": "", "month": "2025-11"}, {"category": "anti-social-behaviour", "location_type": "Force", "location": {"latitude": "53.339058", "street": {"id": 1721528, "name": "On or near Beckton Grove"}, "longitude": "-1.349138"}, "context": "", "outcome_status": null, "persistent_id": "", "id": 132525524, "location_subtype": "", "month": "2025-11"}, {"category": "anti-social-behaviour", "location_type": "Force", "location": {"latitude": "53.340159", "street": {"id": 1717634, "name": "On or near Raeburn Way"}, "longitude": "-1.442299"}, "context": "", "outcome_status": null, "persistent_id": "", "id": 132525505, "location_subtype": "", "month": "2025-11"}, {"category": "anti-social-behaviour", "location_type": "Force", "location": {"latitude": "53.429232", "street": {"id": 1721762, "name": "On or near Parkfield Road"}, "longitude": "-1.344015"}, "context": "", "outcome_status": null, "persistent_id": "", "id": 132526029, "location_subtype": "", "month": "2025-11"}, {"category": "anti-social-behaviour", "location_type": "Force", "location": {"latitude": "53.328436", "street": {"id": 1721643, "name": "On or near Eastcroft View"}, "longitude": "-1.347904"}, "context": "", "outcome_status": null, "persistent_id": "", "id": 132526028, "location_subtype": "", "month": "2025-11"}, {"category": "anti-social-behaviour", "location_type": "Force", "location": {"latitude": "53.366143", "street": {"id": 1721420, "name": "On or near Petrol Station"}, "longitude": "-1.353171"}, "context": "", "outcome_status": null, "persistent_id": "", "id": 132525522, "location_subtype": "", "month": "2025-11"}, {"category": "anti-social-behaviour", "location_type": "Force", "location": {"latitude": "53.380414", "street": {"id": 1716005, "name": "On or near Theatre/concert Hall"}, "longitude": "-1.466623"}, "context": "", "outcome_status": null, "persistent_id": "", "id": 132525496, "location_subtype": "", "month": "2025-11"}, {"category": "anti-social-behaviour", "location_type": "Force", "location": {"latitude": "53.433070", "street": {"id": 1721451, "name": "On or near Parking Area"}, "longitude": "-1.352099"}, "context": "", "outcome_status": null, "persistent_id": "", "id": 132525521, "location_subtype": "", "month": "2025-11"}, {"category": "anti-social-behaviour", "location_type": "Force", "location": {"latitude": "53.322644", "street": {"id": 1721185, "name": "On or near Ralston Place"}, "longitude": "-1.357270"}, "context": "", "outcome_status": null, "persistent_id": "", "id": 132525520, "location_subtype": "", "month": "2025-11"}, {"category": "anti-social-behaviour", "location_type": "Force", "location": {"latitude": "53.431111", "street": {"id": 1720584, "name": "On or near Princes Street"}, "longitude": "-1.370686"}, "context": "", "outcome_status": null, "persistent_id": "", "id": 132533538, "location_subtype": "", "month": "2025-11"}, {"category": "anti-social-behaviour", "location_type": "Force", "location": {"latitude": "53.371949", "street": {"id": 1719871, "name": "On or near Hendon Street"}, "longitude": "-1.386679"}, "context": "", "outcome_status": null, "persistent_id": "", "id": 132533537, "location_subtype": "", "month": "2025-11"}, {"category": "anti-social-behaviour", "location_type": "Force", "location": {"latitude": "53.429436", "street": {"id": 1721253, "name": "On or near Ship Hill"}, "longitude": "-1.356699"}, "context": "", "outcome_status": null, "persistent_id": "", "id": 132525519, "location_subtype": "", "month": "2025-11"}, {"category": "anti-social-behaviour", "location_type": "Force", "location": {"latitude": "53.375867", "street": {"id": 1719657, "name": "On or near Handsworth Road"}, "longitude": "-1.393522"}, "context": "", "outcome_status": null, "persistent_id": "", "id": 132533533, "location_subtype": "", "month": "2025-11"}, {"category": "anti-social-behaviour", "location_type": "Force", "location": {"latitude": "53.342994", "street": {"id": 1719609, "name": "On or near Newstead Avenue"}, "longitude": "-1.395100"}, "context": "", "outcome_status": null, "persistent_id": "", "id": 132533532, "location_subtype": "", "month": "2025-11"}, {"category": "anti-social-behaviour", "location_type": "Force", "location": {"latitude": "53.420552", "street": {"id": 1718521, "name": "On or near Prestwich Street"}, "longitude": "-1.421040"}, "context": "", "outcome_status": null, "persistent_id": "", "id": 132533529, "location_subtype": "", "month": "2025-11"}, {"category": "anti-social-behaviour", "location_type": "Force", "location": {"latitude": "53.431235", "street": {"id": 1717636, "name": "On or near Supermarket"}, "longitude": "-1.440852"}, "context": "", "outcome_status": null, "persistent_id": "", "id": 132533527, "location_subtype": "", "month": "2025-11"}, {"category": "anti-social-behaviour", "location_type": "Force", "location": {"latitude": "53.430222", "street": {"id": 1721217, "name": "On or near Market Place"}, "longitude": "-1.357470"}, "context": "", "outcome_status": null, "persistent_id": "", "id": 132525518, "location_subtype": "", "month": "2025-11"}, {"category": "anti-social-behaviour", "location_type": "Force", "location": {"latitude": "53.367100", "street": {"id": 1720953, "name": "On or near Coalbrook Grove"}, "longitude": "-1.360253"}, "context": "", "outcome_status": null, "persistent_id": "", "id": 132525517, "location_subtype": "", "month": "2025-11"}, {"category": "anti-social-behaviour", "location_type": "Force", "location": {"latitude": "53.355195", "street": {"id": 1714854, "name": "On or near Petrol Station"}, "longitude": "-1.479618"}, "context": "", "outcome_status": null, "persistent_id": "", "id": 132525482, "location_subtype": "", "month": "2025-11"}, {"category": "anti-social-behaviour", "location_type": "Force", "location": {"latitude": "53.415108", "street": {"id": 1713281, "name": "On or near Petrol Station"}, "longitude": "-1.501621"}, "context": "", "outcome_status": null, "persistent_id": "", "id": 132531335, "location_subtype": "", "month": "2025-11"}, {"category": "anti-social-behaviour", "location_type": "Force", "location": {"latitude": "53.403858", "street": {"id": 1713478, "name": "On or near Bradfield Road"}, "longitude": "-1.498203"}, "context": "", "outcome_status": null, "persistent_id": "", "id": 132531336, "location_subtype": "", "month": "2025-11"}, {"category": "anti-social-behaviour", "location_type": "Force", "location": {"latitude": "53.380967", "street": {"id": 1714044, "name": "On or near Western Bank"}, "longitude": "-1.490339"}, "context": "", "outcome_status": null, "persistent_id": "", "id": 132531337, "location_subtype": "", "month": "2025-11"}, {"category": "anti-social-behaviour", "location_type": "Force", "location": {"latitude": "53.365804", "street": {"id": 1714986, "name": "On or near Vincent Road"}, "longitude": "-1.478212"}, "context": "", "outcome_status": null, "persistent_id": "", "id": 132531338, "location_subtype": "", "month": "2025-11"}, {"category": "anti-social-behaviour", "location_type": "Force", "location": {"latitude": "53.368255", "street": {"id": 1715271, "name": "On or near Parking Area"}, "longitude": "-1.475326"}, "context": "", "outcome_status": null, "persistent_id": "", "id": 132531339, "location_subtype": "", "month": "2025-11"}, {"category": "anti-social-behaviour", "location_type": "Force", "location": {"latitude": "53.422099", "street": {"id": 1715343, "name": "On or near Adrian Crescent"}, "longitude": "-1.471654"}, "context": "", "outcome_status": null, "persistent_id": "", "id": 132531340, "location_subtype": "", "month": "2025-11"}, {"category": "anti-social-behaviour", "location_type": "Force", "location": {"latitude": "53.320232", "street": {"id": 1716047, "name": "On or near White Thorns Close"}, "longitude": "-1.466218"}, "context": "", "outcome_status": null, "persistent_id": "", "id": 132531342, "location_subtype": "", "month": "2025-11"}, {"category": "anti-social-behaviour", "location_type": "Force", "location": {"latitude": "53.398058", "street": {"id": 1717055, "name": "On or near Carwood Road"}, "longitude": "-1.448777"}, "context": "", "outcome_status": null, "persistent_id": "", "id": 132527400, "location_subtype": "", "month": "2025-11"}, {"category": "anti-social-behaviour", "location_type": "Force", "location": {"latitude": "53.384397", "street": {"id": 1716141, "name": "On or near Castle Green"}, "longitude": "-1.464980"}, "context": "", "outcome_status": null, "persistent_id": "", "id": 132531343, "location_subtype": "", "month": "2025-11"}, {"category": "anti-social-behaviour", "location_type": "Force", "location": {"latitude": "53.371376", "street": {"id": 1719754, "name": "On or near Ashbourne Road"}, "longitude": "-1.390610"}, "context": "", "outcome_status": null, "persistent_id": "", "id": 132526017, "location_subtype": "", "month": "2025-11"}, {"category": "anti-social-behaviour", "location_type": "Force", "location": {"latitude": "53.418759", "street": {"id": 1719595, "name": "On or near Deadman's Hole Lane"}, "longitude": "-1.392972"}, "context": "", "outcome_status": null, "persistent_id": "", "id": 132526016, "location_subtype": "", "month": "2025-11"}, {"category": "anti-social-behaviour", "location_type": "Force", "location": {"latitude": "53.382295", "street": {"id": 1716136, "name": "On or near Esperanto Place"}, "longitude": "-1.465186"}, "context": "", "outcome_status": null, "persistent_id": "", "id": 132531344, "location_subtype": "", "month": "2025-11"}, {"category": "anti-social-behaviour", "location_type": "Force", "location": {"latitude": "53.470139", "street": {"id": 1716505, "name": "On or near White Lane"}, "longitude": "-1.460784"}, "context": "", "outcome_status": null, "persistent_id": "", "id": 132531345, "location_subtype": "", "month": "2025-11"}, {"category": "anti-social-behaviour", "location_type": "Force", "location": {"latitude": "53.375585", "street": {"id": 1714582, "name": "On or near Hanover Square"}, "longitude": "-1.482647"}, "context": "", "outcome_status": null, "persistent_id": "", "id": 132521813, "location_subtype": "", "month": "2025-11"}, {"category": "anti-social-behaviour", "location_type": "Force", "location": {"latitude": "53.398246", "street": {"id": 1717498, "name": "On or near Atlas Way"}, "longitude": "-1.442758"}, "context": "", "outcome_status": null, "persistent_id": "", "id": 132531348, "location_subtype": "", "month": "2025-11"}, {"category": "anti-social-behaviour", "location_type": "Force", "location": {"latitude": "53.432974", "street": {"id": 1720456, "name": "On or near Park Street"}, "longitude": "-1.372841"}, "context": "", "outcome_status": null, "persistent_id": "", "id": 132525516, "location_subtype": "", "month": "2025-11"}, {"category": "anti-social-behaviour", "location_type": "Force", "location": {"latitude": "53.362831", "street": {"id": 1722871, "name": "On or near The Beeches"}, "longitude": "-1.316529"}, "context": "", "outcome_status": null, "persistent_id": "", "id": 132531365, "location_subtype": "", "month": "2025-11"}, {"category": "anti-social-behaviour", "location_type": "Force", "location": {"latitude": "53.450855", "street": {"id": 1720567, "name": "On or near Munsbrough Rise"}, "longitude": "-1.371644"}, "context": "", "outcome_status": null, "persistent_id": "", "id": 132525515, "location_subtype": "", "month": "2025-11"}, {"category": "anti-social-behaviour", "location_type": "Force", "location": {"latitude": "53.360849", "street": {"id": 1720455, "name": "On or near Mauncer Drive"}, "longitude": "-1.374682"}, "context": "", "outcome_status": null, "persistent_id": "", "id": 132525514, "location_subtype": "", "month": "2025-11"}, {"category": "anti-social-behaviour", "location_type": "Force", "location": {"latitude": "53.382697", "street": {"id": 1715851, "name": "On or near East Parade"}, "longitude": "-1.468624"}, "context": "", "outcome_status": null, "persistent_id": "", "id": 132531773, "location_subtype": "", "month": "2025-11"}, {"category": "anti-social-behaviour", "location_type": "Force", "location": {"latitude": "53.339645", "street": {"id": 1722407, "name": "On or near Meadow Gate Avenue"}, "longitude": "-1.330086"}, "context": "", "outcome_status": null, "persistent_id": "", "id": 132526977, "location_subtype": "", "month": "2025-11"}, {"category": "anti-social-behaviour", "location_type": "Force", "location": {"latitude": "53.414124", "street": {"id": 1716235, "name": "On or near Longley Farm View"}, "longitude": "-1.461327"}, "context": "", "outcome_status": null, "persistent_id": "", "id": 132531774, "location_subtype": "", "month": "2025-11"}, {"category": "anti-social-behaviour", "location_type": "Force", "location": {"latitude": "53.361017", "street": {"id": 1719438, "name": "On or near Richmond Hill Road"}, "longitude": "-1.400419"}, "context": "", "outcome_status": null, "persistent_id": "", "id": 132525510, "location_subtype": "", "month": "2025-11"}, {"category": "anti-social-behaviour", "location_type": "Force", "location": {"latitude": "53.442945", "street": {"id": 1719301, "name": "On or near Grange Drive"}, "longitude": "-1.405123"}, "context": "", "outcome_status": null, "persistent_id": "", "id": 132525509, "location_subtype": "", "month": "2025-11"}, {"category": "anti-social-behaviour", "location_type": "Force", "location": {"latitude": "53.337568", "street": {"id": 1722049, "name": "On or near Willingham Gardens"}, "longitude": "-1.339625"}, "context": "", "outcome_status": null, "persistent_id": "", "id": 132526976, "location_subtype": "", "month": "2025-11"}, {"category": "anti-social-behaviour", "location_type": "Force", "location": {"latitude": "53.435278", "street": {"id": 1721872, "name": "On or near St Leonard's Lane"}, "longitude": "-1.341799"}, "context": "", "outcome_status": null, "persistent_id": "", "id": 132523996, "location_subtype": "", "month": "2025-11"}, {"category": "anti-social-behaviour", "location_type": "Force", "location": {"latitude": "53.420552", "street": {"id": 1718521, "name": "On or near Prestwich Street"}, "longitude": "-1.421040"}, "context": "", "outcome_status": null, "persistent_id": "", "id": 132525507, "location_subtype": "", "month": "2025-11"}, {"category": "anti-social-behaviour", "location_type": "Force", "location": {"latitude": "53.398246", "street": {"id": 1717498, "name": "On or near Atlas Way"}, "longitude": "-1.442758"}, "context": "", "outcome_status": null, "persistent_id": "", "id": 132525506, "location_subtype": "", "month": "2025-11"}, {"category": "anti-social-behaviour", "location_type": "Force", "location": {"latitude": "53.384087", "street": {"id": 1717242, "name": "On or near Aston Street"}, "longitude": "-1.446251"}, "context": "", "outcome_status": null, "persistent_id": "", "id": 132525504, "location_subtype": "", "month": "2025-11"}, {"category": "anti-social-behaviour", "location_type": "Force", "location": {"latitude": "53.358186", "street": {"id": 1714034, "name": "On or near Oak Hill Close"}, "longitude": "-1.489574"}, "context": "", "outcome_status": null, "persistent_id": "", "id": 132523910, "location_subtype": "", "month": "2025-11"}, {"category": "anti-social-behaviour", "location_type": "Force", "location": {"latitude": "53.359651", "street": {"id": 1716188, "name": "On or near Denson Close"}, "longitude": "-1.464839"}, "context": "", "outcome_status": null, "persistent_id": "", "id": 132523350, "location_subtype": "", "month": "2025-11"}, {"category": "anti-social-behaviour", "location_type": "Force", "location": {"latitude": "53.426381", "street": {"id": 1721629, "name": "On or near Lilian Street South"}, "longitude": "-1.348528"}, "context": "", "outcome_status": null, "persistent_id": "", "id": 132526975, "location_subtype": "", "month": "2025-11"}, {"category": "anti-social-behaviour", "location_type": "Force", "location": {"latitude": "53.379191", "street": {"id": 1715667, "name": "On or near Pinstone Street"}, "longitude": "-1.470577"}, "context": "", "outcome_status": null, "persistent_id": "", "id": 132525490, "location_subtype": "", "month": "2025-11"}, {"category": "anti-social-behaviour", "location_type": "Force", "location": {"latitude": "53.410502", "street": {"id": 1715079, "name": "On or near Longley Avenue West"}, "longitude": "-1.477545"}, "context": "", "outcome_status": null, "persistent_id": "", "id": 132525486, "location_subtype": "", "month": "2025-11"}, {"category": "anti-social-behaviour", "location_type": "Force", "location": {"latitude": "53.311636", "street": {"id": 2221003, "name": "On or near Castle Hill"}, "longitude": "-1.357990"}, "context": "", "outcome_status": null, "persistent_id": "", "id": 132151174, "location_subtype": "", "month": "2025-11"}, {"category": "anti-social-behaviour", "location_type": "Force", "location": {"latitude": "53.429887", "street": {"id": 1714883, "name": "On or near Milnrow Road"}, "longitude": "-1.478872"}, "context": "", "outcome_status": null, "persistent_id": "", "id": 132525484, "location_subtype": "", "month": "2025-11"}, {"category": "anti-social-behaviour", "location_type": "Force", "location": {"latitude": "53.357148", "street": {"id": 1718755, "name": "On or near Mansfield Road"}, "longitude": "-1.416024"}, "context": "", "outcome_status": null, "persistent_id": "", "id": 132528706, "location_subtype": "", "month": "2025-11"}, {"category": "anti-social-behaviour", "location_type": "Force", "location": {"latitude": "53.421062", "street": {"id": 1721575, "name": "On or near Moorgate Lane"}, "longitude": "-1.348986"}, "context": "", "outcome_status": null, "persistent_id": "", "id": 132526974, "location_subtype": "", "month": "2025-11"}, {"category": "anti-social-behaviour", "location_type": "Force", "location": {"latitude": "53.355190", "street": {"id": 1719226, "name": "On or near Dominoe Grove"}, "longitude": "-1.405504"}, "context": "", "outcome_status": null, "persistent_id": "", "id": 132528709, "location_subtype": "", "month": "2025-11"}, {"category": "anti-social-behaviour", "location_type": "Force", "location": {"latitude": "53.436852", "street": {"id": 1717488, "name": "On or near Paper Mill Road"}, "longitude": "-1.442615"}, "context": "", "outcome_status": null, "persistent_id": "", "id": 132526956, "location_subtype": "", "month": "2025-11"}, {"category": "anti-social-behaviour", "location_type": "Force", "location": {"latitude": "53.418416", "street": {"id": 1714704, "name": "On or near Southey Green Road"}, "longitude": "-1.480577"}, "context": "", "outcome_status": null, "persistent_id": "", "id": 132525481, "location_subtype": "", "month": "2025-11"}, {"category": "anti-social-behaviour", "location_type": "Force", "location": {"latitude": "53.408202", "street": {"id": 1717605, "name": "On or near Dunmow Road"}, "longitude": "-1.441921"}, "context": "", "outcome_status": null, "persistent_id": "", "id": 132526957, "location_subtype": "", "month": "2025-11"}, {"category": "anti-social-behaviour", "location_type": "Force", "location": {"latitude": "53.432013", "street": {"id": 1721560, "name": "On or near Walker Lane"}, "longitude": "-1.349616"}, "context": "", "outcome_status": null, "persistent_id": "", "id": 132526972, "location_subtype": "", "month": "2025-11"}, {"category": "anti-social-behaviour", "location_type": "Force", "location": {"latitude": "53.387719", "street": {"id": 1714490, "name": "On or near St Philip's Road"}, "longitude": "-1.482485"}, "context": "", "outcome_status": null, "persistent_id": "", "id": 132525479, "location_subtype": "", "month": "2025-11"}, {"category": "anti-social-behaviour", "location_type": "Force", "location": {"latitude": "53.389336", "street": {"id": 1714421, "name": "On or near Upperthorpe Road"}, "longitude": "-1.484179"}, "context": "", "outcome_status": null, "persistent_id": "", "id": 132525478, "location_subtype": "", "month": "2025-11"}, {"category": "anti-social-behaviour", "location_type": "Force", "location": {"latitude": "53.342289", "street": {"id": 1714236, "name": "On or near Linscott Road"}, "longitude": "-1.486234"}, "context": "", "outcome_status": null, "persistent_id": "", "id": 132525477, "location_subtype": "", "month": "2025-11"}, {"category": "anti-social-behaviour", "location_type": "Force", "location": {"latitude": "53.379259", "street": {"id": 1714320, "name": "On or near Wilkinson Street"}, "longitude": "-1.486255"}, "context": "", "outcome_status": null, "persistent_id": "", "id": 132525476, "location_subtype": "", "month": "2025-11"}, {"category": "anti-social-behaviour", "location_type": "Force", "location": {"latitude": "53.351802", "street": {"id": 1713974, "name": "On or near Dovedale Road"}, "longitude": "-1.491122"}, "context": "", "outcome_status": null, "persistent_id": "", "id": 132525474, "location_subtype": "", "month": "2025-11"}, {"category": "anti-social-behaviour", "location_type": "Force", "location": {"latitude": "53.373175", "street": {"id": 1715176, "name": "On or near St Mary's Gate"}, "longitude": "-1.476062"}, "context": "", "outcome_status": null, "persistent_id": "", "id": 132531770, "location_subtype": "", "month": "2025-11"}, {"category": "anti-social-behaviour", "location_type": "Force", "location": {"latitude": "53.380913", "street": {"id": 1715181, "name": "On or near West Street"}, "longitude": "-1.475847"}, "context": "", "outcome_status": null, "persistent_id": "", "id": 132531771, "location_subtype": "", "month": "2025-11"}, {"category": "anti-social-behaviour", "location_type": "Force", "location": {"latitude": "53.381892", "street": {"id": 1716577, "name": "On or near Anson Street"}, "longitude": "-1.459464"}, "context": "", "outcome_status": null, "persistent_id": "", "id": 132531775, "location_subtype": "", "month": "2025-11"}, {"category": "anti-social-behaviour", "location_type": "Force", "location": {"latitude": "53.413627", "street": {"id": 1716586, "name": "On or near Longley Hall Way"}, "longitude": "-1.458580"}, "context": "", "outcome_status": null, "persistent_id": "", "id": 132531776, "location_subtype": "", "month": "2025-11"}, {"category": "anti-social-behaviour", "location_type": "Force", "location": {"latitude": "53.374680", "street": {"id": 1717182, "name": "On or near Ingram Road"}, "longitude": "-1.448973"}, "context": "", "outcome_status": null, "persistent_id": "", "id": 132531778, "location_subtype": "", "month": "2025-11"}, {"category": "anti-social-behaviour", "location_type": "Force", "location": {"latitude": "53.431195", "street": {"id": 1721189, "name": "On or near Corporation Street"}, "longitude": "-1.357892"}, "context": "", "outcome_status": null, "persistent_id": "", "id": 132526971, "location_subtype": "", "month": "2025-11"}, {"category": "anti-social-behaviour", "location_type": "Force", "location": {"latitude": "53.357085", "street": {"id": 1720568, "name": "On or near Skelton Way"}, "longitude": "-1.373385"}, "context": "", "outcome_status": null, "persistent_id": "", "id": 132526968, "location_subtype": "", "month": "2025-11"}, {"category": "anti-social-behaviour", "location_type": "Force", "location": {"latitude": "53.404284", "street": {"id": 1717492, "name": "On or near Margate Street"}, "longitude": "-1.444184"}, "context": "", "outcome_status": null, "persistent_id": "", "id": 132531779, "location_subtype": "", "month": "2025-11"}, {"category": "anti-social-behaviour", "location_type": "Force", "location": {"latitude": "53.339645", "street": {"id": 1722407, "name": "On or near Meadow Gate Avenue"}, "longitude": "-1.330086"}, "context": "", "outcome_status": null, "persistent_id": "", "id": 132531788, "location_subtype": "", "month": "2025-11"}, {"category": "anti-social-behaviour", "location_type": "Force", "location": {"latitude": "53.401994", "street": {"id": 1713635, "name": "On or near Supermarket"}, "longitude": "-1.495231"}, "context": "", "outcome_status": null, "persistent_id": "", "id": 132525473, "location_subtype": "", "month": "2025-11"}, {"category": "anti-social-behaviour", "location_type": "Force", "location": {"latitude": "53.351045", "street": {"id": 1719455, "name": "On or near Alport Avenue"}, "longitude": "-1.397990"}, "context": "", "outcome_status": null, "persistent_id": "", "id": 132526966, "location_subtype": "", "month": "2025-11"}, {"category": "anti-social-behaviour", "location_type": "Force", "location": {"latitude": "53.409496", "street": {"id": 1713466, "name": "On or near Barker's Place"}, "longitude": "-1.498753"}, "context": "", "outcome_status": null, "persistent_id": "", "id": 132525472, "location_subtype": "", "month": "2025-11"}, {"category": "anti-social-behaviour", "location_type": "Force", "location": {"latitude": "53.441784", "street": {"id": 1713443, "name": "On or near Brook Close"}, "longitude": "-1.498885"}, "context": "", "outcome_status": null, "persistent_id": "", "id": 132525471, "location_subtype": "", "month": "2025-11"}, {"category": "anti-social-behaviour", "location_type": "Force", "location": {"latitude": "53.386003", "street": {"id": 1716496, "name": "On or near Victoria Station Road"}, "longitude": "-1.460209"}, "context": "", "outcome_status": null, "persistent_id": "", "id": 132522325, "location_subtype": "", "month": "2025-11"}, {"category": "anti-social-behaviour", "location_type": "Force", "location": {"latitude": "53.365916", "street": {"id": 1716986, "name": "On or near Park Grange Court"}, "longitude": "-1.452918"}, "context": "", "outcome_status": null, "persistent_id": "", "id": 132522327, "location_subtype": "", "month": "2025-11"}, {"category": "anti-social-behaviour", "location_type": "Force", "location": {"latitude": "53.410249", "street": {"id": 1718069, "name": "On or near Beacon Croft"}, "longitude": "-1.431966"}, "context": "", "outcome_status": null, "persistent_id": "", "id": 132526008, "location_subtype": "", "month": "2025-11"}, {"category": "anti-social-behaviour", "location_type": "Force", "location": {"latitude": "53.372362", "street": {"id": 1717415, "name": "On or near Essex Road"}, "longitude": "-1.445351"}, "context": "", "outcome_status": null, "persistent_id": "", "id": 132522330, "location_subtype": "", "month": "2025-11"}, {"category": "anti-social-behaviour", "location_type": "Force", "location": {"latitude": "53.410249", "street": {"id": 1718069, "name": "On or near Beacon Croft"}, "longitude": "-1.431966"}, "context": "", "outcome_status": null, "persistent_id": "", "id": 132526007, "location_subtype": "", "month": "2025-11"}, {"category": "anti-social-behaviour", "location_type": "Force", "location": {"latitude": "53.406792", "street": {"id": 1717710, "name": "On or near Upwell Lane"}, "longitude": "-1.438465"}, "context": "", "outcome_status": null, "persistent_id": "", "id": 132526006, "location_subtype": "", "month": "2025-11"}, {"category": "anti-social-behaviour", "location_type": "Force", "location": {"latitude": "53.479153", "street": {"id": 1711185, "name": "On or near Truman Grove"}, "longitude": "-1.566401"}, "context": "", "outcome_status": null, "persistent_id": "", "id": 132535221, "location_subtype": "", "month": "2025-11"}, {"category": "anti-social-behaviour", "location_type": "Force", "location": {"latitude": "53.373831", "street": {"id": 1717713, "name": "On or near Swift Way"}, "longitude": "-1.440326"}, "context": "", "outcome_status": null, "persistent_id": "", "id": 132526005, "location_subtype": "", "month": "2025-11"}, {"category": "anti-social-behaviour", "location_type": "Force", "location": {"latitude": "53.338672", "street": {"id": 1717541, "name": "On or near Gibbons Drive"}, "longitude": "-1.443475"}, "context": "", "outcome_status": null, "persistent_id": "", "id": 132526004, "location_subtype": "", "month": "2025-11"}, {"category": "anti-social-behaviour", "location_type": "Force", "location": {"latitude": "53.310459", "street": {"id": 2220918, "name": "On or near Castle View"}, "longitude": "-1.359644"}, "context": "", "outcome_status": null, "persistent_id": "", "id": 132151598, "location_subtype": "", "month": "2025-11"}, {"category": "anti-social-behaviour", "location_type": "Force", "location": {"latitude": "53.402860", "street": {"id": 1715223, "name": "On or near Sports/recreation Area"}, "longitude": "-1.474001"}, "context": "", "outcome_status": null, "persistent_id": "", "id": 132525996, "location_subtype": "", "month": "2025-11"}, {"category": "anti-social-behaviour", "location_type": "Force", "location": {"latitude": "53.350975", "street": {"id": 1717459, "name": "On or near Spotswood Close"}, "longitude": "-1.444847"}, "context": "", "outcome_status": null, "persistent_id": "", "id": 132522331, "location_subtype": "", "month": "2025-11"}, {"category": "anti-social-behaviour", "location_type": "Force", "location": {"latitude": "53.321763", "street": {"id": 2221934, "name": "On or near Field Lane"}, "longitude": "-1.327919"}, "context": "", "outcome_status": null, "persistent_id": "", "id": 132150773, "location_subtype": "", "month": "2025-11"}, {"category": "anti-social-behaviour", "location_type": "Force", "location": {"latitude": "53.372388", "street": {"id": 1715225, "name": "On or near Supermarket"}, "longitude": "-1.475080"}, "context": "", "outcome_status": null, "persistent_id": "", "id": 132525995, "location_subtype": "", "month": "2025-11"}, {"category": "anti-social-behaviour", "location_type": "Force", "location": {"latitude": "53.378717", "street": {"id": 1715016, "name": "On or near Eldon Street"}, "longitude": "-1.477317"}, "context": "", "outcome_status": null, "persistent_id": "", "id": 132525994, "location_subtype": "", "month": "2025-11"}, {"category": "anti-social-behaviour", "location_type": "Force", "location": {"latitude": "53.378869", "street": {"id": 1712366, "name": "On or near Tapton Bank"}, "longitude": "-1.515468"},