[{"category": "anti-social-behaviour", "location_type": "Force", "location": {"latitude": "53.414087", "street": {"id": 1715386, "name": "On or near Raisen Hall Place"}, "longitude": "-1.473138"}, "context": "", "outcome_status": null, "persistent_id": "", "id": 127839212, "location_subtype": "", "month": "2025-04"}, {"category": "anti-social-behaviour", "location_type": "Force", "location": {"latitude": "53.327210", "street": {"id": 1715229, "name": "On or near Petrol Station"}, "longitude": "-1.474764"}, "context": "", "outcome_status": null, "persistent_id": "", "id": 127839213, "location_subtype": "", "month": "2025-04"}, {"category": "anti-social-behaviour", "location_type": "Force", "location": {"latitude": "53.469030", "street": {"id": 1714270, "name": "On or near Newton Road"}, "longitude": "-1.486588"}, "context": "", "outcome_status": null, "persistent_id": "", "id": 127844999, "location_subtype": "", "month": "2025-04"}, {"category": "anti-social-behaviour", "location_type": "Force", "location": {"latitude": "53.478116", "street": {"id": 1711161, "name": "On or near Miller Street"}, "longitude": "-1.567979"}, "context": "", "outcome_status": null, "persistent_id": "", "id": 127839725, "location_subtype": "", "month": "2025-04"}, {"category": "anti-social-behaviour", "location_type": "Force", "location": {"latitude": "53.385339", "street": {"id": 1712824, "name": "On or near Supermarket"}, "longitude": "-1.507955"}, "context": "", "outcome_status": null, "persistent_id": "", "id": 127844993, "location_subtype": "", "month": "2025-04"}, {"category": "anti-social-behaviour", "location_type": "Force", "location": {"latitude": "53.470212", "street": {"id": 1713089, "name": "On or near Oak Lodge Road"}, "longitude": "-1.502482"}, "context": "", "outcome_status": null, "persistent_id": "", "id": 127844992, "location_subtype": "", "month": "2025-04"}, {"category": "anti-social-behaviour", "location_type": "Force", "location": {"latitude": "53.427917", "street": {"id": 1722043, "name": "On or near Granville Terrace"}, "longitude": "-1.340137"}, "context": "", "outcome_status": null, "persistent_id": "", "id": 127835018, "location_subtype": "", "month": "2025-04"}, {"category": "anti-social-behaviour", "location_type": "Force", "location": {"latitude": "53.337414", "street": {"id": 1717024, "name": "On or near Sports/recreation Area"}, "longitude": "-1.450898"}, "context": "", "outcome_status": null, "persistent_id": "", "id": 127842580, "location_subtype": "", "month": "2025-04"}, {"category": "anti-social-behaviour", "location_type": "Force", "location": {"latitude": "53.358417", "street": {"id": 1716339, "name": "On or near Fitzroy Road"}, "longitude": "-1.462360"}, "context": "", "outcome_status": null, "persistent_id": "", "id": 127842577, "location_subtype": "", "month": "2025-04"}, {"category": "anti-social-behaviour", "location_type": "Force", "location": {"latitude": "53.382133", "street": {"id": 1715928, "name": "On or near George Street"}, "longitude": "-1.467068"}, "context": "", "outcome_status": null, "persistent_id": "", "id": 127842575, "location_subtype": "", "month": "2025-04"}, {"category": "anti-social-behaviour", "location_type": "Force", "location": {"latitude": "53.362272", "street": {"id": 1715834, "name": "On or near Anns Road"}, "longitude": "-1.468022"}, "context": "", "outcome_status": null, "persistent_id": "", "id": 127842574, "location_subtype": "", "month": "2025-04"}, {"category": "anti-social-behaviour", "location_type": "Force", "location": {"latitude": "53.382697", "street": {"id": 1715851, "name": "On or near East Parade"}, "longitude": "-1.468624"}, "context": "", "outcome_status": null, "persistent_id": "", "id": 127842573, "location_subtype": "", "month": "2025-04"}, {"category": "anti-social-behaviour", "location_type": "Force", "location": {"latitude": "53.327724", "street": {"id": 1715868, "name": "On or near Shopping Area"}, "longitude": "-1.467567"}, "context": "", "outcome_status": null, "persistent_id": "", "id": 127842572, "location_subtype": "", "month": "2025-04"}, {"category": "anti-social-behaviour", "location_type": "Force", "location": {"latitude": "53.308591", "street": {"id": 2216865, "name": "On or near Ash Lane"}, "longitude": "-1.434876"}, "context": "", "outcome_status": null, "persistent_id": "", "id": 127759966, "location_subtype": "", "month": "2025-04"}, {"category": "anti-social-behaviour", "location_type": "Force", "location": {"latitude": "53.373264", "street": {"id": 1715538, "name": "On or near Hereford Street"}, "longitude": "-1.471928"}, "context": "", "outcome_status": null, "persistent_id": "", "id": 127842571, "location_subtype": "", "month": "2025-04"}, {"category": "anti-social-behaviour", "location_type": "Force", "location": {"latitude": "53.368841", "street": {"id": 1715530, "name": "On or near Bramall Lane"}, "longitude": "-1.471697"}, "context": "", "outcome_status": null, "persistent_id": "", "id": 127842570, "location_subtype": "", "month": "2025-04"}, {"category": "anti-social-behaviour", "location_type": "Force", "location": {"latitude": "53.340232", "street": {"id": 1714730, "name": "On or near Osmaston Road"}, "longitude": "-1.480341"}, "context": "", "outcome_status": null, "persistent_id": "", "id": 127842569, "location_subtype": "", "month": "2025-04"}, {"category": "anti-social-behaviour", "location_type": "Force", "location": {"latitude": "53.376654", "street": {"id": 1712183, "name": "On or near Watt Lane"}, "longitude": "-1.523475"}, "context": "", "outcome_status": null, "persistent_id": "", "id": 127842559, "location_subtype": "", "month": "2025-04"}, {"category": "anti-social-behaviour", "location_type": "Force", "location": {"latitude": "53.406268", "street": {"id": 1711903, "name": "On or near Cavendish Avenue"}, "longitude": "-1.529387"}, "context": "", "outcome_status": null, "persistent_id": "", "id": 127842558, "location_subtype": "", "month": "2025-04"}, {"category": "anti-social-behaviour", "location_type": "Force", "location": {"latitude": "53.432045", "street": {"id": 1711809, "name": "On or near Langsett Road South"}, "longitude": "-1.533301"}, "context": "", "outcome_status": null, "persistent_id": "", "id": 127842557, "location_subtype": "", "month": "2025-04"}, {"category": "anti-social-behaviour", "location_type": "Force", "location": {"latitude": "53.324463", "street": {"id": 1711527, "name": "On or near Church Lane"}, "longitude": "-1.541201"}, "context": "", "outcome_status": null, "persistent_id": "", "id": 127842556, "location_subtype": "", "month": "2025-04"}, {"category": "anti-social-behaviour", "location_type": "Force", "location": {"latitude": "53.481098", "street": {"id": 1710715, "name": "On or near Green Farm Hamlet"}, "longitude": "-1.620221"}, "context": "", "outcome_status": null, "persistent_id": "", "id": 127842555, "location_subtype": "", "month": "2025-04"}, {"category": "anti-social-behaviour", "location_type": "Force", "location": {"latitude": "53.404897", "street": {"id": 1712342, "name": "On or near Hallowmoor Road"}, "longitude": "-1.519113"}, "context": "", "outcome_status": null, "persistent_id": "", "id": 127835469, "location_subtype": "", "month": "2025-04"}, {"category": "anti-social-behaviour", "location_type": "Force", "location": {"latitude": "53.383640", "street": {"id": 1712599, "name": "On or near Truswell Avenue"}, "longitude": "-1.512858"}, "context": "", "outcome_status": null, "persistent_id": "", "id": 127835470, "location_subtype": "", "month": "2025-04"}, {"category": "anti-social-behaviour", "location_type": "Force", "location": {"latitude": "53.388638", "street": {"id": 1712957, "name": "On or near Northfield Avenue"}, "longitude": "-1.506200"}, "context": "", "outcome_status": null, "persistent_id": "", "id": 127835471, "location_subtype": "", "month": "2025-04"}, {"category": "anti-social-behaviour", "location_type": "Force", "location": {"latitude": "53.378036", "street": {"id": 1715983, "name": "On or near Charles Lane"}, "longitude": "-1.467630"}, "context": "", "outcome_status": null, "persistent_id": "", "id": 127833583, "location_subtype": "", "month": "2025-04"}, {"category": "anti-social-behaviour", "location_type": "Force", "location": {"latitude": "53.408795", "street": {"id": 1715788, "name": "On or near Musgrave Drive"}, "longitude": "-1.469457"}, "context": "", "outcome_status": null, "persistent_id": "", "id": 127833582, "location_subtype": "", "month": "2025-04"}, {"category": "anti-social-behaviour", "location_type": "Force", "location": {"latitude": "53.427754", "street": {"id": 1713862, "name": "On or near Halifax Road"}, "longitude": "-1.492789"}, "context": "", "outcome_status": null, "persistent_id": "", "id": 127835473, "location_subtype": "", "month": "2025-04"}, {"category": "anti-social-behaviour", "location_type": "Force", "location": {"latitude": "53.390203", "street": {"id": 1715666, "name": "On or near Swinton Street"}, "longitude": "-1.468877"}, "context": "", "outcome_status": null, "persistent_id": "", "id": 127833581, "location_subtype": "", "month": "2025-04"}, {"category": "anti-social-behaviour", "location_type": "Force", "location": {"latitude": "53.417248", "street": {"id": 1713946, "name": "On or near Cookson Road"}, "longitude": "-1.491064"}, "context": "", "outcome_status": null, "persistent_id": "", "id": 127835474, "location_subtype": "", "month": "2025-04"}, {"category": "anti-social-behaviour", "location_type": "Force", "location": {"latitude": "53.376925", "street": {"id": 1715058, "name": "On or near Bowdon Street"}, "longitude": "-1.476543"}, "context": "", "outcome_status": null, "persistent_id": "", "id": 127835479, "location_subtype": "", "month": "2025-04"}, {"category": "anti-social-behaviour", "location_type": "Force", "location": {"latitude": "53.323863", "street": {"id": 1714957, "name": "On or near Lupton Road"}, "longitude": "-1.478228"}, "context": "", "outcome_status": null, "persistent_id": "", "id": 127835480, "location_subtype": "", "month": "2025-04"}, {"category": "anti-social-behaviour", "location_type": "Force", "location": {"latitude": "53.396556", "street": {"id": 1715893, "name": "On or near Polka Court"}, "longitude": "-1.468241"}, "context": "", "outcome_status": null, "persistent_id": "", "id": 127834045, "location_subtype": "", "month": "2025-04"}, {"category": "anti-social-behaviour", "location_type": "Force", "location": {"latitude": "53.428831", "street": {"id": 1715130, "name": "On or near Holgate Avenue"}, "longitude": "-1.475815"}, "context": "", "outcome_status": null, "persistent_id": "", "id": 127835481, "location_subtype": "", "month": "2025-04"}, {"category": "anti-social-behaviour", "location_type": "Force", "location": {"latitude": "53.358179", "street": {"id": 1715334, "name": "On or near Plantation Road"}, "longitude": "-1.473497"}, "context": "", "outcome_status": null, "persistent_id": "", "id": 127835483, "location_subtype": "", "month": "2025-04"}, {"category": "anti-social-behaviour", "location_type": "Force", "location": {"latitude": "53.380604", "street": {"id": 1715626, "name": "On or near Barker's Pool"}, "longitude": "-1.471025"}, "context": "", "outcome_status": null, "persistent_id": "", "id": 127835484, "location_subtype": "", "month": "2025-04"}, {"category": "anti-social-behaviour", "location_type": "Force", "location": {"latitude": "53.327724", "street": {"id": 1715868, "name": "On or near Shopping Area"}, "longitude": "-1.467567"}, "context": "", "outcome_status": null, "persistent_id": "", "id": 127835485, "location_subtype": "", "month": "2025-04"}, {"category": "anti-social-behaviour", "location_type": "Force", "location": {"latitude": "53.401685", "street": {"id": 1716098, "name": "On or near Roe Lane"}, "longitude": "-1.465440"}, "context": "", "outcome_status": null, "persistent_id": "", "id": 127835486, "location_subtype": "", "month": "2025-04"}, {"category": "anti-social-behaviour", "location_type": "Force", "location": {"latitude": "53.320232", "street": {"id": 1716047, "name": "On or near White Thorns Close"}, "longitude": "-1.466218"}, "context": "", "outcome_status": null, "persistent_id": "", "id": 127835487, "location_subtype": "", "month": "2025-04"}, {"category": "anti-social-behaviour", "location_type": "Force", "location": {"latitude": "53.378618", "street": {"id": 1715762, "name": "On or near Parking Area"}, "longitude": "-1.469066"}, "context": "", "outcome_status": null, "persistent_id": "", "id": 127834044, "location_subtype": "", "month": "2025-04"}, {"category": "anti-social-behaviour", "location_type": "Force", "location": {"latitude": "53.382869", "street": {"id": 1716184, "name": "On or near Fitzalan Square"}, "longitude": "-1.464879"}, "context": "", "outcome_status": null, "persistent_id": "", "id": 127835489, "location_subtype": "", "month": "2025-04"}, {"category": "anti-social-behaviour", "location_type": "Force", "location": {"latitude": "53.320651", "street": {"id": 1716130, "name": "On or near White Thorns View"}, "longitude": "-1.465327"}, "context": "", "outcome_status": null, "persistent_id": "", "id": 127835490, "location_subtype": "", "month": "2025-04"}, {"category": "anti-social-behaviour", "location_type": "Force", "location": {"latitude": "53.324234", "street": {"id": 1714346, "name": "On or near Gervase Avenue"}, "longitude": "-1.484949"}, "context": "", "outcome_status": null, "persistent_id": "", "id": 127834043, "location_subtype": "", "month": "2025-04"}, {"category": "anti-social-behaviour", "location_type": "Force", "location": {"latitude": "53.379702", "street": {"id": 1716052, "name": "On or near Arundel Gate"}, "longitude": "-1.466241"}, "context": "", "outcome_status": null, "persistent_id": "", "id": 127835491, "location_subtype": "", "month": "2025-04"}, {"category": "anti-social-behaviour", "location_type": "Force", "location": {"latitude": "53.325267", "street": {"id": 1716332, "name": "On or near Hazlebarrow Road"}, "longitude": "-1.462461"}, "context": "", "outcome_status": null, "persistent_id": "", "id": 127835493, "location_subtype": "", "month": "2025-04"}, {"category": "anti-social-behaviour", "location_type": "Force", "location": {"latitude": "53.353735", "street": {"id": 1714420, "name": "On or near Windermere Road"}, "longitude": "-1.484924"}, "context": "", "outcome_status": null, "persistent_id": "", "id": 127834042, "location_subtype": "", "month": "2025-04"}, {"category": "anti-social-behaviour", "location_type": "Force", "location": {"latitude": "53.339802", "street": {"id": 1716580, "name": "On or near Ivy Court"}, "longitude": "-1.458434"}, "context": "", "outcome_status": null, "persistent_id": "", "id": 127835494, "location_subtype": "", "month": "2025-04"}, {"category": "anti-social-behaviour", "location_type": "Force", "location": {"latitude": "53.345293", "street": {"id": 1713711, "name": "On or near Supermarket"}, "longitude": "-1.493107"}, "context": "", "outcome_status": null, "persistent_id": "", "id": 127834040, "location_subtype": "", "month": "2025-04"}, {"category": "anti-social-behaviour", "location_type": "Force", "location": {"latitude": "53.380251", "street": {"id": 1716752, "name": "On or near Weigh Lane"}, "longitude": "-1.456523"}, "context": "", "outcome_status": null, "persistent_id": "", "id": 127835495, "location_subtype": "", "month": "2025-04"}, {"category": "anti-social-behaviour", "location_type": "Force", "location": {"latitude": "53.437661", "street": {"id": 1723106, "name": "On or near Malin Road"}, "longitude": "-1.313131"}, "context": "", "outcome_status": null, "persistent_id": "", "id": 127834083, "location_subtype": "", "month": "2025-04"}, {"category": "anti-social-behaviour", "location_type": "Force", "location": {"latitude": "53.339645", "street": {"id": 1722407, "name": "On or near Meadow Gate Avenue"}, "longitude": "-1.330086"}, "context": "", "outcome_status": null, "persistent_id": "", "id": 127834082, "location_subtype": "", "month": "2025-04"}, {"category": "anti-social-behaviour", "location_type": "Force", "location": {"latitude": "53.432638", "street": {"id": 1722676, "name": "On or near Cawthorne Close"}, "longitude": "-1.321250"}, "context": "", "outcome_status": null, "persistent_id": "", "id": 127834081, "location_subtype": "", "month": "2025-04"}, {"category": "anti-social-behaviour", "location_type": "Force", "location": {"latitude": "53.433463", "street": {"id": 1721655, "name": "On or near Ridge Road"}, "longitude": "-1.346719"}, "context": "", "outcome_status": null, "persistent_id": "", "id": 127833615, "location_subtype": "", "month": "2025-04"}, {"category": "anti-social-behaviour", "location_type": "Force", "location": {"latitude": "53.360013", "street": {"id": 1722937, "name": "On or near Olive Close"}, "longitude": "-1.315717"}, "context": "", "outcome_status": null, "persistent_id": "", "id": 127835019, "location_subtype": "", "month": "2025-04"}, {"category": "anti-social-behaviour", "location_type": "Force", "location": {"latitude": "53.438598", "street": {"id": 1721627, "name": "On or near Hardwicke Road"}, "longitude": "-1.347258"}, "context": "", "outcome_status": null, "persistent_id": "", "id": 127833614, "location_subtype": "", "month": "2025-04"}, {"category": "anti-social-behaviour", "location_type": "Force", "location": {"latitude": "53.471772", "street": {"id": 1721888, "name": "On or near Thorogate"}, "longitude": "-1.343374"}, "context": "", "outcome_status": null, "persistent_id": "", "id": 127845059, "location_subtype": "", "month": "2025-04"}, {"category": "anti-social-behaviour", "location_type": "Force", "location": {"latitude": "53.344392", "street": {"id": 1721639, "name": "On or near Violet Avenue"}, "longitude": "-1.348081"}, "context": "", "outcome_status": null, "persistent_id": "", "id": 127833613, "location_subtype": "", "month": "2025-04"}, {"category": "anti-social-behaviour", "location_type": "Force", "location": {"latitude": "53.330375", "street": {"id": 1721521, "name": "On or near Shortbrook Road"}, "longitude": "-1.350727"}, "context": "", "outcome_status": null, "persistent_id": "", "id": 127833612, "location_subtype": "", "month": "2025-04"}, {"category": "anti-social-behaviour", "location_type": "Force", "location": {"latitude": "53.331036", "street": {"id": 1721562, "name": "On or near Westfield Centre"}, "longitude": "-1.349996"}, "context": "", "outcome_status": null, "persistent_id": "", "id": 127833611, "location_subtype": "", "month": "2025-04"}, {"category": "anti-social-behaviour", "location_type": "Force", "location": {"latitude": "53.383557", "street": {"id": 1721502, "name": "On or near Arundel Cottages"}, "longitude": "-1.351572"}, "context": "", "outcome_status": null, "persistent_id": "", "id": 127835015, "location_subtype": "", "month": "2025-04"}, {"category": "anti-social-behaviour", "location_type": "Force", "location": {"latitude": "53.330387", "street": {"id": 1721437, "name": "On or near Birchwood View"}, "longitude": "-1.352934"}, "context": "", "outcome_status": null, "persistent_id": "", "id": 127833610, "location_subtype": "", "month": "2025-04"}, {"category": "anti-social-behaviour", "location_type": "Force", "location": {"latitude": "53.431910", "street": {"id": 1721188, "name": "On or near Bridgegate"}, "longitude": "-1.357098"}, "context": "", "outcome_status": null, "persistent_id": "", "id": 127833608, "location_subtype": "", "month": "2025-04"}, {"category": "anti-social-behaviour", "location_type": "Force", "location": {"latitude": "53.392141", "street": {"id": 1720992, "name": "On or near Station Road"}, "longitude": "-1.363156"}, "context": "", "outcome_status": null, "persistent_id": "", "id": 127833607, "location_subtype": "", "month": "2025-04"}, {"category": "anti-social-behaviour", "location_type": "Force", "location": {"latitude": "53.404791", "street": {"id": 1720844, "name": "On or near Field View"}, "longitude": "-1.367239"}, "context": "", "outcome_status": null, "persistent_id": "", "id": 127833606, "location_subtype": "", "month": "2025-04"}, {"category": "anti-social-behaviour", "location_type": "Force", "location": {"latitude": "53.432974", "street": {"id": 1720456, "name": "On or near Park Street"}, "longitude": "-1.372841"}, "context": "", "outcome_status": null, "persistent_id": "", "id": 127833605, "location_subtype": "", "month": "2025-04"}, {"category": "anti-social-behaviour", "location_type": "Force", "location": {"latitude": "53.332785", "street": {"id": 1719552, "name": "On or near Teesdale Road"}, "longitude": "-1.386730"}, "context": "", "outcome_status": null, "persistent_id": "", "id": 127842099, "location_subtype": "", "month": "2025-04"}, {"category": "anti-social-behaviour", "location_type": "Force", "location": {"latitude": "53.415556", "street": {"id": 1716704, "name": "On or near Barnsley Road"}, "longitude": "-1.455968"}, "context": "", "outcome_status": null, "persistent_id": "", "id": 127842090, "location_subtype": "", "month": "2025-04"}, {"category": "anti-social-behaviour", "location_type": "Force", "location": {"latitude": "53.375405", "street": {"id": 1716182, "name": "On or near Fornham Street"}, "longitude": "-1.464251"}, "context": "", "outcome_status": null, "persistent_id": "", "id": 127842089, "location_subtype": "", "month": "2025-04"}, {"category": "anti-social-behaviour", "location_type": "Force", "location": {"latitude": "53.440597", "street": {"id": 1716285, "name": "On or near Sycamore Road"}, "longitude": "-1.463446"}, "context": "", "outcome_status": null, "persistent_id": "", "id": 127842088, "location_subtype": "", "month": "2025-04"}, {"category": "anti-social-behaviour", "location_type": "Force", "location": {"latitude": "53.360013", "street": {"id": 1722937, "name": "On or near Olive Close"}, "longitude": "-1.315717"}, "context": "", "outcome_status": null, "persistent_id": "", "id": 127835020, "location_subtype": "", "month": "2025-04"}, {"category": "anti-social-behaviour", "location_type": "Force", "location": {"latitude": "53.394463", "street": {"id": 1715866, "name": "On or near Pye Bank Drive"}, "longitude": "-1.468643"}, "context": "", "outcome_status": null, "persistent_id": "", "id": 127842087, "location_subtype": "", "month": "2025-04"}, {"category": "anti-social-behaviour", "location_type": "Force", "location": {"latitude": "53.421349", "street": {"id": 1716159, "name": "On or near Emerson Drive"}, "longitude": "-1.464697"}, "context": "", "outcome_status": null, "persistent_id": "", "id": 127842086, "location_subtype": "", "month": "2025-04"}, {"category": "anti-social-behaviour", "location_type": "Force", "location": {"latitude": "53.376925", "street": {"id": 1715058, "name": "On or near Bowdon Street"}, "longitude": "-1.476543"}, "context": "", "outcome_status": null, "persistent_id": "", "id": 127842085, "location_subtype": "", "month": "2025-04"}, {"category": "anti-social-behaviour", "location_type": "Force", "location": {"latitude": "53.391485", "street": {"id": 1719070, "name": "On or near Greenland Close"}, "longitude": "-1.410653"}, "context": "", "outcome_status": null, "persistent_id": "", "id": 127835970, "location_subtype": "", "month": "2025-04"}, {"category": "anti-social-behaviour", "location_type": "Force", "location": {"latitude": "53.414765", "street": {"id": 1712272, "name": "On or near Dykewood Drive"}, "longitude": "-1.520898"}, "context": "", "outcome_status": null, "persistent_id": "", "id": 127842078, "location_subtype": "", "month": "2025-04"}, {"category": "anti-social-behaviour", "location_type": "Force", "location": {"latitude": "53.383871", "street": {"id": 1719359, "name": "On or near High Hazels Mead"}, "longitude": "-1.401316"}, "context": "", "outcome_status": null, "persistent_id": "", "id": 127835971, "location_subtype": "", "month": "2025-04"}, {"category": "anti-social-behaviour", "location_type": "Force", "location": {"latitude": "53.381028", "street": {"id": 1719383, "name": "On or near Lound Road"}, "longitude": "-1.400815"}, "context": "", "outcome_status": null, "persistent_id": "", "id": 127835972, "location_subtype": "", "month": "2025-04"}, {"category": "anti-social-behaviour", "location_type": "Force", "location": {"latitude": "53.404817", "street": {"id": 1720673, "name": "On or near Brinsworth Lane"}, "longitude": "-1.370352"}, "context": "", "outcome_status": null, "persistent_id": "", "id": 127835013, "location_subtype": "", "month": "2025-04"}, {"category": "anti-social-behaviour", "location_type": "Force", "location": {"latitude": "53.435170", "street": {"id": 1720035, "name": "On or near Petrol Station"}, "longitude": "-1.382157"}, "context": "", "outcome_status": null, "persistent_id": "", "id": 127835012, "location_subtype": "", "month": "2025-04"}, {"category": "anti-social-behaviour", "location_type": "Force", "location": {"latitude": "53.350994", "street": {"id": 1719532, "name": "On or near Alport Place"}, "longitude": "-1.396819"}, "context": "", "outcome_status": null, "persistent_id": "", "id": 127835973, "location_subtype": "", "month": "2025-04"}, {"category": "anti-social-behaviour", "location_type": "Force", "location": {"latitude": "53.361310", "street": {"id": 1719619, "name": "On or near Smelter Wood Lane"}, "longitude": "-1.394345"}, "context": "", "outcome_status": null, "persistent_id": "", "id": 127835974, "location_subtype": "", "month": "2025-04"}, {"category": "anti-social-behaviour", "location_type": "Force", "location": {"latitude": "53.409210", "street": {"id": 1720510, "name": "On or near Normanville Avenue"}, "longitude": "-1.373311"}, "context": "", "outcome_status": null, "persistent_id": "", "id": 127833604, "location_subtype": "", "month": "2025-04"}, {"category": "anti-social-behaviour", "location_type": "Force", "location": {"latitude": "53.368026", "street": {"id": 1718936, "name": "On or near Angleton Gardens"}, "longitude": "-1.412795"}, "context": "", "outcome_status": null, "persistent_id": "", "id": 127833600, "location_subtype": "", "month": "2025-04"}, {"category": "anti-social-behaviour", "location_type": "Force", "location": {"latitude": "53.375867", "street": {"id": 1719657, "name": "On or near Handsworth Road"}, "longitude": "-1.393522"}, "context": "", "outcome_status": null, "persistent_id": "", "id": 127835975, "location_subtype": "", "month": "2025-04"}, {"category": "anti-social-behaviour", "location_type": "Force", "location": {"latitude": "53.344149", "street": {"id": 1718259, "name": "On or near Brierfield Road"}, "longitude": "-1.426941"}, "context": "", "outcome_status": null, "persistent_id": "", "id": 127833598, "location_subtype": "", "month": "2025-04"}, {"category": "anti-social-behaviour", "location_type": "Force", "location": {"latitude": "53.346244", "street": {"id": 1719797, "name": "On or near Jermyn Close"}, "longitude": "-1.390788"}, "context": "", "outcome_status": null, "persistent_id": "", "id": 127835976, "location_subtype": "", "month": "2025-04"}, {"category": "anti-social-behaviour", "location_type": "Force", "location": {"latitude": "53.374234", "street": {"id": 1719827, "name": "On or near Enfield Place"}, "longitude": "-1.388765"}, "context": "", "outcome_status": null, "persistent_id": "", "id": 127835978, "location_subtype": "", "month": "2025-04"}, {"category": "anti-social-behaviour", "location_type": "Force", "location": {"latitude": "53.404050", "street": {"id": 1720474, "name": "On or near Poplar Drive"}, "longitude": "-1.374921"}, "context": "", "outcome_status": null, "persistent_id": "", "id": 127835980, "location_subtype": "", "month": "2025-04"}, {"category": "anti-social-behaviour", "location_type": "Force", "location": {"latitude": "53.343538", "street": {"id": 1720408, "name": "On or near Brookside Close"}, "longitude": "-1.376662"}, "context": "", "outcome_status": null, "persistent_id": "", "id": 127835981, "location_subtype": "", "month": "2025-04"}, {"category": "anti-social-behaviour", "location_type": "Force", "location": {"latitude": "53.430764", "street": {"id": 1720714, "name": "On or near Robert Street"}, "longitude": "-1.369713"}, "context": "", "outcome_status": null, "persistent_id": "", "id": 127835982, "location_subtype": "", "month": "2025-04"}, {"category": "anti-social-behaviour", "location_type": "Force", "location": {"latitude": "53.404791", "street": {"id": 1720844, "name": "On or near Field View"}, "longitude": "-1.367239"}, "context": "", "outcome_status": null, "persistent_id": "", "id": 127835983, "location_subtype": "", "month": "2025-04"}, {"category": "anti-social-behaviour", "location_type": "Force", "location": {"latitude": "53.436128", "street": {"id": 1717232, "name": "On or near Westnall Terrace"}, "longitude": "-1.447502"}, "context": "", "outcome_status": null, "persistent_id": "", "id": 127833588, "location_subtype": "", "month": "2025-04"}, {"category": "anti-social-behaviour", "location_type": "Force", "location": {"latitude": "53.359031", "street": {"id": 1716592, "name": "On or near Derby Terrace"}, "longitude": "-1.458942"}, "context": "", "outcome_status": null, "persistent_id": "", "id": 127833587, "location_subtype": "", "month": "2025-04"}, {"category": "anti-social-behaviour", "location_type": "Force", "location": {"latitude": "53.350451", "street": {"id": 1722189, "name": "On or near Rothervale Close"}, "longitude": "-1.336812"}, "context": "", "outcome_status": null, "persistent_id": "", "id": 127834080, "location_subtype": "", "month": "2025-04"}, {"category": "anti-social-behaviour", "location_type": "Force", "location": {"latitude": "53.385616", "street": {"id": 1719750, "name": "On or near Selden Way"}, "longitude": "-1.385625"}, "context": "", "outcome_status": null, "persistent_id": "", "id": 127834070, "location_subtype": "", "month": "2025-04"}, {"category": "anti-social-behaviour", "location_type": "Force", "location": {"latitude": "53.355796", "street": {"id": 1719889, "name": "On or near Coisley Road"}, "longitude": "-1.384807"}, "context": "", "outcome_status": null, "persistent_id": "", "id": 127834069, "location_subtype": "", "month": "2025-04"}, {"category": "anti-social-behaviour", "location_type": "Force", "location": {"latitude": "53.427962", "street": {"id": 1719766, "name": "On or near Oakdale Place"}, "longitude": "-1.390960"}, "context": "", "outcome_status": null, "persistent_id": "", "id": 127834067, "location_subtype": "", "month": "2025-04"}, {"category": "anti-social-behaviour", "location_type": "Force", "location": {"latitude": "53.435074", "street": {"id": 1719474, "name": "On or near Little Common Lane"}, "longitude": "-1.398610"}, "context": "", "outcome_status": null, "persistent_id": "", "id": 127834065, "location_subtype": "", "month": "2025-04"}, {"category": "anti-social-behaviour", "location_type": "Force", "location": {"latitude": "53.353112", "street": {"id": 1719283, "name": "On or near Wardlow Road"}, "longitude": "-1.405052"}, "context": "", "outcome_status": null, "persistent_id": "", "id": 127834064, "location_subtype": "", "month": "2025-04"}, {"category": "anti-social-behaviour", "location_type": "Force", "location": {"latitude": "53.364801", "street": {"id": 1718724, "name": "On or near Woodrove Close"}, "longitude": "-1.416761"}, "context": "", "outcome_status": null, "persistent_id": "", "id": 127834063, "location_subtype": "", "month": "2025-04"}, {"category": "anti-social-behaviour", "location_type": "Force", "location": {"latitude": "53.437602", "street": {"id": 1717896, "name": "On or near Grange Mill Lane"}, "longitude": "-1.433874"}, "context": "", "outcome_status": null, "persistent_id": "", "id": 127838160, "location_subtype": "", "month": "2025-04"}, {"category": "anti-social-behaviour", "location_type": "Force", "location": {"latitude": "53.423416", "street": {"id": 1718566, "name": "On or near Dara Street"}, "longitude": "-1.418608"}, "context": "", "outcome_status": null, "persistent_id": "", "id": 127834062, "location_subtype": "", "month": "2025-04"}, {"category": "anti-social-behaviour", "location_type": "Force", "location": {"latitude": "53.373780", "street": {"id": 1718463, "name": "On or near Beaumont Mews"}, "longitude": "-1.422110"}, "context": "", "outcome_status": null, "persistent_id": "", "id": 127834060, "location_subtype": "", "month": "2025-04"}, {"category": "anti-social-behaviour", "location_type": "Force", "location": {"latitude": "53.343141", "street": {"id": 1718342, "name": "On or near Charnock Crescent"}, "longitude": "-1.424852"}, "context": "", "outcome_status": null, "persistent_id": "", "id": 127834059, "location_subtype": "", "month": "2025-04"}, {"category": "anti-social-behaviour", "location_type": "Force", "location": {"latitude": "53.350268", "street": {"id": 1717785, "name": "On or near Spring Close View"}, "longitude": "-1.437811"}, "context": "", "outcome_status": null, "persistent_id": "", "id": 127834057, "location_subtype": "", "month": "2025-04"}, {"category": "anti-social-behaviour", "location_type": "Force", "location": {"latitude": "53.360473", "street": {"id": 1717721, "name": "On or near Errington Avenue"}, "longitude": "-1.440291"}, "context": "", "outcome_status": null, "persistent_id": "", "id": 127834055, "location_subtype": "", "month": "2025-04"}, {"category": "anti-social-behaviour", "location_type": "Force", "location": {"latitude": "53.365065", "street": {"id": 1716995, "name": "On or near Park Grange View"}, "longitude": "-1.451727"}, "context": "", "outcome_status": null, "persistent_id": "", "id": 127834054, "location_subtype": "", "month": "2025-04"}, {"category": "anti-social-behaviour", "location_type": "Force", "location": {"latitude": "53.376721", "street": {"id": 1716265, "name": "On or near Cross Turner Street"}, "longitude": "-1.463062"}, "context": "", "outcome_status": null, "persistent_id": "", "id": 127834050, "location_subtype": "", "month": "2025-04"}, {"category": "anti-social-behaviour", "location_type": "Force", "location": {"latitude": "53.362160", "street": {"id": 1722210, "name": "On or near Rother View Gardens"}, "longitude": "-1.334556"}, "context": "", "outcome_status": null, "persistent_id": "", "id": 127838732, "location_subtype": "", "month": "2025-04"}, {"category": "anti-social-behaviour", "location_type": "Force", "location": {"latitude": "53.337568", "street": {"id": 1722049, "name": "On or near Willingham Gardens"}, "longitude": "-1.339625"}, "context": "", "outcome_status": null, "persistent_id": "", "id": 127838731, "location_subtype": "", "month": "2025-04"}, {"category": "anti-social-behaviour", "location_type": "Force", "location": {"latitude": "53.433833", "street": {"id": 1721396, "name": "On or near Supermarket"}, "longitude": "-1.353592"}, "context": "", "outcome_status": null, "persistent_id": "", "id": 127838730, "location_subtype": "", "month": "2025-04"}, {"category": "anti-social-behaviour", "location_type": "Force", "location": {"latitude": "53.364216", "street": {"id": 1721285, "name": "On or near John Ward Street"}, "longitude": "-1.355503"}, "context": "", "outcome_status": null, "persistent_id": "", "id": 127838728, "location_subtype": "", "month": "2025-04"}, {"category": "anti-social-behaviour", "location_type": "Force", "location": {"latitude": "53.447442", "street": {"id": 1719692, "name": "On or near Crane Road"}, "longitude": "-1.393045"}, "context": "", "outcome_status": null, "persistent_id": "", "id": 127835011, "location_subtype": "", "month": "2025-04"}, {"category": "anti-social-behaviour", "location_type": "Force", "location": {"latitude": "53.431910", "street": {"id": 1721188, "name": "On or near Bridgegate"}, "longitude": "-1.357098"}, "context": "", "outcome_status": null, "persistent_id": "", "id": 127838726, "location_subtype": "", "month": "2025-04"}, {"category": "anti-social-behaviour", "location_type": "Force", "location": {"latitude": "53.365380", "street": {"id": 1716942, "name": "On or near Park Grange Mount"}, "longitude": "-1.453647"}, "context": "", "outcome_status": null, "persistent_id": "", "id": 127836540, "location_subtype": "", "month": "2025-04"}, {"category": "anti-social-behaviour", "location_type": "Force", "location": {"latitude": "53.394234", "street": {"id": 1716872, "name": "On or near Buckenham Drive"}, "longitude": "-1.453713"}, "context": "", "outcome_status": null, "persistent_id": "", "id": 127836541, "location_subtype": "", "month": "2025-04"}, {"category": "anti-social-behaviour", "location_type": "Force", "location": {"latitude": "53.431910", "street": {"id": 1721188, "name": "On or near Bridgegate"}, "longitude": "-1.357098"}, "context": "", "outcome_status": null, "persistent_id": "", "id": 127838725, "location_subtype": "", "month": "2025-04"}, {"category": "anti-social-behaviour", "location_type": "Force", "location": {"latitude": "53.404112", "street": {"id": 1720843, "name": "On or near Field View Court"}, "longitude": "-1.366211"}, "context": "", "outcome_status": null, "persistent_id": "", "id": 127838723, "location_subtype": "", "month": "2025-04"}, {"category": "anti-social-behaviour", "location_type": "Force", "location": {"latitude": "53.435383", "street": {"id": 1719651, "name": "On or near Church Fields"}, "longitude": "-1.392103"}, "context": "", "outcome_status": null, "persistent_id": "", "id": 127838714, "location_subtype": "", "month": "2025-04"}, {"category": "anti-social-behaviour", "location_type": "Force", "location": {"latitude": "53.331036", "street": {"id": 1721562, "name": "On or near Westfield Centre"}, "longitude": "-1.349996"}, "context": "", "outcome_status": null, "persistent_id": "", "id": 127833154, "location_subtype": "", "month": "2025-04"}, {"category": "anti-social-behaviour", "location_type": "Force", "location": {"latitude": "53.368392", "street": {"id": 1717369, "name": "On or near St Aidan's Avenue"}, "longitude": "-1.445973"}, "context": "", "outcome_status": null, "persistent_id": "", "id": 127836542, "location_subtype": "", "month": "2025-04"}, {"category": "anti-social-behaviour", "location_type": "Force", "location": {"latitude": "53.346054", "street": {"id": 1717327, "name": "On or near Gaunt Way"}, "longitude": "-1.445842"}, "context": "", "outcome_status": null, "persistent_id": "", "id": 127836543, "location_subtype": "", "month": "2025-04"}, {"category": "anti-social-behaviour", "location_type": "Force", "location": {"latitude": "53.426381", "street": {"id": 1721629, "name": "On or near Lilian Street South"}, "longitude": "-1.348528"}, "context": "", "outcome_status": null, "persistent_id": "", "id": 127833153, "location_subtype": "", "month": "2025-04"}, {"category": "anti-social-behaviour", "location_type": "Force", "location": {"latitude": "53.433054", "street": {"id": 1721368, "name": "On or near Henry Street"}, "longitude": "-1.354146"}, "context": "", "outcome_status": null, "persistent_id": "", "id": 127833152, "location_subtype": "", "month": "2025-04"}, {"category": "anti-social-behaviour", "location_type": "Force", "location": {"latitude": "53.327506", "street": {"id": 1716325, "name": "On or near Hazlebarrow Drive"}, "longitude": "-1.462508"}, "context": "", "outcome_status": null, "persistent_id": "", "id": 127833126, "location_subtype": "", "month": "2025-04"}, {"category": "anti-social-behaviour", "location_type": "Force", "location": {"latitude": "53.380414", "street": {"id": 1716005, "name": "On or near Theatre/concert Hall"}, "longitude": "-1.466623"}, "context": "", "outcome_status": null, "persistent_id": "", "id": 127833125, "location_subtype": "", "month": "2025-04"}, {"category": "anti-social-behaviour", "location_type": "Force", "location": {"latitude": "53.361793", "street": {"id": 1717573, "name": "On or near Algar Drive"}, "longitude": "-1.441942"}, "context": "", "outcome_status": null, "persistent_id": "", "id": 127836544, "location_subtype": "", "month": "2025-04"}, {"category": "anti-social-behaviour", "location_type": "Force", "location": {"latitude": "53.396324", "street": {"id": 1716028, "name": "On or near Rising Street"}, "longitude": "-1.466725"}, "context": "", "outcome_status": null, "persistent_id": "", "id": 127833123, "location_subtype": "", "month": "2025-04"}, {"category": "anti-social-behaviour", "location_type": "Force", "location": {"latitude": "53.446508", "street": {"id": 1719639, "name": "On or near Hudson Road"}, "longitude": "-1.393209"}, "context": "", "outcome_status": null, "persistent_id": "", "id": 127835010, "location_subtype": "", "month": "2025-04"}, {"category": "anti-social-behaviour", "location_type": "Force", "location": {"latitude": "53.461650", "street": {"id": 1715968, "name": "On or near Market Place"}, "longitude": "-1.465832"}, "context": "", "outcome_status": null, "persistent_id": "", "id": 127833121, "location_subtype": "", "month": "2025-04"}, {"category": "anti-social-behaviour", "location_type": "Force", "location": {"latitude": "53.407385", "street": {"id": 1717508, "name": "On or near Petrol Station"}, "longitude": "-1.442808"}, "context": "", "outcome_status": null, "persistent_id": "", "id": 127836545, "location_subtype": "", "month": "2025-04"}, {"category": "anti-social-behaviour", "location_type": "Force", "location": {"latitude": "53.398246", "street": {"id": 1717498, "name": "On or near Atlas Way"}, "longitude": "-1.442758"}, "context": "", "outcome_status": null, "persistent_id": "", "id": 127836546, "location_subtype": "", "month": "2025-04"}, {"category": "anti-social-behaviour", "location_type": "Force", "location": {"latitude": "53.362272", "street": {"id": 1715834, "name": "On or near Anns Road"}, "longitude": "-1.468022"}, "context": "", "outcome_status": null, "persistent_id": "", "id": 127833120, "location_subtype": "", "month": "2025-04"}, {"category": "anti-social-behaviour", "location_type": "Force", "location": {"latitude": "53.421664", "street": {"id": 1717689, "name": "On or near Shiregreen Lane"}, "longitude": "-1.437457"}, "context": "", "outcome_status": null, "persistent_id": "", "id": 127836547, "location_subtype": "", "month": "2025-04"}, {"category": "anti-social-behaviour", "location_type": "Force", "location": {"latitude": "53.354131", "street": {"id": 1718062, "name": "On or near Gleadless Rise"}, "longitude": "-1.431540"}, "context": "", "outcome_status": null, "persistent_id": "", "id": 127836549, "location_subtype": "", "month": "2025-04"}, {"category": "anti-social-behaviour", "location_type": "Force", "location": {"latitude": "53.412199", "street": {"id": 1718274, "name": "On or near Eben Street"}, "longitude": "-1.422402"}, "context": "", "outcome_status": null, "persistent_id": "", "id": 127836550, "location_subtype": "", "month": "2025-04"}, {"category": "anti-social-behaviour", "location_type": "Force", "location": {"latitude": "53.396396", "street": {"id": 1718847, "name": "On or near Stovin Close"}, "longitude": "-1.414781"}, "context": "", "outcome_status": null, "persistent_id": "", "id": 127836551, "location_subtype": "", "month": "2025-04"}, {"category": "anti-social-behaviour", "location_type": "Force", "location": {"latitude": "53.320189", "street": {"id": 1715760, "name": "On or near Sports/recreation Area"}, "longitude": "-1.469404"}, "context": "", "outcome_status": null, "persistent_id": "", "id": 127833119, "location_subtype": "", "month": "2025-04"}, {"category": "anti-social-behaviour", "location_type": "Force", "location": {"latitude": "53.364911", "street": {"id": 1718927, "name": "On or near Nodder Road"}, "longitude": "-1.413604"}, "context": "", "outcome_status": null, "persistent_id": "", "id": 127836552, "location_subtype": "", "month": "2025-04"}, {"category": "anti-social-behaviour", "location_type": "Force", "location": {"latitude": "53.383871", "street": {"id": 1719359, "name": "On or near High Hazels Mead"}, "longitude": "-1.401316"}, "context": "", "outcome_status": null, "persistent_id": "", "id": 127838713, "location_subtype": "", "month": "2025-04"}, {"category": "anti-social-behaviour", "location_type": "Force", "location": {"latitude": "53.383450", "street": {"id": 1719041, "name": "On or near Poole Place"}, "longitude": "-1.410748"}, "context": "", "outcome_status": null, "persistent_id": "", "id": 127838711, "location_subtype": "", "month": "2025-04"}, {"category": "anti-social-behaviour", "location_type": "Force", "location": {"latitude": "53.368026", "street": {"id": 1718936, "name": "On or near Angleton Gardens"}, "longitude": "-1.412795"}, "context": "", "outcome_status": null, "persistent_id": "", "id": 127838710, "location_subtype": "", "month": "2025-04"}, {"category": "anti-social-behaviour", "location_type": "Force", "location": {"latitude": "53.391651", "street": {"id": 1712106, "name": "On or near Roscoe Drive"}, "longitude": "-1.524435"}, "context": "", "outcome_status": null, "persistent_id": "", "id": 127833104, "location_subtype": "", "month": "2025-04"}, {"category": "anti-social-behaviour", "location_type": "Force", "location": {"latitude": "53.392558", "street": {"id": 1711899, "name": "On or near Deer Park Close"}, "longitude": "-1.530966"}, "context": "", "outcome_status": null, "persistent_id": "", "id": 127833103, "location_subtype": "", "month": "2025-04"}, {"category": "anti-social-behaviour", "location_type": "Force", "location": {"latitude": "53.369938", "street": {"id": 1718689, "name": "On or near Vikinglea Glade"}, "longitude": "-1.417698"}, "context": "", "outcome_status": null, "persistent_id": "", "id": 127838709, "location_subtype": "", "month": "2025-04"}, {"category": "anti-social-behaviour", "location_type": "Force", "location": {"latitude": "53.383634", "street": {"id": 1719358, "name": "On or near Olivers Drive"}, "longitude": "-1.402492"}, "context": "", "outcome_status": null, "persistent_id": "", "id": 127836555, "location_subtype": "", "month": "2025-04"}, {"category": "anti-social-behaviour", "location_type": "Force", "location": {"latitude": "53.367681", "street": {"id": 1719973, "name": "On or near Richworth Road"}, "longitude": "-1.385297"}, "context": "", "outcome_status": null, "persistent_id": "", "id": 127836556, "location_subtype": "", "month": "2025-04"}, {"category": "anti-social-behaviour", "location_type": "Force", "location": {"latitude": "53.433054", "street": {"id": 1721368, "name": "On or near Henry Street"}, "longitude": "-1.354146"}, "context": "", "outcome_status": null, "persistent_id": "", "id": 127846638, "location_subtype": "", "month": "2025-04"}, {"category": "anti-social-behaviour", "location_type": "Force", "location": {"latitude": "53.328535", "street": {"id": 1721152, "name": "On or near Ruby Lane"}, "longitude": "-1.359569"}, "context": "", "outcome_status": null, "persistent_id": "", "id": 127846636, "location_subtype": "", "month": "2025-04"}, {"category": "anti-social-behaviour", "location_type": "Force", "location": {"latitude": "53.330041", "street": {"id": 1721109, "name": "On or near Redwood Lane"}, "longitude": "-1.360537"}, "context": "", "outcome_status": null, "persistent_id": "", "id": 127846635, "location_subtype": "", "month": "2025-04"}, {"category": "anti-social-behaviour", "location_type": "Force", "location": {"latitude": "53.431195", "street": {"id": 1721189, "name": "On or near Corporation Street"}, "longitude": "-1.357892"}, "context": "", "outcome_status": null, "persistent_id": "", "id": 127846634, "location_subtype": "", "month": "2025-04"}, {"category": "anti-social-behaviour", "location_type": "Force", "location": {"latitude": "53.431111", "street": {"id": 1720584, "name": "On or near Princes Street"}, "longitude": "-1.370686"}, "context": "", "outcome_status": null, "persistent_id": "", "id": 127836558, "location_subtype": "", "month": "2025-04"}, {"category": "anti-social-behaviour", "location_type": "Force", "location": {"latitude": "53.407345", "street": {"id": 1720942, "name": "On or near Highlow View"}, "longitude": "-1.364042"}, "context": "", "outcome_status": null, "persistent_id": "", "id": 127836559, "location_subtype": "", "month": "2025-04"}, {"category": "anti-social-behaviour", "location_type": "Force", "location": {"latitude": "53.431910", "street": {"id": 1721188, "name": "On or near Bridgegate"}, "longitude": "-1.357098"}, "context": "", "outcome_status": null, "persistent_id": "", "id": 127836560, "location_subtype": "", "month": "2025-04"}, {"category": "anti-social-behaviour", "location_type": "Force", "location": {"latitude": "53.366989", "street": {"id": 1721210, "name": "On or near Hail Mary Drive"}, "longitude": "-1.357970"}, "context": "", "outcome_status": null, "persistent_id": "", "id": 127836561, "location_subtype": "", "month": "2025-04"}, {"category": "anti-social-behaviour", "location_type": "Force", "location": {"latitude": "53.329589", "street": {"id": 1720960, "name": "On or near Admiral Close"}, "longitude": "-1.361790"}, "context": "", "outcome_status": null, "persistent_id": "", "id": 127846633, "location_subtype": "", "month": "2025-04"}, {"category": "anti-social-behaviour", "location_type": "Force", "location": {"latitude": "53.326176", "street": {"id": 1720961, "name": "On or near Parking Area"}, "longitude": "-1.363853"}, "context": "", "outcome_status": null, "persistent_id": "", "id": 127846632, "location_subtype": "", "month": "2025-04"}, {"category": "anti-social-behaviour", "location_type": "Force", "location": {"latitude": "53.328163", "street": {"id": 1720899, "name": "On or near High Street Mews"}, "longitude": "-1.365715"}, "context": "", "outcome_status": null, "persistent_id": "", "id": 127846630, "location_subtype": "", "month": "2025-04"}, {"category": "anti-social-behaviour", "location_type": "Force", "location": {"latitude": "53.431690", "street": {"id": 1721341, "name": "On or near College Lane"}, "longitude": "-1.354633"}, "context": "", "outcome_status": null, "persistent_id": "", "id": 127836562, "location_subtype": "", "month": "2025-04"}, {"category": "anti-social-behaviour", "location_type": "Force", "location": {"latitude": "53.442556", "street": {"id": 1719980, "name": "On or near Spring Croft"}, "longitude": "-1.385151"}, "context": "", "outcome_status": null, "persistent_id": "", "id": 127846626, "location_subtype": "", "month": "2025-04"}, {"category": "anti-social-behaviour", "location_type": "Force", "location": {"latitude": "53.383871", "street": {"id": 1719359, "name": "On or near High Hazels Mead"}, "longitude": "-1.401316"}, "context": "", "outcome_status": null, "persistent_id": "", "id": 127846622, "location_subtype": "", "month": "2025-04"}, {"category": "anti-social-behaviour", "location_type": "Force", "location": {"latitude": "53.381028", "street": {"id": 1719383, "name": "On or near Lound Road"}, "longitude": "-1.400815"}, "context": "", "outcome_status": null, "persistent_id": "", "id": 127846621, "location_subtype": "", "month": "2025-04"}, {"category": "anti-social-behaviour", "location_type": "Force", "location": {"latitude": "53.343802", "street": {"id": 1721193, "name": "On or near Shopping Area"}, "longitude": "-1.357027"}, "context": "", "outcome_status": null, "persistent_id": "", "id": 127836563, "location_subtype": "", "month": "2025-04"}, {"category": "anti-social-behaviour", "location_type": "Force", "location": {"latitude": "53.368487", "street": {"id": 1719611, "name": "On or near Richmond Grove"}, "longitude": "-1.395265"}, "context": "", "outcome_status": null, "persistent_id": "", "id": 127835009, "location_subtype": "", "month": "2025-04"}, {"category": "anti-social-behaviour", "location_type": "Force", "location": {"latitude": "53.428209", "street": {"id": 1721490, "name": "On or near Sherwood Crescent"}, "longitude": "-1.350878"}, "context": "", "outcome_status": null, "persistent_id": "", "id": 127836565, "location_subtype": "", "month": "2025-04"}, {"category": "anti-social-behaviour", "location_type": "Force", "location": {"latitude": "53.333721", "street": {"id": 1721489, "name": "On or near Pedley Close"}, "longitude": "-1.351097"}, "context": "", "outcome_status": null, "persistent_id": "", "id": 127836566, "location_subtype": "", "month": "2025-04"}, {"category": "anti-social-behaviour", "location_type": "Force", "location": {"latitude": "53.363420", "street": {"id": 1718766, "name": "On or near Woodrove Avenue"}, "longitude": "-1.415683"}, "context": "", "outcome_status": null, "persistent_id": "", "id": 127846620, "location_subtype": "", "month": "2025-04"}, {"category": "anti-social-behaviour", "location_type": "Force", "location": {"latitude": "53.388035", "street": {"id": 1718679, "name": "On or near Balfour Drive"}, "longitude": "-1.418263"}, "context": "", "outcome_status": null, "persistent_id": "", "id": 127846619, "location_subtype": "", "month": "2025-04"}, {"category": "anti-social-behaviour", "location_type": "Force", "location": {"latitude": "53.366473", "street": {"id": 1718106, "name": "On or near Cary Road"}, "longitude": "-1.429768"}, "context": "", "outcome_status": null, "persistent_id": "", "id": 127846617, "location_subtype": "", "month": "2025-04"}, {"category": "anti-social-behaviour", "location_type": "Force", "location": {"latitude": "53.367782", "street": {"id": 1713355, "name": "On or near Steel Road"}, "longitude": "-1.499152"}, "context": "", "outcome_status": null, "persistent_id": "", "id": 127837086, "location_subtype": "", "month": "2025-04"}, {"category": "anti-social-behaviour", "location_type": "Force", "location": {"latitude": "53.403440", "street": {"id": 1716010, "name": "On or near Firshill Rise"}, "longitude": "-1.466110"}, "context": "", "outcome_status": null, "persistent_id": "", "id": 127846604, "location_subtype": "", "month": "2025-04"}, {"category": "anti-social-behaviour", "location_type": "Force", "location": {"latitude": "53.374735", "street": {"id": 1719530, "name": "On or near Richmond Park Crescent"}, "longitude": "-1.397190"}, "context": "", "outcome_status": null, "persistent_id": "", "id": 127835008, "location_subtype": "", "month": "2025-04"}, {"category": "anti-social-behaviour", "location_type": "Force", "location": {"latitude": "53.423132", "street": {"id": 1718397, "name": "On or near Jedburgh Drive"}, "longitude": "-1.423021"}, "context": "", "outcome_status": null, "persistent_id": "", "id": 127838707, "location_subtype": "", "month": "2025-04"}, {"category": "anti-social-behaviour", "location_type": "Force", "location": {"latitude": "53.353119", "street": {"id": 1717524, "name": "On or near Leighton View"}, "longitude": "-1.443768"}, "context": "", "outcome_status": null, "persistent_id": "", "id": 127838699, "location_subtype": "", "month": "2025-04"}, {"category": "anti-social-behaviour", "location_type": "Force", "location": {"latitude": "53.389552", "street": {"id": 1714312, "name": "On or near Parking Area"}, "longitude": "-1.486327"}, "context": "", "outcome_status": null, "persistent_id": "", "id": 127832117, "location_subtype": "", "month": "2025-04"}, {"category": "anti-social-behaviour", "location_type": "Force", "location": {"latitude": "53.354730", "street": {"id": 1714030, "name": "On or near Edgedale Road"}, "longitude": "-1.488428"}, "context": "", "outcome_status": null, "persistent_id": "", "id": 127832116, "location_subtype": "", "month": "2025-04"}, {"category": "anti-social-behaviour", "location_type": "Force", "location": {"latitude": "53.345293", "street": {"id": 1713711, "name": "On or near Supermarket"}, "longitude": "-1.493107"}, "context": "", "outcome_status": null, "persistent_id": "", "id": 127832115, "location_subtype": "", "month": "2025-04"}, {"category": "anti-social-behaviour", "location_type": "Force", "location": {"latitude": "53.427754", "street": {"id": 1713862, "name": "On or near Halifax Road"}, "longitude": "-1.492789"}, "context": "", "outcome_status": null, "persistent_id": "", "id": 127832114, "location_subtype": "", "month": "2025-04"}, {"category": "anti-social-behaviour", "location_type": "Force", "location": {"latitude": "53.344702", "street": {"id": 1714038, "name": "On or near Periwood Avenue"}, "longitude": "-1.489329"}, "context": "", "outcome_status": null, "persistent_id": "", "id": 127837089, "location_subtype": "", "month": "2025-04"}, {"category": "anti-social-behaviour", "location_type": "Force", "location": {"latitude": "53.404464", "street": {"id": 1713558, "name": "On or near Owlerton Green"}, "longitude": "-1.497022"}, "context": "", "outcome_status": null, "persistent_id": "", "id": 127832113, "location_subtype": "", "month": "2025-04"}, {"category": "anti-social-behaviour", "location_type": "Force", "location": {"latitude": "53.422099", "street": {"id": 1715343, "name": "On or near Adrian Crescent"}, "longitude": "-1.471654"}, "context": "", "outcome_status": null, "persistent_id": "", "id": 127846603, "location_subtype": "", "month": "2025-04"}, {"category": "anti-social-behaviour", "location_type": "Force", "location": {"latitude": "53.410993", "street": {"id": 1715826, "name": "On or near Busk Knoll"}, "longitude": "-1.468678"}, "context": "", "outcome_status": null, "persistent_id": "", "id": 127846602, "location_subtype": "", "month": "2025-04"}, {"category": "anti-social-behaviour", "location_type": "Force", "location": {"latitude": "53.463352", "street": {"id": 1715616, "name": "On or near Westbrook Road"}, "longitude": "-1.470646"}, "context": "", "outcome_status": null, "persistent_id": "", "id": 127846601, "location_subtype": "", "month": "2025-04"}, {"category": "anti-social-behaviour", "location_type": "Force", "location": {"latitude": "53.366593", "street": {"id": 1715424, "name": "On or near Highfield Place"}, "longitude": "-1.473498"}, "context": "", "outcome_status": null, "persistent_id": "", "id": 127846600, "location_subtype": "", "month": "2025-04"}, {"category": "anti-social-behaviour", "location_type": "Force", "location": {"latitude": "53.434435", "street": {"id": 1711690, "name": "On or near Chestnut Court"}, "longitude": "-1.537625"}, "context": "", "outcome_status": null, "persistent_id": "", "id": 127836503, "location_subtype": "", "month": "2025-04"}, {"category": "anti-social-behaviour", "location_type": "Force", "location": {"latitude": "53.368196", "street": {"id": 1715358, "name": "On or near Woodhead Road"}, "longitude": "-1.474170"}, "context": "", "outcome_status": null, "persistent_id": "", "id": 127846599, "location_subtype": "", "month": "2025-04"}, {"category": "anti-social-behaviour", "location_type": "Force", "location": {"latitude": "53.365340", "street": {"id": 1712475, "name": "On or near Greystones Hall Road"}, "longitude": "-1.515125"}, "context": "", "outcome_status": null, "persistent_id": "", "id": 127836504, "location_subtype": "", "month": "2025-04"}, {"category": "anti-social-behaviour", "location_type": "Force", "location": {"latitude": "53.393563", "street": {"id": 1712510, "name": "On or near Robertson Drive"}, "longitude": "-1.512745"}, "context": "", "outcome_status": null, "persistent_id": "", "id": 127836505, "location_subtype": "", "month": "2025-04"}, {"category": "anti-social-behaviour", "location_type": "Force", "location": {"latitude": "53.372774", "street": {"id": 1714584, "name": "On or near Harrow Street"}, "longitude": "-1.480982"}, "context": "", "outcome_status": null, "persistent_id": "", "id": 127846597, "location_subtype": "", "month": "2025-04"}, {"category": "anti-social-behaviour", "location_type": "Force", "location": {"latitude": "53.389382", "street": {"id": 1714567, "name": "On or near Supermarket"}, "longitude": "-1.482510"}, "context": "", "outcome_status": null, "persistent_id": "", "id": 127846595, "location_subtype": "", "month": "2025-04"}, {"category": "anti-social-behaviour", "location_type": "Force", "location": {"latitude": "53.385339", "street": {"id": 1712824, "name": "On or near Supermarket"}, "longitude": "-1.507955"}, "context": "", "outcome_status": null, "persistent_id": "", "id": 127836507, "location_subtype": "", "month": "2025-04"}, {"category": "anti-social-behaviour", "location_type": "Force", "location": {"latitude": "53.387744", "street": {"id": 1713835, "name": "On or near Wellfield Close"}, "longitude": "-1.492363"}, "context": "", "outcome_status": null, "persistent_id": "", "id": 127846594, "location_subtype": "", "month": "2025-04"}, {"category": "anti-social-behaviour", "location_type": "Force", "location": {"latitude": "53.347224", "street": {"id": 1713726, "name": "On or near Hutchinson Lane"}, "longitude": "-1.494662"}, "context": "", "outcome_status": null, "persistent_id": "", "id": 127846593, "location_subtype": "", "month": "2025-04"}, {"category": "anti-social-behaviour", "location_type": "Force", "location": {"latitude": "53.356743", "street": {"id": 1719249, "name": "On or near Hollybank Way"}, "longitude": "-1.406745"}, "context": "", "outcome_status": null, "persistent_id": "", "id": 127835006, "location_subtype": "", "month": "2025-04"}, {"category": "anti-social-behaviour", "location_type": "Force", "location": {"latitude": "53.437256", "street": {"id": 1713631, "name": "On or near Grenoside Grange Close"}, "longitude": "-1.495220"}, "context": "", "outcome_status": null, "persistent_id": "", "id": 127846592, "location_subtype": "", "month": "2025-04"}, {"category": "anti-social-behaviour", "location_type": "Force", "location": {"latitude": "53.405150", "street": {"id": 1713495, "name": "On or near Borough Road"}, "longitude": "-1.497571"}, "context": "", "outcome_status": null, "persistent_id": "", "id": 127846590, "location_subtype": "", "month": "2025-04"}, {"category": "anti-social-behaviour", "location_type": "Force", "location": {"latitude": "53.380209", "street": {"id": 1712977, "name": "On or near Elm Gardens"}, "longitude": "-1.504569"}, "context": "", "outcome_status": null, "persistent_id": "", "id": 127836508, "location_subtype": "", "month": "2025-04"}, {"category": "anti-social-behaviour", "location_type": "Force", "location": {"latitude": "53.423900", "street": {"id": 1713363, "name": "On or near Winsford Road"}, "longitude": "-1.499562"}, "context": "", "outcome_status": null, "persistent_id": "", "id": 127832112, "location_subtype": "", "month": "2025-04"}, {"category": "anti-social-behaviour", "location_type": "Force", "location": {"latitude": "53.365134", "street": {"id": 1717343, "name": "On or near Guildford Walk"}, "longitude": "-1.445219"}, "context": "", "outcome_status": null, "persistent_id": "", "id": 127838698, "location_subtype": "", "month": "2025-04"}, {"category": "anti-social-behaviour", "location_type": "Force", "location": {"latitude": "53.374896", "street": {"id": 1713647, "name": "On or near Clarkehouse Road"}, "longitude": "-1.495973"}, "context": "", "outcome_status": null, "persistent_id": "", "id": 127836510, "location_subtype": "", "month": "2025-04"}, {"category": "anti-social-behaviour", "location_type": "Force", "location": {"latitude": "53.388667", "street": {"id": 1714018, "name": "On or near Addy Drive"}, "longitude": "-1.489630"}, "context": "", "outcome_status": null, "persistent_id": "", "id": 127836511, "location_subtype": "", "month": "2025-04"}, {"category": "anti-social-behaviour", "location_type": "Force", "location": {"latitude": "53.360216", "street": {"id": 1714098, "name": "On or near Bank Close"}, "longitude": "-1.487145"}, "context": "", "outcome_status": null, "persistent_id": "", "id": 127836512, "location_subtype": "", "month": "2025-04"}, {"category": "anti-social-behaviour", "location_type": "Force", "location": {"latitude": "53.430800", "street": {"id": 1719182, "name": "On or near Poucher Street"}, "longitude": "-1.406708"}, "context": "", "outcome_status": null, "persistent_id": "", "id": 127835005, "location_subtype": "", "month": "2025-04"}, {"category": "anti-social-behaviour", "location_type": "Force", "location": {"latitude": "53.389382", "street": {"id": 1714567, "name": "On or near Supermarket"}, "longitude": "-1.482510"}, "context": "", "outcome_status": null, "persistent_id": "", "id": 127836516, "location_subtype": "", "month": "2025-04"}, {"category": "anti-social-behaviour", "location_type": "Force", "location": {"latitude": "53.372774", "street": {"id": 1714584, "name": "On or near Harrow Street"}, "longitude": "-1.480982"}, "context": "", "outcome_status": null, "persistent_id": "", "id": 127836518, "location_subtype": "", "month": "2025-04"}, {"category": "anti-social-behaviour", "location_type": "Force", "location": {"latitude": "53.374105", "street": {"id": 1716951, "name": "On or near Tylney Road"}, "longitude": "-1.449086"}, "context": "", "outcome_status": null, "persistent_id": "", "id": 127838694, "location_subtype": "", "month": "2025-04"}, {"category": "anti-social-behaviour", "location_type": "Force", "location": {"latitude": "53.376721", "street": {"id": 1716265, "name": "On or near Cross Turner Street"}, "longitude": "-1.463062"}, "context": "", "outcome_status": null, "persistent_id": "", "id": 127838691, "location_subtype": "", "month": "2025-04"}, {"category": "anti-social-behaviour", "location_type": "Force", "location": {"latitude": "53.388552", "street": {"id": 1714773, "name": "On or near Henry Street"}, "longitude": "-1.479663"}, "context": "", "outcome_status": null, "persistent_id": "", "id": 127836520, "location_subtype": "", "month": "2025-04"}, {"category": "anti-social-behaviour", "location_type": "Force", "location": {"latitude": "53.388552", "street": {"id": 1714773, "name": "On or near Henry Street"}, "longitude": "-1.479663"}, "context": "", "outcome_status": null, "persistent_id": "", "id": 127836521, "location_subtype": "", "month": "2025-04"}, {"category": "anti-social-behaviour", "location_type": "Force", "location": {"latitude": "53.388936", "street": {"id": 1715633, "name": "On or near Kelham Square"}, "longitude": "-1.470877"}, "context": "", "outcome_status": null, "persistent_id": "", "id": 127836524, "location_subtype": "", "month": "2025-04"}, {"category": "anti-social-behaviour", "location_type": "Force", "location": {"latitude": "53.402333", "street": {"id": 1715849, "name": "On or near Firshill Croft"}, "longitude": "-1.467778"}, "context": "", "outcome_status": null, "persistent_id": "", "id": 127836526, "location_subtype": "", "month": "2025-04"}, {"category": "anti-social-behaviour", "location_type": "Force", "location": {"latitude": "53.445560", "street": {"id": 1716303, "name": "On or near Washington Road"}, "longitude": "-1.461833"}, "context": "", "outcome_status": null, "persistent_id": "", "id": 127838690, "location_subtype": "", "month": "2025-04"}, {"category": "anti-social-behaviour", "location_type": "Force", "location": {"latitude": "53.327724", "street": {"id": 1715868, "name": "On or near Shopping Area"}, "longitude": "-1.467567"}, "context": "", "outcome_status": null, "persistent_id": "", "id": 127836528, "location_subtype": "", "month": "2025-04"}, {"category": "anti-social-behaviour", "location_type": "Force", "location": {"latitude": "53.321567", "street": {"id": 1715958, "name": "On or near Whinacre Close"}, "longitude": "-1.467237"}, "context": "", "outcome_status": null, "persistent_id": "", "id": 127836529, "location_subtype": "", "month": "2025-04"}, {"category": "anti-social-behaviour", "location_type": "Force", "location": {"latitude": "53.412339", "street": {"id": 1716242, "name": "On or near Longley Drive"}, "longitude": "-1.463952"}, "context": "", "outcome_status": null, "persistent_id": "", "id": 127836530, "location_subtype": "", "month": "2025-04"}, {"category": "anti-social-behaviour", "location_type": "Force", "location": {"latitude": "53.320232", "street": {"id": 1716047, "name": "On or near White Thorns Close"}, "longitude": "-1.466218"}, "context": "", "outcome_status": null, "persistent_id": "", "id": 127836531, "location_subtype": "", "month": "2025-04"}, {"category": "anti-social-behaviour", "location_type": "Force", "location": {"latitude": "53.412997", "street": {"id": 1716025, "name": "On or near Longley Close"}, "longitude": "-1.464486"}, "context": "", "outcome_status": null, "persistent_id": "", "id": 127836532, "location_subtype": "", "month": "2025-04"}, {"category": "anti-social-behaviour", "location_type": "Force", "location": {"latitude": "53.370621", "street": {"id": 1716334, "name": "On or near Petrol Station"}, "longitude": "-1.461416"}, "context": "", "outcome_status": null, "persistent_id": "", "id": 127836534, "location_subtype": "", "month": "2025-04"}, {"category": "anti-social-behaviour", "location_type": "Force", "location": {"latitude": "53.391589", "street": {"id": 1716562, "name": "On or near Spital Lane"}, "longitude": "-1.459191"}, "context": "", "outcome_status": null, "persistent_id": "", "id": 127836537, "location_subtype": "", "month": "2025-04"}, {"category": "anti-social-behaviour", "location_type": "Force", "location": {"latitude": "53.427931", "street": {"id": 1721893, "name": "On or near Badsley Street"}, "longitude": "-1.342831"}, "context": "", "outcome_status": null, "persistent_id": "", "id": 127836567, "location_subtype": "", "month": "2025-04"}, {"category": "anti-social-behaviour", "location_type": "Force", "location": {"latitude": "53.471442", "street": {"id": 1721916, "name": "On or near Homestead Drive"}, "longitude": "-1.342189"}, "context": "", "outcome_status": null, "persistent_id": "", "id": 127836568, "location_subtype": "", "month": "2025-04"}, {"category": "anti-social-behaviour", "location_type": "Force", "location": {"latitude": "53.372871", "street": {"id": 1722706, "name": "On or near Daniels Drive"}, "longitude": "-1.321102"}, "context": "", "outcome_status": null, "persistent_id": "", "id": 127836569, "location_subtype": "", "month": "2025-04"}, {"category": "anti-social-behaviour", "location_type": "Force", "location": {"latitude": "53.339645", "street": {"id": 1722407, "name": "On or near Meadow Gate Avenue"}, "longitude": "-1.330086"}, "context": "", "outcome_status": null, "persistent_id": "", "id": 127836570, "location_subtype": "", "month": "2025-04"}, {"category": "anti-social-behaviour", "location_type": "Force", "location": {"latitude": "53.368182", "street": {"id": 1722956, "name": "On or near Parking Area"}, "longitude": "-1.315451"}, "context": "", "outcome_status": null, "persistent_id": "", "id": 127836571, "location_subtype": "", "month": "2025-04"}, {"category": "anti-social-behaviour", "location_type": "Force", "location": {"latitude": "53.376878", "street": {"id": 1716067, "name": "On or near Theatre/concert Hall"}, "longitude": "-1.465961"}, "context": "", "outcome_status": null, "persistent_id": "", "id": 127838689, "location_subtype": "", "month": "2025-04"}, {"category": "anti-social-behaviour", "location_type": "Force", "location": {"latitude": "53.349340", "street": {"id": 1719262, "name": "On or near Hopefield Avenue"}, "longitude": "-1.405826"}, "context": "", "outcome_status": null, "persistent_id": "", "id": 127833142, "location_subtype": "", "month": "2025-04"}, {"category": "anti-social-behaviour", "location_type": "Force", "location": {"latitude": "53.377168", "street": {"id": 1713856, "name": "On or near Further/higher Educational Building"}, "longitude": "-1.491113"}, "context": "", "outcome_status": null, "persistent_id": "", "id": 127835935, "location_subtype": "", "month": "2025-04"}, {"category": "anti-social-behaviour", "location_type": "Force", "location": {"latitude": "53.417841", "street": {"id": 1714129, "name": "On or near Pollard Avenue"}, "longitude": "-1.486678"}, "context": "", "outcome_status": null, "persistent_id": "", "id": 127835936, "location_subtype": "", "month": "2025-04"}, {"category": "anti-social-behaviour", "location_type": "Force", "location": {"latitude": "53.371707", "street": {"id": 1714335, "name": "On or near Pear Street"}, "longitude": "-1.485790"}, "context": "", "outcome_status": null, "persistent_id": "", "id": 127835937, "location_subtype": "", "month": "2025-04"}, {"category": "anti-social-behaviour", "location_type": "Force", "location": {"latitude": "53.362082", "street": {"id": 1711433, "name": "On or near Whiteley Lane"}, "longitude": "-1.546297"}, "context": "", "outcome_status": null, "persistent_id": "", "id": 127838679, "location_subtype": "", "month": "2025-04"}, {"category": "anti-social-behaviour", "location_type": "Force", "location": {"latitude": "53.419188", "street": {"id": 1714348, "name": "On or near Dryden Way"}, "longitude": "-1.484390"}, "context": "", "outcome_status": null, "persistent_id": "", "id": 127835938, "location_subtype": "", "month": "2025-04"}, {"category": "anti-social-behaviour", "location_type": "Force", "location": {"latitude": "53.382937", "street": {"id": 1714387, "name": "On or near Brightmore Drive"}, "longitude": "-1.484437"}, "context": "", "outcome_status": null, "persistent_id": "", "id": 127835939, "location_subtype": "", "month": "2025-04"}, {"category": "anti-social-behaviour", "location_type": "Force", "location": {"latitude": "53.364772", "street": {"id": 1714412, "name": "On or near Theatre/concert Hall"}, "longitude": "-1.484796"}, "context": "", "outcome_status": null, "persistent_id": "", "id": 127835940, "location_subtype": "", "month": "2025-04"}, {"category": "anti-social-behaviour", "location_type": "Force", "location": {"latitude": "53.371813", "street": {"id": 1714506, "name": "On or near Summerfield Street"}, "longitude": "-1.483384"}, "context": "", "outcome_status": null, "persistent_id": "", "id": 127835941, "location_subtype": "", "month": "2025-04"}, {"category": "anti-social-behaviour", "location_type": "Force", "location": {"latitude": "53.340232", "street": {"id": 1714730, "name": "On or near Osmaston Road"}, "longitude": "-1.480341"}, "context": "", "outcome_status": null, "persistent_id": "", "id": 127835943, "location_subtype": "", "month": "2025-04"}, {"category": "anti-social-behaviour", "location_type": "Force", "location": {"latitude": "53.392610", "street": {"id": 1716075, "name": "On or near Neville Drive"}, "longitude": "-1.466200"}, "context": "", "outcome_status": null, "persistent_id": "", "id": 127835959, "location_subtype": "", "month": "2025-04"}, {"category": "anti-social-behaviour", "location_type": "Force", "location": {"latitude": "53.323353", "street": {"id": 1716040, "name": "On or near Dyche Close"}, "longitude": "-1.464647"}, "context": "", "outcome_status": null, "persistent_id": "", "id": 127835960, "location_subtype": "", "month": "2025-04"}, {"category": "anti-social-behaviour", "location_type": "Force", "location": {"latitude": "53.332361", "street": {"id": 1716041, "name": "On or near Norton Lane"}, "longitude": "-1.462883"}, "context": "", "outcome_status": null, "persistent_id": "", "id": 127835961, "location_subtype": "", "month": "2025-04"}, {"category": "anti-social-behaviour", "location_type": "Force", "location": {"latitude": "53.361934", "street": {"id": 1717315, "name": "On or near Framlingham Road"}, "longitude": "-1.447079"}, "context": "", "outcome_status": null, "persistent_id": "", "id": 127835962, "location_subtype": "", "month": "2025-04"}, {"category": "anti-social-behaviour", "location_type": "Force", "location": {"latitude": "53.358445", "street": {"id": 1716795, "name": "On or near Lichford Road"}, "longitude": "-1.454607"}, "context": "", "outcome_status": null, "persistent_id": "", "id": 127834993, "location_subtype": "", "month": "2025-04"}, {"category": "anti-social-behaviour", "location_type": "Force", "location": {"latitude": "53.357235", "street": {"id": 1717392, "name": "On or near Daresbury View"}, "longitude": "-1.445547"}, "context": "", "outcome_status": null, "persistent_id": "", "id": 127835963, "location_subtype": "", "month": "2025-04"}, {"category": "anti-social-behaviour", "location_type": "Force", "location": {"latitude": "53.426278", "street": {"id": 1717481, "name": "On or near Bellhouse Mews"}, "longitude": "-1.443867"}, "context": "", "outcome_status": null, "persistent_id": "", "id": 127835964, "location_subtype": "", "month": "2025-04"}, {"category": "anti-social-behaviour", "location_type": "Force", "location": {"latitude": "53.376494", "street": {"id": 1717678, "name": "On or near Maltravers Close"}, "longitude": "-1.440818"}, "context": "", "outcome_status": null, "persistent_id": "", "id": 127835965, "location_subtype": "", "month": "2025-04"}, {"category": "anti-social-behaviour", "location_type": "Force", "location": {"latitude": "53.372942", "street": {"id": 1717738, "name": "On or near Manor Park Court"}, "longitude": "-1.436746"}, "context": "", "outcome_status": null, "persistent_id": "", "id": 127835966, "location_subtype": "", "month": "2025-04"}, {"category": "anti-social-behaviour", "location_type": "Force", "location": {"latitude": "53.364221", "street": {"id": 1718095, "name": "On or near Babington Court"}, "longitude": "-1.430730"}, "context": "", "outcome_status": null, "persistent_id": "", "id": 127835967, "location_subtype": "", "month": "2025-04"}, {"category": "anti-social-behaviour", "location_type": "Force", "location": {"latitude": "53.415815", "street": {"id": 1717949, "name": "On or near Lavender Way"}, "longitude": "-1.434239"}, "context": "", "outcome_status": null, "persistent_id": "", "id": 127838159, "location_subtype": "", "month": "2025-04"}, {"category": "anti-social-behaviour", "location_type": "Force", "location": {"latitude": "53.368026", "street": {"id": 1718936, "name": "On or near Angleton Gardens"}, "longitude": "-1.412795"}, "context": "", "outcome_status": null, "persistent_id": "", "id": 127835969, "location_subtype": "", "month": "2025-04"}, {"category": "anti-social-behaviour", "location_type": "Force", "location": {"latitude": "53.350268", "street": {"id": 1717785, "name": "On or near Spring Close View"}, "longitude": "-1.437811"}, "context": "", "outcome_status": null, "persistent_id": "", "id": 127838156, "location_subtype": "", "month": "2025-04"}, {"category": "anti-social-behaviour", "location_type": "Force", "location": {"latitude": "53.328535", "street": {"id": 1721152, "name": "On or near Ruby Lane"}, "longitude": "-1.359569"}, "context": "", "outcome_status": null, "persistent_id": "", "id": 127835986, "location_subtype": "", "month": "2025-04"}, {"category": "anti-social-behaviour", "location_type": "Force", "location": {"latitude": "53.443226", "street": {"id": 1722686, "name": "On or near Petrol Station"}, "longitude": "-1.321261"}, "context": "", "outcome_status": null, "persistent_id": "", "id": 127832667, "location_subtype": "", "month": "2025-04"}, {"category": "anti-social-behaviour", "location_type": "Force", "location": {"latitude": "53.332072", "street": {"id": 1721519, "name": "On or near Inkersall Drive"}, "longitude": "-1.350476"}, "context": "", "outcome_status": null, "persistent_id": "", "id": 127835987, "location_subtype": "", "month": "2025-04"}, {"category": "anti-social-behaviour", "location_type": "Force", "location": {"latitude": "53.331036", "street": {"id": 1721562, "name": "On or near Westfield Centre"}, "longitude": "-1.349996"}, "context": "", "outcome_status": null, "persistent_id": "", "id": 127835988, "location_subtype": "", "month": "2025-04"}, {"category": "anti-social-behaviour", "location_type": "Force", "location": {"latitude": "53.433463", "street": {"id": 1721655, "name": "On or near Ridge Road"}, "longitude": "-1.346719"}, "context": "", "outcome_status": null, "persistent_id": "", "id": 127835989, "location_subtype": "", "month": "2025-04"}, {"category": "anti-social-behaviour", "location_type": "Force", "location": {"latitude": "53.447991", "street": {"id": 1721756, "name": "On or near Rail Mill Way"}, "longitude": "-1.343831"}, "context": "", "outcome_status": null, "persistent_id": "", "id": 127846145, "location_subtype": "", "month": "2025-04"}, {"category": "anti-social-behaviour", "location_type": "Force", "location": {"latitude": "53.436565", "street": {"id": 1721739, "name": "On or near Petrol Station"}, "longitude": "-1.346852"}, "context": "", "outcome_status": null, "persistent_id": "", "id": 127835990, "location_subtype": "", "month": "2025-04"}, {"category": "anti-social-behaviour", "location_type": "Force", "location": {"latitude": "53.331036", "street": {"id": 1721562, "name": "On or near Westfield Centre"}, "longitude": "-1.349996"}, "context": "", "outcome_status": null, "persistent_id": "", "id": 127835991, "location_subtype": "", "month": "2025-04"}, {"category": "anti-social-behaviour", "location_type": "Force", "location": {"latitude": "53.343419", "street": {"id": 1721903, "name": "On or near Sothall Court"}, "longitude": "-1.342809"}, "context": "", "outcome_status": null, "persistent_id": "", "id": 127835992, "location_subtype": "", "month": "2025-04"}, {"category": "anti-social-behaviour", "location_type": "Force", "location": {"latitude": "53.345229", "street": {"id": 1721943, "name": "On or near Newbould Crescent"}, "longitude": "-1.340047"}, "context": "", "outcome_status": null, "persistent_id": "", "id": 127835993, "location_subtype": "", "month": "2025-04"}, {"category": "anti-social-behaviour", "location_type": "Force", "location": {"latitude": "53.339645", "street": {"id": 1722407, "name": "On or near Meadow Gate Avenue"}, "longitude": "-1.330086"}, "context": "", "outcome_status": null, "persistent_id": "", "id": 127835995, "location_subtype": "", "month": "2025-04"}, {"category": "anti-social-behaviour", "location_type": "Force", "location": {"latitude": "53.325267", "street": {"id": 1716332, "name": "On or near Hazlebarrow Road"}, "longitude": "-1.462461"}, "context": "", "outcome_status": null, "persistent_id": "", "id": 127834992, "location_subtype": "", "month": "2025-04"}, {"category": "anti-social-behaviour", "location_type": "Force", "location": {"latitude": "53.399124", "street": {"id": 1714310, "name": "On or near Mount Road"}, "longitude": "-1.479835"}, "context": "", "outcome_status": null, "persistent_id": "", "id": 127846102, "location_subtype": "", "month": "2025-04"}, {"category": "anti-social-behaviour", "location_type": "Force", "location": {"latitude": "53.321802", "street": {"id": 1714162, "name": "On or near Atlantic Crescent"}, "longitude": "-1.487936"}, "context": "", "outcome_status": null, "persistent_id": "", "id": 127846100, "location_subtype": "", "month": "2025-04"}, {"category": "anti-social-behaviour", "location_type": "Force", "location": {"latitude": "53.385474", "street": {"id": 1714255, "name": "On or near St Stephen's Walk"}, "longitude": "-1.487052"}, "context": "", "outcome_status": null, "persistent_id": "", "id": 127846099, "location_subtype": "", "month": "2025-04"}, {"category": "anti-social-behaviour", "location_type": "Force", "location": {"latitude": "53.366125", "street": {"id": 1714116, "name": "On or near Sharrow View"}, "longitude": "-1.487841"}, "context": "", "outcome_status": null, "persistent_id": "", "id": 127846098, "location_subtype": "", "month": "2025-04"}, {"category": "anti-social-behaviour", "location_type": "Force", "location": {"latitude": "53.320133", "street": {"id": 1714008, "name": "On or near Gresley Road"}, "longitude": "-1.488661"}, "context": "", "outcome_status": null, "persistent_id": "", "id": 127846097, "location_subtype": "", "month": "2025-04"}, {"category": "anti-social-behaviour", "location_type": "Force", "location": {"latitude": "53.434223", "street": {"id": 1713771, "name": "On or near Halifax Road"}, "longitude": "-1.492050"}, "context": "", "outcome_status": null, "persistent_id": "", "id": 127846096, "location_subtype": "", "month": "2025-04"}, {"category": "anti-social-behaviour", "location_type": "Force", "location": {"latitude": "53.392740", "street": {"id": 1713877, "name": "On or near Wales Place"}, "longitude": "-1.492108"}, "context": "", "outcome_status": null, "persistent_id": "", "id": 127846095, "location_subtype": "", "month": "2025-04"}, {"category": "anti-social-behaviour", "location_type": "Force", "location": {"latitude": "53.437256", "street": {"id": 1713631, "name": "On or near Grenoside Grange Close"}, "longitude": "-1.495220"}, "context": "", "outcome_status": null, "persistent_id": "", "id": 127846094, "location_subtype": "", "month": "2025-04"}, {"category": "anti-social-behaviour", "location_type": "Force", "location": {"latitude": "53.420587", "street": {"id": 1713600, "name": "On or near Heath Road"}, "longitude": "-1.496381"}, "context": "", "outcome_status": null, "persistent_id": "", "id": 127846093, "location_subtype": "", "month": "2025-04"}, {"category": "anti-social-behaviour", "location_type": "Force", "location": {"latitude": "53.402644", "street": {"id": 1713181, "name": "On or near Hillsborough Road"}, "longitude": "-1.502338"}, "context": "", "outcome_status": null, "persistent_id": "", "id": 127846091, "location_subtype": "", "month": "2025-04"}, {"category": "anti-social-behaviour", "location_type": "Force", "location": {"latitude": "53.422075", "street": {"id": 1722334, "name": "On or near Parking Area"}, "longitude": "-1.332162"}, "context": "", "outcome_status": null, "persistent_id": "", "id": 127832665, "location_subtype": "", "month": "2025-04"}, {"category": "anti-social-behaviour", "location_type": "Force", "location": {"latitude": "53.451131", "street": {"id": 1722071, "name": "On or near Durham Way"}, "longitude": "-1.337955"}, "context": "", "outcome_status": null, "persistent_id": "", "id": 127832664, "location_subtype": "", "month": "2025-04"}, {"category": "anti-social-behaviour", "location_type": "Force", "location": {"latitude": "53.366989", "street": {"id": 1721210, "name": "On or near Hail Mary Drive"}, "longitude": "-1.357970"}, "context": "", "outcome_status": null, "persistent_id": "", "id": 127832662, "location_subtype": "", "month": "2025-04"}, {"category": "anti-social-behaviour", "location_type": "Force", "location": {"latitude": "53.431910", "street": {"id": 1721188, "name": "On or near Bridgegate"}, "longitude": "-1.357098"}, "context": "", "outcome_status": null, "persistent_id": "", "id": 127832660, "location_subtype": "", "month": "2025-04"}, {"category": "anti-social-behaviour", "location_type": "Force", "location": {"latitude": "53.365585", "street": {"id": 1719424, "name": "On or near Richmond Road"}, "longitude": "-1.400866"}, "context": "", "outcome_status": null, "persistent_id": "", "id": 127833144, "location_subtype": "", "month": "2025-04"}, {"category": "anti-social-behaviour", "location_type": "Force", "location": {"latitude": "53.415525", "street": {"id": 1721100, "name": "On or near Rother Road"}, "longitude": "-1.360625"}, "context": "", "outcome_status": null, "persistent_id": "", "id": 127832659, "location_subtype": "", "month": "2025-04"}, {"category": "anti-social-behaviour", "location_type": "Force", "location": {"latitude": "53.428519", "street": {"id": 1719783, "name": "On or near Edale Road"}, "longitude": "-1.390997"}, "context": "", "outcome_status": null, "persistent_id": "", "id": 127832656, "location_subtype": "", "month": "2025-04"}, {"category": "anti-social-behaviour", "location_type": "Force", "location": {"latitude": "53.356975", "street": {"id": 1719081, "name": "On or near Hollybank Road"}, "longitude": "-1.410107"}, "context": "", "outcome_status": null, "persistent_id": "", "id": 127832655, "location_subtype": "", "month": "2025-04"}, {"category": "anti-social-behaviour", "location_type": "Force", "location": {"latitude": "53.369938", "street": {"id": 1718689, "name": "On or near Vikinglea Glade"}, "longitude": "-1.417698"}, "context": "", "outcome_status": null, "persistent_id": "", "id": 127832654, "location_subtype": "", "month": "2025-04"}, {"category": "anti-social-behaviour", "location_type": "Force", "location": {"latitude": "53.344148", "street": {"id": 1717858, "name": "On or near Morland Close"}, "longitude": "-1.434256"}, "context": "", "outcome_status": null, "persistent_id": "", "id": 127832653, "location_subtype": "", "month": "2025-04"}, {"category": "anti-social-behaviour", "location_type": "Force", "location": {"latitude": "53.347224", "street": {"id": 1715552, "name": "On or near Norton Lees Crescent"}, "longitude": "-1.471844"}, "context": "", "outcome_status": null, "persistent_id": "", "id": 127834991, "location_subtype": "", "month": "2025-04"}, {"category": "anti-social-behaviour", "location_type": "Force", "location": {"latitude": "53.419877", "street": {"id": 1717900, "name": "On or near Leedham Close"}, "longitude": "-1.433959"}, "context": "", "outcome_status": null, "persistent_id": "", "id": 127832652, "location_subtype": "", "month": "2025-04"}, {"category": "anti-social-behaviour", "location_type": "Force", "location": {"latitude": "53.366697", "street": {"id": 1719439, "name": "On or near Pickard Drive"}, "longitude": "-1.400294"}, "context": "", "outcome_status": null, "persistent_id": "", "id": 127833145, "location_subtype": "", "month": "2025-04"}, {"category": "anti-social-behaviour", "location_type": "Force", "location": {"latitude": "53.377590", "street": {"id": 1718011, "name": "On or near Seaton Way"}, "longitude": "-1.433242"}, "context": "", "outcome_status": null, "persistent_id": "", "id": 127832651, "location_subtype": "", "month": "2025-04"}, {"category": "anti-social-behaviour", "location_type": "Force", "location": {"latitude": "53.372232", "street": {"id": 1717239, "name": "On or near Holdings Road"}, "longitude": "-1.446405"}, "context": "", "outcome_status": null, "persistent_id": "", "id": 127832649, "location_subtype": "", "month": "2025-04"}, {"category": "anti-social-behaviour", "location_type": "Force", "location": {"latitude": "53.312831", "street": {"id": 1711925, "name": "On or near Aldam Croft"}, "longitude": "-1.529559"}, "context": "", "outcome_status": null, "persistent_id": "", "id": 127832632, "location_subtype": "", "month": "2025-04"}, {"category": "anti-social-behaviour", "location_type": "Force", "location": {"latitude": "53.393633", "street": {"id": 1711435, "name": "On or near Sports/recreation Area"}, "longitude": "-1.547141"}, "context": "", "outcome_status": null, "persistent_id": "", "id": 127832631, "location_subtype": "", "month": "2025-04"}, {"category": "anti-social-behaviour", "location_type": "Force", "location": {"latitude": "53.341362", "street": {"id": 1717653, "name": "On or near Sports/recreation Area"}, "longitude": "-1.439373"}, "context": "", "outcome_status": null, "persistent_id": "", "id": 127838155, "location_subtype": "", "month": "2025-04"}, {"category": "anti-social-behaviour", "location_type": "Force", "location": {"latitude": "53.359395", "street": {"id": 1717670, "name": "On or near Errington Crescent"}, "longitude": "-1.440440"}, "context": "", "outcome_status": null, "persistent_id": "", "id": 127838154, "location_subtype": "", "month": "2025-04"}, {"category": "anti-social-behaviour", "location_type": "Force", "location": {"latitude": "53.368807", "street": {"id": 1717555, "name": "On or near St Aidan's Way"}, "longitude": "-1.442496"}, "context": "", "outcome_status": null, "persistent_id": "", "id": 127838153, "location_subtype": "", "month": "2025-04"}, {"category": "anti-social-behaviour", "location_type": "Force", "location": {"latitude": "53.356482", "street": {"id": 1713130, "name": "On or near Wyatt Avenue"}, "longitude": "-1.503326"}, "context": "", "outcome_status": null, "persistent_id": "", "id": 127832636, "location_subtype": "", "month": "2025-04"}, {"category": "anti-social-behaviour", "location_type": "Force", "location": {"latitude": "53.432243", "street": {"id": 1719751, "name": "On or near Dycott Road"}, "longitude": "-1.391410"}, "context": "", "outcome_status": null, "persistent_id": "", "id": 127833150, "location_subtype": "", "month": "2025-04"}, {"category": "anti-social-behaviour", "location_type": "Force", "location": {"latitude": "53.348367", "street": {"id": 1720595, "name": "On or near Rainbow Way"}, "longitude": "-1.370238"}, "context": "", "outcome_status": null, "persistent_id": "", "id": 127846141, "location_subtype": "", "month": "2025-04"}, {"category": "anti-social-behaviour", "location_type": "Force", "location": {"latitude": "53.355753", "street": {"id": 1712266, "name": "On or near Marsh House Road"}, "longitude": "-1.520688"}, "context": "", "outcome_status": null, "persistent_id": "", "id": 127832109, "location_subtype": "", "month": "2025-04"}, {"category": "anti-social-behaviour", "location_type": "Force", "location": {"latitude": "53.450855", "street": {"id": 1720567, "name": "On or near Munsbrough Rise"}, "longitude": "-1.371644"}, "context": "", "outcome_status": null, "persistent_id": "", "id": 127846140, "location_subtype": "", "month": "2025-04"}, {"category": "anti-social-behaviour", "location_type": "Force", "location": {"latitude": "53.357283", "street": {"id": 1720545, "name": "On or near Skelton Grove"}, "longitude": "-1.373412"}, "context": "", "outcome_status": null, "persistent_id": "", "id": 127846139, "location_subtype": "", "month": "2025-04"}, {"category": "anti-social-behaviour", "location_type": "Force", "location": {"latitude": "53.358179", "street": {"id": 1715334, "name": "On or near Plantation Road"}, "longitude": "-1.473497"}, "context": "", "outcome_status": null, "persistent_id": "", "id": 127834987, "location_subtype": "", "month": "2025-04"}, {"category": "anti-social-behaviour", "location_type": "Force", "location": {"latitude": "53.418961", "street": {"id": 1717953, "name": "On or near Tenterden Road"}, "longitude": "-1.434182"}, "context": "", "outcome_status": null, "persistent_id": "", "id": 127846128, "location_subtype": "", "month": "2025-04"}, {"category": "anti-social-behaviour", "location_type": "Force", "location": {"latitude": "53.342227", "street": {"id": 1717570, "name": "On or near Raeburn Close"}, "longitude": "-1.442467"}, "context": "", "outcome_status": null, "persistent_id": "", "id": 127846123, "location_subtype": "", "month": "2025-04"}, {"category": "anti-social-behaviour", "location_type": "Force", "location": {"latitude": "53.426423", "street": {"id": 1721594, "name": "On or near Horace Street"}, "longitude": "-1.349641"}, "context": "", "outcome_status": null, "persistent_id": "", "id": 127835016, "location_subtype": "", "month": "2025-04"}, {"category": "anti-social-behaviour", "location_type": "Force", "location": {"latitude": "53.348099", "street": {"id": 1717331, "name": "On or near Overend Way"}, "longitude": "-1.446717"}, "context": "", "outcome_status": null, "persistent_id": "", "id": 127846122, "location_subtype": "", "month": "2025-04"}, {"category": "anti-social-behaviour", "location_type": "Force", "location": {"latitude": "53.401411", "street": {"id": 1716845, "name": "On or near Blayton Road"}, "longitude": "-1.454584"}, "context": "", "outcome_status": null, "persistent_id": "", "id": 127846121, "location_subtype": "", "month": "2025-04"}, {"category": "anti-social-behaviour", "location_type": "Force", "location": {"latitude": "53.391608", "street": {"id": 1716716, "name": "On or near Hallcar Street"}, "longitude": "-1.457416"}, "context": "", "outcome_status": null, "persistent_id": "", "id": 127846120, "location_subtype": "", "month": "2025-04"}, {"category": "anti-social-behaviour", "location_type": "Force", "location": {"latitude": "53.412702", "street": {"id": 1716730, "name": "On or near Fox Way"}, "longitude": "-1.456892"}, "context": "", "outcome_status": null, "persistent_id": "", "id": 127846119, "location_subtype": "", "month": "2025-04"}, {"category": "anti-social-behaviour", "location_type": "Force", "location": {"latitude": "53.458830", "street": {"id": 1716539, "name": "On or near Woodburn Drive"}, "longitude": "-1.458412"}, "context": "", "outcome_status": null, "persistent_id": "", "id": 127846114, "location_subtype": "", "month": "2025-04"}, {"category": "anti-social-behaviour", "location_type": "Force", "location": {"latitude": "53.383549", "street": {"id": 1716197, "name": "On or near Shopping Area"}, "longitude": "-1.463989"}, "context": "", "outcome_status": null, "persistent_id": "", "id": 127846113, "location_subtype": "", "month": "2025-04"}, {"category": "anti-social-behaviour", "location_type": "Force", "location": {"latitude": "53.379702", "street": {"id": 1716052, "name": "On or near Arundel Gate"}, "longitude": "-1.466241"}, "context": "", "outcome_status": null, "persistent_id": "", "id": 127846112, "location_subtype": "", "month": "2025-04"}, {"category": "anti-social-behaviour", "location_type": "Force", "location": {"latitude": "53.435181", "street": {"id": 1716202, "name": "On or near Tunwell Drive"}, "longitude": "-1.464418"}, "context": "", "outcome_status": null, "persistent_id": "", "id": 127846111, "location_subtype": "", "month": "2025-04"}, {"category": "anti-social-behaviour", "location_type": "Force", "location": {"latitude": "53.321567", "street": {"id": 1715958, "name": "On or near Whinacre Close"}, "longitude": "-1.467237"}, "context": "", "outcome_status": null, "persistent_id": "", "id": 127846110, "location_subtype": "", "month": "2025-04"}, {"category": "anti-social-behaviour", "location_type": "Force", "location": {"latitude": "53.382912", "street": {"id": 1716031, "name": "On or near High Street"}, "longitude": "-1.466381"}, "context": "", "outcome_status": null, "persistent_id": "", "id": 127846109, "location_subtype": "", "month": "2025-04"}, {"category": "anti-social-behaviour", "location_type": "Force", "location": {"latitude": "53.339451", "street": {"id": 1715331, "name": "On or near Bole Hill"}, "longitude": "-1.472466"}, "context": "", "outcome_status": null, "persistent_id": "", "id": 127846108, "location_subtype": "", "month": "2025-04"}, {"category": "anti-social-behaviour", "location_type": "Force", "location": {"latitude": "53.322555", "street": {"id": 1715316, "name": "On or near Chesterfield Road South"}, "longitude": "-1.473049"}, "context": "", "outcome_status": null, "persistent_id": "", "id": 127846107, "location_subtype": "", "month": "2025-04"}, {"category": "anti-social-behaviour", "location_type": "Force", "location": {"latitude": "53.402860", "street": {"id": 1715223, "name": "On or near Sports/recreation Area"}, "longitude": "-1.474001"}, "context": "", "outcome_status": null, "persistent_id": "", "id": 127846106, "location_subtype": "", "month": "2025-04"}, {"category": "anti-social-behaviour", "location_type": "Force", "location": {"latitude": "53.443574", "street": {"id": 1722493, "name": "On or near Aldwarke Lane"}, "longitude": "-1.322295"}, "context": "", "outcome_status": null, "persistent_id": "", "id": 127832165, "location_subtype": "", "month": "2025-04"}, {"category": "anti-social-behaviour", "location_type": "Force", "location": {"latitude": "53.420811", "street": {"id": 1714131, "name": "On or near Wordsworth Drive"}, "longitude": "-1.487681"}, "context": "", "outcome_status": null, "persistent_id": "", "id": 127834983, "location_subtype": "", "month": "2025-04"}, {"category": "anti-social-behaviour", "location_type": "Force", "location": {"latitude": "53.368414", "street": {"id": 1718811, "name": "On or near Angleton Close"}, "longitude": "-1.414758"}, "context": "", "outcome_status": null, "persistent_id": "", "id": 127845033, "location_subtype": "", "month": "2025-04"}, {"category": "anti-social-behaviour", "location_type": "Force", "location": {"latitude": "53.373102", "street": {"id": 1718687, "name": "On or near Prince Of Wales Road"}, "longitude": "-1.417715"}, "context": "", "outcome_status": null, "persistent_id": "", "id": 127845032, "location_subtype": "", "month": "2025-04"}, {"category": "anti-social-behaviour", "location_type": "Force", "location": {"latitude": "53.369359", "street": {"id": 1718532, "name": "On or near Circle Close"}, "longitude": "-1.420516"},