[{"category": "anti-social-behaviour", "location_type": "Force", "location": {"latitude": "53.428108", "street": {"id": 1714149, "name": "On or near Supermarket"}, "longitude": "-1.487202"}, "context": "", "outcome_status": null, "persistent_id": "", "id": 116749699, "location_subtype": "", "month": "2024-02"}, {"category": "anti-social-behaviour", "location_type": "Force", "location": {"latitude": "53.384691", "street": {"id": 1716246, "name": "On or near Waingate"}, "longitude": "-1.464330"}, "context": "", "outcome_status": null, "persistent_id": "", "id": 116749729, "location_subtype": "", "month": "2024-02"}, {"category": "anti-social-behaviour", "location_type": "Force", "location": {"latitude": "53.418140", "street": {"id": 1716671, "name": "On or near Further/higher Educational Building"}, "longitude": "-1.455932"}, "context": "", "outcome_status": null, "persistent_id": "", "id": 116749730, "location_subtype": "", "month": "2024-02"}, {"category": "anti-social-behaviour", "location_type": "Force", "location": {"latitude": "53.433892", "street": {"id": 1717718, "name": "On or near Woolley Wood Road"}, "longitude": "-1.438259"}, "context": "", "outcome_status": null, "persistent_id": "", "id": 116749732, "location_subtype": "", "month": "2024-02"}, {"category": "anti-social-behaviour", "location_type": "Force", "location": {"latitude": "53.360699", "street": {"id": 1717839, "name": "On or near Aylward Close"}, "longitude": "-1.436712"}, "context": "", "outcome_status": null, "persistent_id": "", "id": 116749734, "location_subtype": "", "month": "2024-02"}, {"category": "anti-social-behaviour", "location_type": "Force", "location": {"latitude": "53.360989", "street": {"id": 1718022, "name": "On or near Dagnam Drive"}, "longitude": "-1.431509"}, "context": "", "outcome_status": null, "persistent_id": "", "id": 116749736, "location_subtype": "", "month": "2024-02"}, {"category": "anti-social-behaviour", "location_type": "Force", "location": {"latitude": "53.367301", "street": {"id": 1718039, "name": "On or near Cary Grove"}, "longitude": "-1.431816"}, "context": "", "outcome_status": null, "persistent_id": "", "id": 116749738, "location_subtype": "", "month": "2024-02"}, {"category": "anti-social-behaviour", "location_type": "Force", "location": {"latitude": "53.415871", "street": {"id": 1721149, "name": "On or near Oak Tree Court"}, "longitude": "-1.358107"}, "context": "", "outcome_status": null, "persistent_id": "", "id": 116749752, "location_subtype": "", "month": "2024-02"}, {"category": "anti-social-behaviour", "location_type": "Force", "location": {"latitude": "53.409416", "street": {"id": 1722491, "name": "On or near Lease Gate Road"}, "longitude": "-1.326899"}, "context": "", "outcome_status": null, "persistent_id": "", "id": 116749755, "location_subtype": "", "month": "2024-02"}, {"category": "anti-social-behaviour", "location_type": "Force", "location": {"latitude": "53.420239", "street": {"id": 1723223, "name": "On or near Butterfly Nook"}, "longitude": "-1.308115"}, "context": "", "outcome_status": null, "persistent_id": "", "id": 116749759, "location_subtype": "", "month": "2024-02"}, {"category": "anti-social-behaviour", "location_type": "Force", "location": {"latitude": "53.371755", "street": {"id": 1719669, "name": "On or near Parsley Hay Close"}, "longitude": "-1.392754"}, "context": "", "outcome_status": null, "persistent_id": "", "id": 116750754, "location_subtype": "", "month": "2024-02"}, {"category": "anti-social-behaviour", "location_type": "Force", "location": {"latitude": "53.364911", "street": {"id": 1718927, "name": "On or near Nodder Road"}, "longitude": "-1.413604"}, "context": "", "outcome_status": null, "persistent_id": "", "id": 116750748, "location_subtype": "", "month": "2024-02"}, {"category": "anti-social-behaviour", "location_type": "Force", "location": {"latitude": "53.352170", "street": {"id": 1717410, "name": "On or near Spotswood Drive"}, "longitude": "-1.444771"}, "context": "", "outcome_status": null, "persistent_id": "", "id": 116750745, "location_subtype": "", "month": "2024-02"}, {"category": "anti-social-behaviour", "location_type": "Force", "location": {"latitude": "53.381892", "street": {"id": 1716577, "name": "On or near Anson Street"}, "longitude": "-1.459464"}, "context": "", "outcome_status": null, "persistent_id": "", "id": 116750736, "location_subtype": "", "month": "2024-02"}, {"category": "anti-social-behaviour", "location_type": "Force", "location": {"latitude": "53.359651", "street": {"id": 1716188, "name": "On or near Denson Close"}, "longitude": "-1.464839"}, "context": "", "outcome_status": null, "persistent_id": "", "id": 116750734, "location_subtype": "", "month": "2024-02"}, {"category": "anti-social-behaviour", "location_type": "Force", "location": {"latitude": "53.359355", "street": {"id": 1716007, "name": "On or near Cambridge Road"}, "longitude": "-1.466931"}, "context": "", "outcome_status": null, "persistent_id": "", "id": 116750733, "location_subtype": "", "month": "2024-02"}, {"category": "anti-social-behaviour", "location_type": "Force", "location": {"latitude": "53.437271", "street": {"id": 1714929, "name": "On or near Yew Lane"}, "longitude": "-1.475546"}, "context": "", "outcome_status": null, "persistent_id": "", "id": 116750731, "location_subtype": "", "month": "2024-02"}, {"category": "anti-social-behaviour", "location_type": "Force", "location": {"latitude": "53.344588", "street": {"id": 1714784, "name": "On or near The Dale"}, "longitude": "-1.479597"}, "context": "", "outcome_status": null, "persistent_id": "", "id": 116750729, "location_subtype": "", "month": "2024-02"}, {"category": "anti-social-behaviour", "location_type": "Force", "location": {"latitude": "53.360602", "street": {"id": 1714300, "name": "On or near Joshua Road"}, "longitude": "-1.485007"}, "context": "", "outcome_status": null, "persistent_id": "", "id": 116750722, "location_subtype": "", "month": "2024-02"}, {"category": "anti-social-behaviour", "location_type": "Force", "location": {"latitude": "53.346236", "street": {"id": 1714125, "name": "On or near Sports/recreation Area"}, "longitude": "-1.488262"}, "context": "", "outcome_status": null, "persistent_id": "", "id": 116750721, "location_subtype": "", "month": "2024-02"}, {"category": "anti-social-behaviour", "location_type": "Force", "location": {"latitude": "53.383386", "street": {"id": 1713949, "name": "On or near Mushroom Lane"}, "longitude": "-1.490686"}, "context": "", "outcome_status": null, "persistent_id": "", "id": 116750719, "location_subtype": "", "month": "2024-02"}, {"category": "anti-social-behaviour", "location_type": "Force", "location": {"latitude": "53.412806", "street": {"id": 1712719, "name": "On or near Darwin Road"}, "longitude": "-1.510103"}, "context": "", "outcome_status": null, "persistent_id": "", "id": 116750713, "location_subtype": "", "month": "2024-02"}, {"category": "anti-social-behaviour", "location_type": "Force", "location": {"latitude": "53.418663", "street": {"id": 1712685, "name": "On or near Winn Gardens"}, "longitude": "-1.511450"}, "context": "", "outcome_status": null, "persistent_id": "", "id": 116750712, "location_subtype": "", "month": "2024-02"}, {"category": "anti-social-behaviour", "location_type": "Force", "location": {"latitude": "53.413030", "street": {"id": 1712411, "name": "On or near Airedale Road"}, "longitude": "-1.516479"}, "context": "", "outcome_status": null, "persistent_id": "", "id": 116750710, "location_subtype": "", "month": "2024-02"}, {"category": "anti-social-behaviour", "location_type": "Force", "location": {"latitude": "53.363421", "street": {"id": 1711414, "name": "On or near Brooklands Avenue"}, "longitude": "-1.548417"}, "context": "", "outcome_status": null, "persistent_id": "", "id": 116750709, "location_subtype": "", "month": "2024-02"}, {"category": "anti-social-behaviour", "location_type": "Force", "location": {"latitude": "53.376721", "street": {"id": 1716265, "name": "On or near Cross Turner Street"}, "longitude": "-1.463062"}, "context": "", "outcome_status": null, "persistent_id": "", "id": 116747487, "location_subtype": "", "month": "2024-02"}, {"category": "anti-social-behaviour", "location_type": "Force", "location": {"latitude": "53.461650", "street": {"id": 1715968, "name": "On or near Market Place"}, "longitude": "-1.465832"}, "context": "", "outcome_status": null, "persistent_id": "", "id": 116747485, "location_subtype": "", "month": "2024-02"}, {"category": "anti-social-behaviour", "location_type": "Force", "location": {"latitude": "53.441858", "street": {"id": 1715854, "name": "On or near St Mary's Close"}, "longitude": "-1.468203"}, "context": "", "outcome_status": null, "persistent_id": "", "id": 116747484, "location_subtype": "", "month": "2024-02"}, {"category": "anti-social-behaviour", "location_type": "Force", "location": {"latitude": "53.381414", "street": {"id": 1715639, "name": "On or near Orchard Lane"}, "longitude": "-1.471121"}, "context": "", "outcome_status": null, "persistent_id": "", "id": 116747483, "location_subtype": "", "month": "2024-02"}, {"category": "anti-social-behaviour", "location_type": "Force", "location": {"latitude": "53.382937", "street": {"id": 1714387, "name": "On or near Brightmore Drive"}, "longitude": "-1.484437"}, "context": "", "outcome_status": null, "persistent_id": "", "id": 116747470, "location_subtype": "", "month": "2024-02"}, {"category": "anti-social-behaviour", "location_type": "Force", "location": {"latitude": "53.419188", "street": {"id": 1714348, "name": "On or near Dryden Way"}, "longitude": "-1.484390"}, "context": "", "outcome_status": null, "persistent_id": "", "id": 116747469, "location_subtype": "", "month": "2024-02"}, {"category": "anti-social-behaviour", "location_type": "Force", "location": {"latitude": "53.459398", "street": {"id": 1713701, "name": "On or near Bracken Hill"}, "longitude": "-1.493828"}, "context": "", "outcome_status": null, "persistent_id": "", "id": 116747466, "location_subtype": "", "month": "2024-02"}, {"category": "anti-social-behaviour", "location_type": "Force", "location": {"latitude": "53.445150", "street": {"id": 1712986, "name": "On or near Woodhead Road"}, "longitude": "-1.504160"}, "context": "", "outcome_status": null, "persistent_id": "", "id": 116747465, "location_subtype": "", "month": "2024-02"}, {"category": "anti-social-behaviour", "location_type": "Force", "location": {"latitude": "53.392146", "street": {"id": 1712238, "name": "On or near Hollins Drive"}, "longitude": "-1.520024"}, "context": "", "outcome_status": null, "persistent_id": "", "id": 116747464, "location_subtype": "", "month": "2024-02"}, {"category": "anti-social-behaviour", "location_type": "Force", "location": {"latitude": "53.390938", "street": {"id": 1711898, "name": "On or near Fairbarn Close"}, "longitude": "-1.530473"}, "context": "", "outcome_status": null, "persistent_id": "", "id": 116747463, "location_subtype": "", "month": "2024-02"}, {"category": "anti-social-behaviour", "location_type": "Force", "location": {"latitude": "53.470507", "street": {"id": 1711320, "name": "On or near Smithy Fold Lane"}, "longitude": "-1.530997"}, "context": "", "outcome_status": null, "persistent_id": "", "id": 116747462, "location_subtype": "", "month": "2024-02"}, {"category": "anti-social-behaviour", "location_type": "Force", "location": {"latitude": "53.370552", "street": {"id": 1722990, "name": "On or near Wharton Avenue"}, "longitude": "-1.314857"}, "context": "", "outcome_status": null, "persistent_id": "", "id": 116747028, "location_subtype": "", "month": "2024-02"}, {"category": "anti-social-behaviour", "location_type": "Force", "location": {"latitude": "53.434610", "street": {"id": 1722687, "name": "On or near High Greave Place"}, "longitude": "-1.320345"}, "context": "", "outcome_status": null, "persistent_id": "", "id": 116747027, "location_subtype": "", "month": "2024-02"}, {"category": "anti-social-behaviour", "location_type": "Force", "location": {"latitude": "53.430564", "street": {"id": 1722512, "name": "On or near Arnold Road"}, "longitude": "-1.326430"}, "context": "", "outcome_status": null, "persistent_id": "", "id": 116747026, "location_subtype": "", "month": "2024-02"}, {"category": "anti-social-behaviour", "location_type": "Force", "location": {"latitude": "53.370954", "street": {"id": 1718907, "name": "On or near Normancroft Crescent"}, "longitude": "-1.414077"}, "context": "", "outcome_status": null, "persistent_id": "", "id": 116747011, "location_subtype": "", "month": "2024-02"}, {"category": "anti-social-behaviour", "location_type": "Force", "location": {"latitude": "53.351069", "street": {"id": 1718271, "name": "On or near Glade Lea"}, "longitude": "-1.426593"}, "context": "", "outcome_status": null, "persistent_id": "", "id": 116747010, "location_subtype": "", "month": "2024-02"}, {"category": "anti-social-behaviour", "location_type": "Force", "location": {"latitude": "53.363903", "street": {"id": 1717982, "name": "On or near A6135"}, "longitude": "-1.433664"}, "context": "", "outcome_status": null, "persistent_id": "", "id": 116747009, "location_subtype": "", "month": "2024-02"}, {"category": "anti-social-behaviour", "location_type": "Force", "location": {"latitude": "53.408361", "street": {"id": 1717770, "name": "On or near Corby Road"}, "longitude": "-1.435616"}, "context": "", "outcome_status": null, "persistent_id": "", "id": 116747008, "location_subtype": "", "month": "2024-02"}, {"category": "anti-social-behaviour", "location_type": "Force", "location": {"latitude": "53.367283", "street": {"id": 1717730, "name": "On or near Petrol Station"}, "longitude": "-1.439526"}, "context": "", "outcome_status": null, "persistent_id": "", "id": 116747007, "location_subtype": "", "month": "2024-02"}, {"category": "anti-social-behaviour", "location_type": "Force", "location": {"latitude": "53.376384", "street": {"id": 1711887, "name": "On or near Sports/recreation Area"}, "longitude": "-1.531430"}, "context": "", "outcome_status": null, "persistent_id": "", "id": 116740742, "location_subtype": "", "month": "2024-02"}, {"category": "anti-social-behaviour", "location_type": "Force", "location": {"latitude": "53.342926", "street": {"id": 1717656, "name": "On or near Raeburn Road"}, "longitude": "-1.440160"}, "context": "", "outcome_status": null, "persistent_id": "", "id": 116747006, "location_subtype": "", "month": "2024-02"}, {"category": "anti-social-behaviour", "location_type": "Force", "location": {"latitude": "53.426278", "street": {"id": 1717481, "name": "On or near Bellhouse Mews"}, "longitude": "-1.443867"}, "context": "", "outcome_status": null, "persistent_id": "", "id": 116747005, "location_subtype": "", "month": "2024-02"}, {"category": "anti-social-behaviour", "location_type": "Force", "location": {"latitude": "53.352170", "street": {"id": 1717410, "name": "On or near Spotswood Drive"}, "longitude": "-1.444771"}, "context": "", "outcome_status": null, "persistent_id": "", "id": 116747004, "location_subtype": "", "month": "2024-02"}, {"category": "anti-social-behaviour", "location_type": "Force", "location": {"latitude": "53.349193", "street": {"id": 1717225, "name": "On or near Overend Drive"}, "longitude": "-1.448280"}, "context": "", "outcome_status": null, "persistent_id": "", "id": 116747002, "location_subtype": "", "month": "2024-02"}, {"category": "anti-social-behaviour", "location_type": "Force", "location": {"latitude": "53.411050", "street": {"id": 1717186, "name": "On or near Bolsover Road"}, "longitude": "-1.449346"}, "context": "", "outcome_status": null, "persistent_id": "", "id": 116747000, "location_subtype": "", "month": "2024-02"}, {"category": "anti-social-behaviour", "location_type": "Force", "location": {"latitude": "53.378498", "street": {"id": 1717093, "name": "On or near Sports/recreation Area"}, "longitude": "-1.448139"}, "context": "", "outcome_status": null, "persistent_id": "", "id": 116741240, "location_subtype": "", "month": "2024-02"}, {"category": "anti-social-behaviour", "location_type": "Force", "location": {"latitude": "53.359044", "street": {"id": 1716913, "name": "On or near Hartopp Close"}, "longitude": "-1.453833"}, "context": "", "outcome_status": null, "persistent_id": "", "id": 116746999, "location_subtype": "", "month": "2024-02"}, {"category": "anti-social-behaviour", "location_type": "Force", "location": {"latitude": "53.425187", "street": {"id": 1717021, "name": "On or near Valentine Road"}, "longitude": "-1.452880"}, "context": "", "outcome_status": null, "persistent_id": "", "id": 116746998, "location_subtype": "", "month": "2024-02"}, {"category": "anti-social-behaviour", "location_type": "Force", "location": {"latitude": "53.409800", "street": {"id": 1717234, "name": "On or near Bolsover Road East"}, "longitude": "-1.447346"}, "context": "", "outcome_status": null, "persistent_id": "", "id": 116747003, "location_subtype": "", "month": "2024-02"}, {"category": "anti-social-behaviour", "location_type": "Force", "location": {"latitude": "53.328712", "street": {"id": 2219306, "name": "On or near Main Road"}, "longitude": "-1.397028"}, "context": "", "outcome_status": null, "persistent_id": "", "id": 117646046, "location_subtype": "", "month": "2024-02"}, {"category": "anti-social-behaviour", "location_type": "Force", "location": {"latitude": "53.361793", "street": {"id": 1717573, "name": "On or near Algar Drive"}, "longitude": "-1.441942"}, "context": "", "outcome_status": null, "persistent_id": "", "id": 116741714, "location_subtype": "", "month": "2024-02"}, {"category": "anti-social-behaviour", "location_type": "Force", "location": {"latitude": "53.374339", "street": {"id": 1715617, "name": "On or near Sylvester Street"}, "longitude": "-1.470938"}, "context": "", "outcome_status": null, "persistent_id": "", "id": 116746993, "location_subtype": "", "month": "2024-02"}, {"category": "anti-social-behaviour", "location_type": "Force", "location": {"latitude": "53.381327", "street": {"id": 1715472, "name": "On or near Nightclub"}, "longitude": "-1.473090"}, "context": "", "outcome_status": null, "persistent_id": "", "id": 116746992, "location_subtype": "", "month": "2024-02"}, {"category": "anti-social-behaviour", "location_type": "Force", "location": {"latitude": "53.403342", "street": {"id": 1713066, "name": "On or near Roselle Street"}, "longitude": "-1.503623"}, "context": "", "outcome_status": null, "persistent_id": "", "id": 116746981, "location_subtype": "", "month": "2024-02"}, {"category": "anti-social-behaviour", "location_type": "Force", "location": {"latitude": "53.381171", "street": {"id": 1715659, "name": "On or near Conference/exhibition Centre"}, "longitude": "-1.471064"}, "context": "", "outcome_status": null, "persistent_id": "", "id": 116742714, "location_subtype": "", "month": "2024-02"}, {"category": "anti-social-behaviour", "location_type": "Force", "location": {"latitude": "53.366885", "street": {"id": 1722998, "name": "On or near Darcy Close"}, "longitude": "-1.314886"}, "context": "", "outcome_status": null, "persistent_id": "", "id": 116746563, "location_subtype": "", "month": "2024-02"}, {"category": "anti-social-behaviour", "location_type": "Force", "location": {"latitude": "53.443226", "street": {"id": 1722686, "name": "On or near Petrol Station"}, "longitude": "-1.321261"}, "context": "", "outcome_status": null, "persistent_id": "", "id": 116746562, "location_subtype": "", "month": "2024-02"}, {"category": "anti-social-behaviour", "location_type": "Force", "location": {"latitude": "53.433390", "street": {"id": 1722682, "name": "On or near Cawthorne Road"}, "longitude": "-1.320816"}, "context": "", "outcome_status": null, "persistent_id": "", "id": 116746561, "location_subtype": "", "month": "2024-02"}, {"category": "anti-social-behaviour", "location_type": "Force", "location": {"latitude": "53.436953", "street": {"id": 1722284, "name": "On or near St John's Close"}, "longitude": "-1.334141"}, "context": "", "outcome_status": null, "persistent_id": "", "id": 116746560, "location_subtype": "", "month": "2024-02"}, {"category": "anti-social-behaviour", "location_type": "Force", "location": {"latitude": "53.474799", "street": {"id": 1720731, "name": "On or near Stubbin Road"}, "longitude": "-1.367991"}, "context": "", "outcome_status": null, "persistent_id": "", "id": 116743670, "location_subtype": "", "month": "2024-02"}, {"category": "anti-social-behaviour", "location_type": "Force", "location": {"latitude": "53.343802", "street": {"id": 1721193, "name": "On or near Shopping Area"}, "longitude": "-1.357027"}, "context": "", "outcome_status": null, "persistent_id": "", "id": 116743675, "location_subtype": "", "month": "2024-02"}, {"category": "anti-social-behaviour", "location_type": "Force", "location": {"latitude": "53.409463", "street": {"id": 1722220, "name": "On or near Whiston Grange"}, "longitude": "-1.335398"}, "context": "", "outcome_status": null, "persistent_id": "", "id": 116746559, "location_subtype": "", "month": "2024-02"}, {"category": "anti-social-behaviour", "location_type": "Force", "location": {"latitude": "53.417636", "street": {"id": 1717447, "name": "On or near Firth Park Crescent"}, "longitude": "-1.444988"}, "context": "", "outcome_status": null, "persistent_id": "", "id": 116746553, "location_subtype": "", "month": "2024-02"}, {"category": "anti-social-behaviour", "location_type": "Force", "location": {"latitude": "53.358267", "street": {"id": 1717036, "name": "On or near Daresbury Road"}, "longitude": "-1.451063"}, "context": "", "outcome_status": null, "persistent_id": "", "id": 116746552, "location_subtype": "", "month": "2024-02"}, {"category": "anti-social-behaviour", "location_type": "Force", "location": {"latitude": "53.421596", "street": {"id": 1716826, "name": "On or near Etwall Way"}, "longitude": "-1.453844"}, "context": "", "outcome_status": null, "persistent_id": "", "id": 116746551, "location_subtype": "", "month": "2024-02"}, {"category": "anti-social-behaviour", "location_type": "Force", "location": {"latitude": "53.362655", "street": {"id": 1716679, "name": "On or near Thornborough Place"}, "longitude": "-1.457228"}, "context": "", "outcome_status": null, "persistent_id": "", "id": 116746549, "location_subtype": "", "month": "2024-02"}, {"category": "anti-social-behaviour", "location_type": "Force", "location": {"latitude": "53.390017", "street": {"id": 1716567, "name": "On or near Spital Hill"}, "longitude": "-1.459466"}, "context": "", "outcome_status": null, "persistent_id": "", "id": 116746548, "location_subtype": "", "month": "2024-02"}, {"category": "anti-social-behaviour", "location_type": "Force", "location": {"latitude": "53.431910", "street": {"id": 1721188, "name": "On or near Bridgegate"}, "longitude": "-1.357098"}, "context": "", "outcome_status": null, "persistent_id": "", "id": 116744069, "location_subtype": "", "month": "2024-02"}, {"category": "anti-social-behaviour", "location_type": "Force", "location": {"latitude": "53.375405", "street": {"id": 1716182, "name": "On or near Fornham Street"}, "longitude": "-1.464251"}, "context": "", "outcome_status": null, "persistent_id": "", "id": 116746547, "location_subtype": "", "month": "2024-02"}, {"category": "anti-social-behaviour", "location_type": "Force", "location": {"latitude": "53.311020", "street": {"id": 1711807, "name": "On or near Rowan Tree Dell"}, "longitude": "-1.532896"}, "context": "", "outcome_status": null, "persistent_id": "", "id": 116746532, "location_subtype": "", "month": "2024-02"}, {"category": "anti-social-behaviour", "location_type": "Force", "location": {"latitude": "53.374436", "street": {"id": 1711630, "name": "On or near Pitchford Lane"}, "longitude": "-1.539988"}, "context": "", "outcome_status": null, "persistent_id": "", "id": 116746531, "location_subtype": "", "month": "2024-02"}, {"category": "anti-social-behaviour", "location_type": "Force", "location": {"latitude": "53.346145", "street": {"id": 1710852, "name": "On or near Parking Area"}, "longitude": "-1.590727"}, "context": "", "outcome_status": null, "persistent_id": "", "id": 116746530, "location_subtype": "", "month": "2024-02"}, {"category": "anti-social-behaviour", "location_type": "Force", "location": {"latitude": "53.478492", "street": {"id": 1710956, "name": "On or near Brook Croft"}, "longitude": "-1.590501"}, "context": "", "outcome_status": null, "persistent_id": "", "id": 116746529, "location_subtype": "", "month": "2024-02"}, {"category": "anti-social-behaviour", "location_type": "Force", "location": {"latitude": "53.480790", "street": {"id": 1710902, "name": "On or near Victoria Close"}, "longitude": "-1.595030"}, "context": "", "outcome_status": null, "persistent_id": "", "id": 116746528, "location_subtype": "", "month": "2024-02"}, {"category": "anti-social-behaviour", "location_type": "Force", "location": {"latitude": "53.429287", "street": {"id": 1710861, "name": "On or near Brown House Lane"}, "longitude": "-1.598078"}, "context": "", "outcome_status": null, "persistent_id": "", "id": 116746527, "location_subtype": "", "month": "2024-02"}, {"category": "anti-social-behaviour", "location_type": "Force", "location": {"latitude": "53.434249", "street": {"id": 1722205, "name": "On or near Davis Street"}, "longitude": "-1.336005"}, "context": "", "outcome_status": null, "persistent_id": "", "id": 116746022, "location_subtype": "", "month": "2024-02"}, {"category": "anti-social-behaviour", "location_type": "Force", "location": {"latitude": "53.430196", "street": {"id": 1722211, "name": "On or near Newton Street"}, "longitude": "-1.336294"}, "context": "", "outcome_status": null, "persistent_id": "", "id": 116746021, "location_subtype": "", "month": "2024-02"}, {"category": "anti-social-behaviour", "location_type": "Force", "location": {"latitude": "53.459599", "street": {"id": 1721818, "name": "On or near High Street"}, "longitude": "-1.344541"}, "context": "", "outcome_status": null, "persistent_id": "", "id": 116746020, "location_subtype": "", "month": "2024-02"}, {"category": "anti-social-behaviour", "location_type": "Force", "location": {"latitude": "53.312999", "street": {"id": 2221284, "name": "On or near Rotherside Road"}, "longitude": "-1.345827"}, "context": "", "outcome_status": null, "persistent_id": "", "id": 117646095, "location_subtype": "", "month": "2024-02"}, {"category": "anti-social-behaviour", "location_type": "Force", "location": {"latitude": "53.427168", "street": {"id": 1721838, "name": "On or near Old Clifton Lane"}, "longitude": "-1.344648"}, "context": "", "outcome_status": null, "persistent_id": "", "id": 116746019, "location_subtype": "", "month": "2024-02"}, {"category": "anti-social-behaviour", "location_type": "Force", "location": {"latitude": "53.383386", "street": {"id": 1713949, "name": "On or near Mushroom Lane"}, "longitude": "-1.490686"}, "context": "", "outcome_status": null, "persistent_id": "", "id": 116745984, "location_subtype": "", "month": "2024-02"}, {"category": "anti-social-behaviour", "location_type": "Force", "location": {"latitude": "53.424723", "street": {"id": 1721754, "name": "On or near Broom Grove"}, "longitude": "-1.346296"}, "context": "", "outcome_status": null, "persistent_id": "", "id": 116746018, "location_subtype": "", "month": "2024-02"}, {"category": "anti-social-behaviour", "location_type": "Force", "location": {"latitude": "53.348002", "street": {"id": 1721238, "name": "On or near Springwell Grove"}, "longitude": "-1.350745"}, "context": "", "outcome_status": null, "persistent_id": "", "id": 116746017, "location_subtype": "", "month": "2024-02"}, {"category": "anti-social-behaviour", "location_type": "Force", "location": {"latitude": "53.425016", "street": {"id": 1721219, "name": "On or near The Maltings"}, "longitude": "-1.357052"}, "context": "", "outcome_status": null, "persistent_id": "", "id": 116746016, "location_subtype": "", "month": "2024-02"}, {"category": "anti-social-behaviour", "location_type": "Force", "location": {"latitude": "53.400369", "street": {"id": 1720845, "name": "On or near Cawdron Rise"}, "longitude": "-1.367244"}, "context": "", "outcome_status": null, "persistent_id": "", "id": 116746015, "location_subtype": "", "month": "2024-02"}, {"category": "anti-social-behaviour", "location_type": "Force", "location": {"latitude": "53.432974", "street": {"id": 1720456, "name": "On or near Park Street"}, "longitude": "-1.372841"}, "context": "", "outcome_status": null, "persistent_id": "", "id": 116746014, "location_subtype": "", "month": "2024-02"}, {"category": "anti-social-behaviour", "location_type": "Force", "location": {"latitude": "53.309186", "street": {"id": 2214834, "name": "On or near Brookview Court"}, "longitude": "-1.472419"}, "context": "", "outcome_status": null, "persistent_id": "", "id": 117644735, "location_subtype": "", "month": "2024-02"}, {"category": "anti-social-behaviour", "location_type": "Force", "location": {"latitude": "53.343910", "street": {"id": 1719529, "name": "On or near Thornbridge Lane"}, "longitude": "-1.396604"}, "context": "", "outcome_status": null, "persistent_id": "", "id": 116746010, "location_subtype": "", "month": "2024-02"}, {"category": "anti-social-behaviour", "location_type": "Force", "location": {"latitude": "53.359403", "street": {"id": 1718121, "name": "On or near Dagnam Place"}, "longitude": "-1.430734"}, "context": "", "outcome_status": null, "persistent_id": "", "id": 116746007, "location_subtype": "", "month": "2024-02"}, {"category": "anti-social-behaviour", "location_type": "Force", "location": {"latitude": "53.437602", "street": {"id": 1717896, "name": "On or near Grange Mill Lane"}, "longitude": "-1.433874"}, "context": "", "outcome_status": null, "persistent_id": "", "id": 116746006, "location_subtype": "", "month": "2024-02"}, {"category": "anti-social-behaviour", "location_type": "Force", "location": {"latitude": "53.448247", "street": {"id": 1718688, "name": "On or near Keppel Road"}, "longitude": "-1.417547"}, "context": "", "outcome_status": null, "persistent_id": "", "id": 116749739, "location_subtype": "", "month": "2024-02"}, {"category": "anti-social-behaviour", "location_type": "Force", "location": {"latitude": "53.369938", "street": {"id": 1718689, "name": "On or near Vikinglea Glade"}, "longitude": "-1.417698"}, "context": "", "outcome_status": null, "persistent_id": "", "id": 116749741, "location_subtype": "", "month": "2024-02"}, {"category": "anti-social-behaviour", "location_type": "Force", "location": {"latitude": "53.362402", "street": {"id": 1719185, "name": "On or near Hastilar Road South"}, "longitude": "-1.407913"}, "context": "", "outcome_status": null, "persistent_id": "", "id": 116746009, "location_subtype": "", "month": "2024-02"}, {"category": "anti-social-behaviour", "location_type": "Force", "location": {"latitude": "53.406792", "street": {"id": 1717710, "name": "On or near Upwell Lane"}, "longitude": "-1.438465"}, "context": "", "outcome_status": null, "persistent_id": "", "id": 116746005, "location_subtype": "", "month": "2024-02"}, {"category": "anti-social-behaviour", "location_type": "Force", "location": {"latitude": "53.420085", "street": {"id": 1716217, "name": "On or near Crowland Road"}, "longitude": "-1.461628"}, "context": "", "outcome_status": null, "persistent_id": "", "id": 116746000, "location_subtype": "", "month": "2024-02"}, {"category": "anti-social-behaviour", "location_type": "Force", "location": {"latitude": "53.431075", "street": {"id": 1716234, "name": "On or near Hillside Avenue"}, "longitude": "-1.462964"}, "context": "", "outcome_status": null, "persistent_id": "", "id": 116745999, "location_subtype": "", "month": "2024-02"}, {"category": "anti-social-behaviour", "location_type": "Force", "location": {"latitude": "53.384399", "street": {"id": 1715767, "name": "On or near North Church Street"}, "longitude": "-1.469340"}, "context": "", "outcome_status": null, "persistent_id": "", "id": 116745996, "location_subtype": "", "month": "2024-02"}, {"category": "anti-social-behaviour", "location_type": "Force", "location": {"latitude": "53.369938", "street": {"id": 1718689, "name": "On or near Vikinglea Glade"}, "longitude": "-1.417698"}, "context": "", "outcome_status": null, "persistent_id": "", "id": 116749743, "location_subtype": "", "month": "2024-02"}, {"category": "anti-social-behaviour", "location_type": "Force", "location": {"latitude": "53.321308", "street": {"id": 1715107, "name": "On or near Lowedges Place"}, "longitude": "-1.475662"}, "context": "", "outcome_status": null, "persistent_id": "", "id": 116745995, "location_subtype": "", "month": "2024-02"}, {"category": "anti-social-behaviour", "location_type": "Force", "location": {"latitude": "53.361056", "street": {"id": 1719367, "name": "On or near Richmond Place"}, "longitude": "-1.401080"}, "context": "", "outcome_status": null, "persistent_id": "", "id": 116749745, "location_subtype": "", "month": "2024-02"}, {"category": "anti-social-behaviour", "location_type": "Force", "location": {"latitude": "53.437145", "street": {"id": 1719673, "name": "On or near Wilding Way"}, "longitude": "-1.392168"}, "context": "", "outcome_status": null, "persistent_id": "", "id": 116747012, "location_subtype": "", "month": "2024-02"}, {"category": "anti-social-behaviour", "location_type": "Force", "location": {"latitude": "53.434571", "street": {"id": 1722276, "name": "On or near Cambridge Crescent"}, "longitude": "-1.332493"}, "context": "", "outcome_status": null, "persistent_id": "", "id": 116747025, "location_subtype": "", "month": "2024-02"}, {"category": "anti-social-behaviour", "location_type": "Force", "location": {"latitude": "53.383034", "street": {"id": 1712870, "name": "On or near Crookes"}, "longitude": "-1.507468"}, "context": "", "outcome_status": null, "persistent_id": "", "id": 116737465, "location_subtype": "", "month": "2024-02"}, {"category": "anti-social-behaviour", "location_type": "Force", "location": {"latitude": "53.477375", "street": {"id": 1713930, "name": "On or near Dowland Court"}, "longitude": "-1.491490"}, "context": "", "outcome_status": null, "persistent_id": "", "id": 116737468, "location_subtype": "", "month": "2024-02"}, {"category": "anti-social-behaviour", "location_type": "Force", "location": {"latitude": "53.380086", "street": {"id": 1714605, "name": "On or near Victoria Street"}, "longitude": "-1.482111"}, "context": "", "outcome_status": null, "persistent_id": "", "id": 116737472, "location_subtype": "", "month": "2024-02"}, {"category": "anti-social-behaviour", "location_type": "Force", "location": {"latitude": "53.418416", "street": {"id": 1714704, "name": "On or near Southey Green Road"}, "longitude": "-1.480577"}, "context": "", "outcome_status": null, "persistent_id": "", "id": 116737473, "location_subtype": "", "month": "2024-02"}, {"category": "anti-social-behaviour", "location_type": "Force", "location": {"latitude": "53.395588", "street": {"id": 1718960, "name": "On or near Petrol Station"}, "longitude": "-1.413137"}, "context": "", "outcome_status": null, "persistent_id": "", "id": 116737489, "location_subtype": "", "month": "2024-02"}, {"category": "anti-social-behaviour", "location_type": "Force", "location": {"latitude": "53.366783", "street": {"id": 1719307, "name": "On or near Spinkhill Drive"}, "longitude": "-1.404952"}, "context": "", "outcome_status": null, "persistent_id": "", "id": 116737492, "location_subtype": "", "month": "2024-02"}, {"category": "anti-social-behaviour", "location_type": "Force", "location": {"latitude": "53.446965", "street": {"id": 1719528, "name": "On or near Sandbergh Road"}, "longitude": "-1.394753"}, "context": "", "outcome_status": null, "persistent_id": "", "id": 116737493, "location_subtype": "", "month": "2024-02"}, {"category": "anti-social-behaviour", "location_type": "Force", "location": {"latitude": "53.383065", "street": {"id": 1720501, "name": "On or near Cressbrook Road"}, "longitude": "-1.373966"}, "context": "", "outcome_status": null, "persistent_id": "", "id": 116737498, "location_subtype": "", "month": "2024-02"}, {"category": "anti-social-behaviour", "location_type": "Force", "location": {"latitude": "53.370853", "street": {"id": 1720506, "name": "On or near Malon Way"}, "longitude": "-1.374716"}, "context": "", "outcome_status": null, "persistent_id": "", "id": 116737499, "location_subtype": "", "month": "2024-02"}, {"category": "anti-social-behaviour", "location_type": "Force", "location": {"latitude": "53.433054", "street": {"id": 1721368, "name": "On or near Henry Street"}, "longitude": "-1.354146"}, "context": "", "outcome_status": null, "persistent_id": "", "id": 116737502, "location_subtype": "", "month": "2024-02"}, {"category": "anti-social-behaviour", "location_type": "Force", "location": {"latitude": "53.344392", "street": {"id": 1721639, "name": "On or near Violet Avenue"}, "longitude": "-1.348081"}, "context": "", "outcome_status": null, "persistent_id": "", "id": 116737504, "location_subtype": "", "month": "2024-02"}, {"category": "anti-social-behaviour", "location_type": "Force", "location": {"latitude": "53.431576", "street": {"id": 1714744, "name": "On or near Margetson Crescent"}, "longitude": "-1.478596"}, "context": "", "outcome_status": null, "persistent_id": "", "id": 116745993, "location_subtype": "", "month": "2024-02"}, {"category": "anti-social-behaviour", "location_type": "Force", "location": {"latitude": "53.358214", "street": {"id": 1720959, "name": "On or near Balmoral Road"}, "longitude": "-1.364368"}, "context": "", "outcome_status": null, "persistent_id": "", "id": 116751707, "location_subtype": "", "month": "2024-02"}, {"category": "anti-social-behaviour", "location_type": "Force", "location": {"latitude": "53.409931", "street": {"id": 1719629, "name": "On or near Bawtry Road"}, "longitude": "-1.394557"}, "context": "", "outcome_status": null, "persistent_id": "", "id": 116751696, "location_subtype": "", "month": "2024-02"}, {"category": "anti-social-behaviour", "location_type": "Force", "location": {"latitude": "53.369938", "street": {"id": 1718689, "name": "On or near Vikinglea Glade"}, "longitude": "-1.417698"}, "context": "", "outcome_status": null, "persistent_id": "", "id": 116751694, "location_subtype": "", "month": "2024-02"}, {"category": "anti-social-behaviour", "location_type": "Force", "location": {"latitude": "53.367301", "street": {"id": 1718039, "name": "On or near Cary Grove"}, "longitude": "-1.431816"}, "context": "", "outcome_status": null, "persistent_id": "", "id": 116751688, "location_subtype": "", "month": "2024-02"}, {"category": "anti-social-behaviour", "location_type": "Force", "location": {"latitude": "53.382742", "street": {"id": 1717534, "name": "On or near Wybourn Hall Drive"}, "longitude": "-1.442946"}, "context": "", "outcome_status": null, "persistent_id": "", "id": 116751683, "location_subtype": "", "month": "2024-02"}, {"category": "anti-social-behaviour", "location_type": "Force", "location": {"latitude": "53.407546", "street": {"id": 1717875, "name": "On or near Range Road"}, "longitude": "-1.436214"}, "context": "", "outcome_status": null, "persistent_id": "", "id": 116751685, "location_subtype": "", "month": "2024-02"}, {"category": "anti-social-behaviour", "location_type": "Force", "location": {"latitude": "53.400126", "street": {"id": 1716030, "name": "On or near Shirley Road"}, "longitude": "-1.466557"}, "context": "", "outcome_status": null, "persistent_id": "", "id": 116751673, "location_subtype": "", "month": "2024-02"}, {"category": "anti-social-behaviour", "location_type": "Force", "location": {"latitude": "53.441858", "street": {"id": 1715854, "name": "On or near St Mary's Close"}, "longitude": "-1.468203"}, "context": "", "outcome_status": null, "persistent_id": "", "id": 116751672, "location_subtype": "", "month": "2024-02"}, {"category": "anti-social-behaviour", "location_type": "Force", "location": {"latitude": "53.404955", "street": {"id": 1715686, "name": "On or near Firshill Glade"}, "longitude": "-1.469204"}, "context": "", "outcome_status": null, "persistent_id": "", "id": 116751668, "location_subtype": "", "month": "2024-02"}, {"category": "anti-social-behaviour", "location_type": "Force", "location": {"latitude": "53.363823", "street": {"id": 1715451, "name": "On or near Gifford Road"}, "longitude": "-1.473262"}, "context": "", "outcome_status": null, "persistent_id": "", "id": 116751666, "location_subtype": "", "month": "2024-02"}, {"category": "anti-social-behaviour", "location_type": "Force", "location": {"latitude": "53.379910", "street": {"id": 1715310, "name": "On or near Rockingham Lane"}, "longitude": "-1.474552"}, "context": "", "outcome_status": null, "persistent_id": "", "id": 116751664, "location_subtype": "", "month": "2024-02"}, {"category": "anti-social-behaviour", "location_type": "Force", "location": {"latitude": "53.389336", "street": {"id": 1714421, "name": "On or near Upperthorpe Road"}, "longitude": "-1.484179"}, "context": "", "outcome_status": null, "persistent_id": "", "id": 116751656, "location_subtype": "", "month": "2024-02"}, {"category": "anti-social-behaviour", "location_type": "Force", "location": {"latitude": "53.382565", "street": {"id": 1714301, "name": "On or near Bolsover Street"}, "longitude": "-1.485809"}, "context": "", "outcome_status": null, "persistent_id": "", "id": 116751654, "location_subtype": "", "month": "2024-02"}, {"category": "anti-social-behaviour", "location_type": "Force", "location": {"latitude": "53.395214", "street": {"id": 1713878, "name": "On or near Whitehouse Court"}, "longitude": "-1.492590"}, "context": "", "outcome_status": null, "persistent_id": "", "id": 116751649, "location_subtype": "", "month": "2024-02"}, {"category": "anti-social-behaviour", "location_type": "Force", "location": {"latitude": "53.387601", "street": {"id": 1713668, "name": "On or near Sydney Road"}, "longitude": "-1.494740"}, "context": "", "outcome_status": null, "persistent_id": "", "id": 116751646, "location_subtype": "", "month": "2024-02"}, {"category": "anti-social-behaviour", "location_type": "Force", "location": {"latitude": "53.371310", "street": {"id": 1714858, "name": "On or near Cliff Street"}, "longitude": "-1.479257"}, "context": "", "outcome_status": null, "persistent_id": "", "id": 116751660, "location_subtype": "", "month": "2024-02"}, {"category": "anti-social-behaviour", "location_type": "Force", "location": {"latitude": "53.370434", "street": {"id": 1713622, "name": "On or near Thompson Road"}, "longitude": "-1.495063"}, "context": "", "outcome_status": null, "persistent_id": "", "id": 116751642, "location_subtype": "", "month": "2024-02"}, {"category": "anti-social-behaviour", "location_type": "Force", "location": {"latitude": "53.426925", "street": {"id": 1716597, "name": "On or near Parking Area"}, "longitude": "-1.457554"}, "context": "", "outcome_status": null, "persistent_id": "", "id": 116747488, "location_subtype": "", "month": "2024-02"}, {"category": "anti-social-behaviour", "location_type": "Force", "location": {"latitude": "53.325938", "street": {"id": 1720929, "name": "On or near New School Court"}, "longitude": "-1.364802"}, "context": "", "outcome_status": null, "persistent_id": "", "id": 116750760, "location_subtype": "", "month": "2024-02"}, {"category": "anti-social-behaviour", "location_type": "Force", "location": {"latitude": "53.412806", "street": {"id": 1712719, "name": "On or near Darwin Road"}, "longitude": "-1.510103"}, "context": "", "outcome_status": null, "persistent_id": "", "id": 116749693, "location_subtype": "", "month": "2024-02"}, {"category": "anti-social-behaviour", "location_type": "Force", "location": {"latitude": "53.372774", "street": {"id": 1714584, "name": "On or near Harrow Street"}, "longitude": "-1.480982"}, "context": "", "outcome_status": null, "persistent_id": "", "id": 116749703, "location_subtype": "", "month": "2024-02"}, {"category": "anti-social-behaviour", "location_type": "Force", "location": {"latitude": "53.382133", "street": {"id": 1715928, "name": "On or near George Street"}, "longitude": "-1.467068"}, "context": "", "outcome_status": null, "persistent_id": "", "id": 116749727, "location_subtype": "", "month": "2024-02"}, {"category": "anti-social-behaviour", "location_type": "Force", "location": {"latitude": "53.324463", "street": {"id": 1711527, "name": "On or near Church Lane"}, "longitude": "-1.541201"}, "context": "", "outcome_status": null, "persistent_id": "", "id": 116745981, "location_subtype": "", "month": "2024-02"}, {"category": "anti-social-behaviour", "location_type": "Force", "location": {"latitude": "53.337568", "street": {"id": 1722049, "name": "On or near Willingham Gardens"}, "longitude": "-1.339625"}, "context": "", "outcome_status": null, "persistent_id": "", "id": 116745420, "location_subtype": "", "month": "2024-02"}, {"category": "anti-social-behaviour", "location_type": "Force", "location": {"latitude": "53.437712", "street": {"id": 1722951, "name": "On or near Greenfield Road"}, "longitude": "-1.315780"}, "context": "", "outcome_status": null, "persistent_id": "", "id": 116745422, "location_subtype": "", "month": "2024-02"}, {"category": "anti-social-behaviour", "location_type": "Force", "location": {"latitude": "53.423725", "street": {"id": 1721246, "name": "On or near Mountenoy Road"}, "longitude": "-1.354393"}, "context": "", "outcome_status": null, "persistent_id": "", "id": 116745419, "location_subtype": "", "month": "2024-02"}, {"category": "anti-social-behaviour", "location_type": "Force", "location": {"latitude": "53.419326", "street": {"id": 1721365, "name": "On or near Boston Castle Terrace"}, "longitude": "-1.352157"}, "context": "", "outcome_status": null, "persistent_id": "", "id": 116745418, "location_subtype": "", "month": "2024-02"}, {"category": "anti-social-behaviour", "location_type": "Force", "location": {"latitude": "53.319721", "street": {"id": 1721014, "name": "On or near Gashouse Lane"}, "longitude": "-1.361982"}, "context": "", "outcome_status": null, "persistent_id": "", "id": 116745417, "location_subtype": "", "month": "2024-02"}, {"category": "anti-social-behaviour", "location_type": "Force", "location": {"latitude": "53.429090", "street": {"id": 1720796, "name": "On or near Providence Street"}, "longitude": "-1.367601"}, "context": "", "outcome_status": null, "persistent_id": "", "id": 116745416, "location_subtype": "", "month": "2024-02"}, {"category": "anti-social-behaviour", "location_type": "Force", "location": {"latitude": "53.346548", "street": {"id": 1720208, "name": "On or near Cotleigh Road"}, "longitude": "-1.379938"}, "context": "", "outcome_status": null, "persistent_id": "", "id": 116745415, "location_subtype": "", "month": "2024-02"}, {"category": "anti-social-behaviour", "location_type": "Force", "location": {"latitude": "53.372198", "street": {"id": 1719972, "name": "On or near Medlock Road"}, "longitude": "-1.384315"}, "context": "", "outcome_status": null, "persistent_id": "", "id": 116745414, "location_subtype": "", "month": "2024-02"}, {"category": "anti-social-behaviour", "location_type": "Force", "location": {"latitude": "53.432706", "street": {"id": 1719752, "name": "On or near Ewers Road"}, "longitude": "-1.390666"}, "context": "", "outcome_status": null, "persistent_id": "", "id": 116745412, "location_subtype": "", "month": "2024-02"}, {"category": "anti-social-behaviour", "location_type": "Force", "location": {"latitude": "53.347663", "street": {"id": 1718660, "name": "On or near Supermarket"}, "longitude": "-1.417889"}, "context": "", "outcome_status": null, "persistent_id": "", "id": 116745411, "location_subtype": "", "month": "2024-02"}, {"category": "anti-social-behaviour", "location_type": "Force", "location": {"latitude": "53.349504", "street": {"id": 1717734, "name": "On or near Fleury Place"}, "longitude": "-1.439653"}, "context": "", "outcome_status": null, "persistent_id": "", "id": 116745410, "location_subtype": "", "month": "2024-02"}, {"category": "anti-social-behaviour", "location_type": "Force", "location": {"latitude": "53.372362", "street": {"id": 1717415, "name": "On or near Essex Road"}, "longitude": "-1.445351"}, "context": "", "outcome_status": null, "persistent_id": "", "id": 116745409, "location_subtype": "", "month": "2024-02"}, {"category": "anti-social-behaviour", "location_type": "Force", "location": {"latitude": "53.396245", "street": {"id": 1716728, "name": "On or near Earldom Drive"}, "longitude": "-1.457101"}, "context": "", "outcome_status": null, "persistent_id": "", "id": 116745405, "location_subtype": "", "month": "2024-02"}, {"category": "anti-social-behaviour", "location_type": "Force", "location": {"latitude": "53.456385", "street": {"id": 1710585, "name": "On or near Moor Lane"}, "longitude": "-1.630803"}, "context": "", "outcome_status": null, "persistent_id": "", "id": 116737909, "location_subtype": "", "month": "2024-02"}, {"category": "anti-social-behaviour", "location_type": "Force", "location": {"latitude": "53.452089", "street": {"id": 1711314, "name": "On or near Broom Royd"}, "longitude": "-1.554510"}, "context": "", "outcome_status": null, "persistent_id": "", "id": 116737911, "location_subtype": "", "month": "2024-02"}, {"category": "anti-social-behaviour", "location_type": "Force", "location": {"latitude": "53.451555", "street": {"id": 1711326, "name": "On or near Wharncliffe Avenue"}, "longitude": "-1.553371"}, "context": "", "outcome_status": null, "persistent_id": "", "id": 116737912, "location_subtype": "", "month": "2024-02"}, {"category": "anti-social-behaviour", "location_type": "Force", "location": {"latitude": "53.367155", "street": {"id": 1712669, "name": "On or near Stainton Road"}, "longitude": "-1.510671"}, "context": "", "outcome_status": null, "persistent_id": "", "id": 116737916, "location_subtype": "", "month": "2024-02"}, {"category": "anti-social-behaviour", "location_type": "Force", "location": {"latitude": "53.477933", "street": {"id": 1714096, "name": "On or near Merbeck Drive"}, "longitude": "-1.487536"}, "context": "", "outcome_status": null, "persistent_id": "", "id": 116737917, "location_subtype": "", "month": "2024-02"}, {"category": "anti-social-behaviour", "location_type": "Force", "location": {"latitude": "53.411945", "street": {"id": 1714356, "name": "On or near Teynham Road"}, "longitude": "-1.482838"}, "context": "", "outcome_status": null, "persistent_id": "", "id": 116737918, "location_subtype": "", "month": "2024-02"}, {"category": "anti-social-behaviour", "location_type": "Force", "location": {"latitude": "53.434664", "street": {"id": 1715484, "name": "On or near Sports/recreation Area"}, "longitude": "-1.471107"}, "context": "", "outcome_status": null, "persistent_id": "", "id": 116737925, "location_subtype": "", "month": "2024-02"}, {"category": "anti-social-behaviour", "location_type": "Force", "location": {"latitude": "53.383629", "street": {"id": 1716093, "name": "On or near Angel Street"}, "longitude": "-1.465952"}, "context": "", "outcome_status": null, "persistent_id": "", "id": 116737927, "location_subtype": "", "month": "2024-02"}, {"category": "anti-social-behaviour", "location_type": "Force", "location": {"latitude": "53.420085", "street": {"id": 1716217, "name": "On or near Crowland Road"}, "longitude": "-1.461628"}, "context": "", "outcome_status": null, "persistent_id": "", "id": 116737928, "location_subtype": "", "month": "2024-02"}, {"category": "anti-social-behaviour", "location_type": "Force", "location": {"latitude": "53.403909", "street": {"id": 1716796, "name": "On or near Osgathorpe Crescent"}, "longitude": "-1.456372"}, "context": "", "outcome_status": null, "persistent_id": "", "id": 116737930, "location_subtype": "", "month": "2024-02"}, {"category": "anti-social-behaviour", "location_type": "Force", "location": {"latitude": "53.398763", "street": {"id": 1716797, "name": "On or near Malton Street"}, "longitude": "-1.455325"}, "context": "", "outcome_status": null, "persistent_id": "", "id": 116737931, "location_subtype": "", "month": "2024-02"}, {"category": "anti-social-behaviour", "location_type": "Force", "location": {"latitude": "53.406812", "street": {"id": 1717027, "name": "On or near Skinnerthorpe Road"}, "longitude": "-1.452424"}, "context": "", "outcome_status": null, "persistent_id": "", "id": 116737933, "location_subtype": "", "month": "2024-02"}, {"category": "anti-social-behaviour", "location_type": "Force", "location": {"latitude": "53.346054", "street": {"id": 1717327, "name": "On or near Gaunt Way"}, "longitude": "-1.445842"}, "context": "", "outcome_status": null, "persistent_id": "", "id": 116737937, "location_subtype": "", "month": "2024-02"}, {"category": "anti-social-behaviour", "location_type": "Force", "location": {"latitude": "53.435148", "street": {"id": 1717368, "name": "On or near Beck Road"}, "longitude": "-1.445332"}, "context": "", "outcome_status": null, "persistent_id": "", "id": 116737938, "location_subtype": "", "month": "2024-02"}, {"category": "anti-social-behaviour", "location_type": "Force", "location": {"latitude": "53.360989", "street": {"id": 1718022, "name": "On or near Dagnam Drive"}, "longitude": "-1.431509"}, "context": "", "outcome_status": null, "persistent_id": "", "id": 116737939, "location_subtype": "", "month": "2024-02"}, {"category": "anti-social-behaviour", "location_type": "Force", "location": {"latitude": "53.374372", "street": {"id": 1718088, "name": "On or near Manor Park Place"}, "longitude": "-1.431211"}, "context": "", "outcome_status": null, "persistent_id": "", "id": 116737940, "location_subtype": "", "month": "2024-02"}, {"category": "anti-social-behaviour", "location_type": "Force", "location": {"latitude": "53.419515", "street": {"id": 1718380, "name": "On or near Newman Road"}, "longitude": "-1.424033"}, "context": "", "outcome_status": null, "persistent_id": "", "id": 116737941, "location_subtype": "", "month": "2024-02"}, {"category": "anti-social-behaviour", "location_type": "Force", "location": {"latitude": "53.423416", "street": {"id": 1718566, "name": "On or near Dara Street"}, "longitude": "-1.418608"}, "context": "", "outcome_status": null, "persistent_id": "", "id": 116737943, "location_subtype": "", "month": "2024-02"}, {"category": "anti-social-behaviour", "location_type": "Force", "location": {"latitude": "53.379536", "street": {"id": 1718686, "name": "On or near Mather Road"}, "longitude": "-1.417221"}, "context": "", "outcome_status": null, "persistent_id": "", "id": 116737944, "location_subtype": "", "month": "2024-02"}, {"category": "anti-social-behaviour", "location_type": "Force", "location": {"latitude": "53.352521", "street": {"id": 1718760, "name": "On or near Frith Close"}, "longitude": "-1.416448"}, "context": "", "outcome_status": null, "persistent_id": "", "id": 116737945, "location_subtype": "", "month": "2024-02"}, {"category": "anti-social-behaviour", "location_type": "Force", "location": {"latitude": "53.377541", "street": {"id": 1719589, "name": "On or near Oakley Road"}, "longitude": "-1.393964"}, "context": "", "outcome_status": null, "persistent_id": "", "id": 116737949, "location_subtype": "", "month": "2024-02"}, {"category": "anti-social-behaviour", "location_type": "Force", "location": {"latitude": "53.416841", "street": {"id": 1721060, "name": "On or near Bentley Street"}, "longitude": "-1.361283"}, "context": "", "outcome_status": null, "persistent_id": "", "id": 116737956, "location_subtype": "", "month": "2024-02"}, {"category": "anti-social-behaviour", "location_type": "Force", "location": {"latitude": "53.325409", "street": {"id": 1716387, "name": "On or near Hazlebarrow Court"}, "longitude": "-1.462024"}, "context": "", "outcome_status": null, "persistent_id": "", "id": 116745404, "location_subtype": "", "month": "2024-02"}, {"category": "anti-social-behaviour", "location_type": "Force", "location": {"latitude": "53.422099", "street": {"id": 1715343, "name": "On or near Adrian Crescent"}, "longitude": "-1.471654"}, "context": "", "outcome_status": null, "persistent_id": "", "id": 116745403, "location_subtype": "", "month": "2024-02"}, {"category": "anti-social-behaviour", "location_type": "Force", "location": {"latitude": "53.328170", "street": {"id": 1715505, "name": "On or near Hunstone Avenue"}, "longitude": "-1.472380"}, "context": "", "outcome_status": null, "persistent_id": "", "id": 116745402, "location_subtype": "", "month": "2024-02"}, {"category": "anti-social-behaviour", "location_type": "Force", "location": {"latitude": "53.357097", "street": {"id": 1715089, "name": "On or near Little London Place"}, "longitude": "-1.476755"}, "context": "", "outcome_status": null, "persistent_id": "", "id": 116745401, "location_subtype": "", "month": "2024-02"}, {"category": "anti-social-behaviour", "location_type": "Force", "location": {"latitude": "53.379832", "street": {"id": 1715247, "name": "On or near Rockingham Street"}, "longitude": "-1.475319"}, "context": "", "outcome_status": null, "persistent_id": "", "id": 116745400, "location_subtype": "", "month": "2024-02"}, {"category": "anti-social-behaviour", "location_type": "Force", "location": {"latitude": "53.360741", "street": {"id": 1714852, "name": "On or near Southcroft Gardens"}, "longitude": "-1.479731"}, "context": "", "outcome_status": null, "persistent_id": "", "id": 116745398, "location_subtype": "", "month": "2024-02"}, {"category": "anti-social-behaviour", "location_type": "Force", "location": {"latitude": "53.373756", "street": {"id": 1714596, "name": "On or near Exeter Drive"}, "longitude": "-1.481527"}, "context": "", "outcome_status": null, "persistent_id": "", "id": 116745394, "location_subtype": "", "month": "2024-02"}, {"category": "anti-social-behaviour", "location_type": "Force", "location": {"latitude": "53.398733", "street": {"id": 1713789, "name": "On or near Channing Street"}, "longitude": "-1.493586"}, "context": "", "outcome_status": null, "persistent_id": "", "id": 116745391, "location_subtype": "", "month": "2024-02"}, {"category": "anti-social-behaviour", "location_type": "Force", "location": {"latitude": "53.439864", "street": {"id": 1722576, "name": "On or near Mowbray Gardens"}, "longitude": "-1.322805"}, "context": "", "outcome_status": null, "persistent_id": "", "id": 116739019, "location_subtype": "", "month": "2024-02"}, {"category": "anti-social-behaviour", "location_type": "Force", "location": {"latitude": "53.389195", "street": {"id": 1711820, "name": "On or near Liberty Drive"}, "longitude": "-1.532958"}, "context": "", "outcome_status": null, "persistent_id": "", "id": 116745389, "location_subtype": "", "month": "2024-02"}, {"category": "anti-social-behaviour", "location_type": "Force", "location": {"latitude": "53.434702", "street": {"id": 1722803, "name": "On or near Woodgrove Road"}, "longitude": "-1.319185"}, "context": "", "outcome_status": null, "persistent_id": "", "id": 116744965, "location_subtype": "", "month": "2024-02"}, {"category": "anti-social-behaviour", "location_type": "Force", "location": {"latitude": "53.347050", "street": {"id": 1721917, "name": "On or near Sports/recreation Area"}, "longitude": "-1.341574"}, "context": "", "outcome_status": null, "persistent_id": "", "id": 116744963, "location_subtype": "", "month": "2024-02"}, {"category": "anti-social-behaviour", "location_type": "Force", "location": {"latitude": "53.334806", "street": {"id": 1721545, "name": "On or near May Tree Croft"}, "longitude": "-1.350615"}, "context": "", "outcome_status": null, "persistent_id": "", "id": 116744962, "location_subtype": "", "month": "2024-02"}, {"category": "anti-social-behaviour", "location_type": "Force", "location": {"latitude": "53.397519", "street": {"id": 1721227, "name": "On or near Grange Farm Close"}, "longitude": "-1.357000"}, "context": "", "outcome_status": null, "persistent_id": "", "id": 116744961, "location_subtype": "", "month": "2024-02"}, {"category": "anti-social-behaviour", "location_type": "Force", "location": {"latitude": "53.419326", "street": {"id": 1721365, "name": "On or near Boston Castle Terrace"}, "longitude": "-1.352157"}, "context": "", "outcome_status": null, "persistent_id": "", "id": 116744960, "location_subtype": "", "month": "2024-02"}, {"category": "anti-social-behaviour", "location_type": "Force", "location": {"latitude": "53.389853", "street": {"id": 1711906, "name": "On or near Liberty Hill"}, "longitude": "-1.531056"}, "context": "", "outcome_status": null, "persistent_id": "", "id": 116738443, "location_subtype": "", "month": "2024-02"}, {"category": "anti-social-behaviour", "location_type": "Force", "location": {"latitude": "53.377453", "street": {"id": 1712744, "name": "On or near Oak Park"}, "longitude": "-1.509802"}, "context": "", "outcome_status": null, "persistent_id": "", "id": 116738444, "location_subtype": "", "month": "2024-02"}, {"category": "anti-social-behaviour", "location_type": "Force", "location": {"latitude": "53.385339", "street": {"id": 1712824, "name": "On or near Supermarket"}, "longitude": "-1.507955"}, "context": "", "outcome_status": null, "persistent_id": "", "id": 116738445, "location_subtype": "", "month": "2024-02"}, {"category": "anti-social-behaviour", "location_type": "Force", "location": {"latitude": "53.381809", "street": {"id": 1715708, "name": "On or near Shopping Area"}, "longitude": "-1.468581"}, "context": "", "outcome_status": null, "persistent_id": "", "id": 116738450, "location_subtype": "", "month": "2024-02"}, {"category": "anti-social-behaviour", "location_type": "Force", "location": {"latitude": "53.382697", "street": {"id": 1715851, "name": "On or near East Parade"}, "longitude": "-1.468624"}, "context": "", "outcome_status": null, "persistent_id": "", "id": 116738451, "location_subtype": "", "month": "2024-02"}, {"category": "anti-social-behaviour", "location_type": "Force", "location": {"latitude": "53.353727", "street": {"id": 1719371, "name": "On or near Linley Lane"}, "longitude": "-1.400522"}, "context": "", "outcome_status": null, "persistent_id": "", "id": 116738461, "location_subtype": "", "month": "2024-02"}, {"category": "anti-social-behaviour", "location_type": "Force", "location": {"latitude": "53.345546", "street": {"id": 1719654, "name": "On or near Jermyn Way"}, "longitude": "-1.393021"}, "context": "", "outcome_status": null, "persistent_id": "", "id": 116738462, "location_subtype": "", "month": "2024-02"}, {"category": "anti-social-behaviour", "location_type": "Force", "location": {"latitude": "53.430025", "street": {"id": 1720403, "name": "On or near Devonshire Street"}, "longitude": "-1.376316"}, "context": "", "outcome_status": null, "persistent_id": "", "id": 116738463, "location_subtype": "", "month": "2024-02"}, {"category": "anti-social-behaviour", "location_type": "Force", "location": {"latitude": "53.429090", "street": {"id": 1720796, "name": "On or near Providence Street"}, "longitude": "-1.367601"}, "context": "", "outcome_status": null, "persistent_id": "", "id": 116738464, "location_subtype": "", "month": "2024-02"}, {"category": "anti-social-behaviour", "location_type": "Force", "location": {"latitude": "53.438598", "street": {"id": 1721627, "name": "On or near Hardwicke Road"}, "longitude": "-1.347258"}, "context": "", "outcome_status": null, "persistent_id": "", "id": 116738473, "location_subtype": "", "month": "2024-02"}, {"category": "anti-social-behaviour", "location_type": "Force", "location": {"latitude": "53.340008", "street": {"id": 1722352, "name": "On or near Calner Croft"}, "longitude": "-1.330681"}, "context": "", "outcome_status": null, "persistent_id": "", "id": 116738474, "location_subtype": "", "month": "2024-02"}, {"category": "anti-social-behaviour", "location_type": "Force", "location": {"latitude": "53.400369", "street": {"id": 1720845, "name": "On or near Cawdron Rise"}, "longitude": "-1.367244"}, "context": "", "outcome_status": null, "persistent_id": "", "id": 116744958, "location_subtype": "", "month": "2024-02"}, {"category": "anti-social-behaviour", "location_type": "Force", "location": {"latitude": "53.399441", "street": {"id": 1720546, "name": "On or near Derwent Crescent"}, "longitude": "-1.371875"}, "context": "", "outcome_status": null, "persistent_id": "", "id": 116744957, "location_subtype": "", "month": "2024-02"}, {"category": "anti-social-behaviour", "location_type": "Force", "location": {"latitude": "53.347465", "street": {"id": 1720132, "name": "On or near Dyke Vale Place"}, "longitude": "-1.381742"}, "context": "", "outcome_status": null, "persistent_id": "", "id": 116744956, "location_subtype": "", "month": "2024-02"}, {"category": "anti-social-behaviour", "location_type": "Force", "location": {"latitude": "53.478480", "street": {"id": 1720016, "name": "On or near Hoober Lane"}, "longitude": "-1.380985"}, "context": "", "outcome_status": null, "persistent_id": "", "id": 116744954, "location_subtype": "", "month": "2024-02"}, {"category": "anti-social-behaviour", "location_type": "Force", "location": {"latitude": "53.447442", "street": {"id": 1719692, "name": "On or near Crane Road"}, "longitude": "-1.393045"}, "context": "", "outcome_status": null, "persistent_id": "", "id": 116744953, "location_subtype": "", "month": "2024-02"}, {"category": "anti-social-behaviour", "location_type": "Force", "location": {"latitude": "53.447924", "street": {"id": 1719506, "name": "On or near Shearman Avenue"}, "longitude": "-1.397721"}, "context": "", "outcome_status": null, "persistent_id": "", "id": 116744952, "location_subtype": "", "month": "2024-02"}, {"category": "anti-social-behaviour", "location_type": "Force", "location": {"latitude": "53.412096", "street": {"id": 1718334, "name": "On or near Dearne Street"}, "longitude": "-1.423486"}, "context": "", "outcome_status": null, "persistent_id": "", "id": 116744947, "location_subtype": "", "month": "2024-02"}, {"category": "anti-social-behaviour", "location_type": "Force", "location": {"latitude": "53.424370", "street": {"id": 1718224, "name": "On or near Standon Drive"}, "longitude": "-1.428166"}, "context": "", "outcome_status": null, "persistent_id": "", "id": 116744946, "location_subtype": "", "month": "2024-02"}, {"category": "anti-social-behaviour", "location_type": "Force", "location": {"latitude": "53.374020", "street": {"id": 1719450, "name": "On or near Richmond Park Croft"}, "longitude": "-1.399816"}, "context": "", "outcome_status": null, "persistent_id": "", "id": 116744950, "location_subtype": "", "month": "2024-02"}, {"category": "anti-social-behaviour", "location_type": "Force", "location": {"latitude": "53.399992", "street": {"id": 1718032, "name": "On or near Don Road"}, "longitude": "-1.431756"}, "context": "", "outcome_status": null, "persistent_id": "", "id": 116744945, "location_subtype": "", "month": "2024-02"}, {"category": "anti-social-behaviour", "location_type": "Force", "location": {"latitude": "53.408120", "street": {"id": 1716566, "name": "On or near Smilter Lane"}, "longitude": "-1.457356"}, "context": "", "outcome_status": null, "persistent_id": "", "id": 116744942, "location_subtype": "", "month": "2024-02"}, {"category": "anti-social-behaviour", "location_type": "Force", "location": {"latitude": "53.420085", "street": {"id": 1716217, "name": "On or near Crowland Road"}, "longitude": "-1.461628"}, "context": "", "outcome_status": null, "persistent_id": "", "id": 116744941, "location_subtype": "", "month": "2024-02"}, {"category": "anti-social-behaviour", "location_type": "Force", "location": {"latitude": "53.318801", "street": {"id": 1712036, "name": "On or near Akley Bank Close"}, "longitude": "-1.527602"}, "context": "", "outcome_status": null, "persistent_id": "", "id": 116744927, "location_subtype": "", "month": "2024-02"}, {"category": "anti-social-behaviour", "location_type": "Force", "location": {"latitude": "53.438958", "street": {"id": 1711586, "name": "On or near Bedford Road"}, "longitude": "-1.540421"}, "context": "", "outcome_status": null, "persistent_id": "", "id": 116744926, "location_subtype": "", "month": "2024-02"}, {"category": "anti-social-behaviour", "location_type": "Force", "location": {"latitude": "53.408028", "street": {"id": 1722568, "name": "On or near Dewhill Avenue"}, "longitude": "-1.324620"}, "context": "", "outcome_status": null, "persistent_id": "", "id": 116744519, "location_subtype": "", "month": "2024-02"}, {"category": "anti-social-behaviour", "location_type": "Force", "location": {"latitude": "53.406466", "street": {"id": 1722286, "name": "On or near Pleasley Road"}, "longitude": "-1.333098"}, "context": "", "outcome_status": null, "persistent_id": "", "id": 116744518, "location_subtype": "", "month": "2024-02"}, {"category": "anti-social-behaviour", "location_type": "Force", "location": {"latitude": "53.461102", "street": {"id": 1722279, "name": "On or near Roundwood Court"}, "longitude": "-1.333493"}, "context": "", "outcome_status": null, "persistent_id": "", "id": 116744517, "location_subtype": "", "month": "2024-02"}, {"category": "anti-social-behaviour", "location_type": "Force", "location": {"latitude": "53.346169", "street": {"id": 1721265, "name": "On or near Sevenairs Road"}, "longitude": "-1.350908"}, "context": "", "outcome_status": null, "persistent_id": "", "id": 116744511, "location_subtype": "", "month": "2024-02"}, {"category": "anti-social-behaviour", "location_type": "Force", "location": {"latitude": "53.426907", "street": {"id": 1721207, "name": "On or near Coke Lane"}, "longitude": "-1.357851"}, "context": "", "outcome_status": null, "persistent_id": "", "id": 116744510, "location_subtype": "", "month": "2024-02"}, {"category": "anti-social-behaviour", "location_type": "Force", "location": {"latitude": "53.399806", "street": {"id": 1721170, "name": "On or near Snowdon Way"}, "longitude": "-1.359342"}, "context": "", "outcome_status": null, "persistent_id": "", "id": 116744509, "location_subtype": "", "month": "2024-02"}, {"category": "anti-social-behaviour", "location_type": "Force", "location": {"latitude": "53.400659", "street": {"id": 1720719, "name": "On or near Ridgeway Road"}, "longitude": "-1.369301"}, "context": "", "outcome_status": null, "persistent_id": "", "id": 116744504, "location_subtype": "", "month": "2024-02"}, {"category": "anti-social-behaviour", "location_type": "Force", "location": {"latitude": "53.432974", "street": {"id": 1720456, "name": "On or near Park Street"}, "longitude": "-1.372841"}, "context": "", "outcome_status": null, "persistent_id": "", "id": 116744503, "location_subtype": "", "month": "2024-02"}, {"category": "anti-social-behaviour", "location_type": "Force", "location": {"latitude": "53.372116", "street": {"id": 1719813, "name": "On or near Petrol Station"}, "longitude": "-1.389093"}, "context": "", "outcome_status": null, "persistent_id": "", "id": 116744499, "location_subtype": "", "month": "2024-02"}, {"category": "anti-social-behaviour", "location_type": "Force", "location": {"latitude": "53.348665", "street": {"id": 1719412, "name": "On or near Heathfield Road"}, "longitude": "-1.401990"}, "context": "", "outcome_status": null, "persistent_id": "", "id": 116744498, "location_subtype": "", "month": "2024-02"}, {"category": "anti-social-behaviour", "location_type": "Force", "location": {"latitude": "53.363855", "street": {"id": 1718565, "name": "On or near Harthill Road"}, "longitude": "-1.418187"}, "context": "", "outcome_status": null, "persistent_id": "", "id": 116744495, "location_subtype": "", "month": "2024-02"}, {"category": "anti-social-behaviour", "location_type": "Force", "location": {"latitude": "53.373102", "street": {"id": 1718687, "name": "On or near Prince Of Wales Road"}, "longitude": "-1.417715"}, "context": "", "outcome_status": null, "persistent_id": "", "id": 116744493, "location_subtype": "", "month": "2024-02"}, {"category": "anti-social-behaviour", "location_type": "Force", "location": {"latitude": "53.383413", "street": {"id": 1718120, "name": "On or near Parkway Avenue"}, "longitude": "-1.431000"}, "context": "", "outcome_status": null, "persistent_id": "", "id": 116744491, "location_subtype": "", "month": "2024-02"}, {"category": "anti-social-behaviour", "location_type": "Force", "location": {"latitude": "53.365582", "street": {"id": 1712845, "name": "On or near Onslow Road"}, "longitude": "-1.508345"}, "context": "", "outcome_status": null, "persistent_id": "", "id": 116738989, "location_subtype": "", "month": "2024-02"}, {"category": "anti-social-behaviour", "location_type": "Force", "location": {"latitude": "53.356076", "street": {"id": 1717632, "name": "On or near Berners Close"}, "longitude": "-1.441881"}, "context": "", "outcome_status": null, "persistent_id": "", "id": 116739003, "location_subtype": "", "month": "2024-02"}, {"category": "anti-social-behaviour", "location_type": "Force", "location": {"latitude": "53.434455", "street": {"id": 1717696, "name": "On or near The Ravine"}, "longitude": "-1.439335"}, "context": "", "outcome_status": null, "persistent_id": "", "id": 116739004, "location_subtype": "", "month": "2024-02"}, {"category": "anti-social-behaviour", "location_type": "Force", "location": {"latitude": "53.347781", "street": {"id": 1718709, "name": "On or near Jaunty Way"}, "longitude": "-1.417745"}, "context": "", "outcome_status": null, "persistent_id": "", "id": 116739005, "location_subtype": "", "month": "2024-02"}, {"category": "anti-social-behaviour", "location_type": "Force", "location": {"latitude": "53.443721", "street": {"id": 1719675, "name": "On or near Bower Close"}, "longitude": "-1.393098"}, "context": "", "outcome_status": null, "persistent_id": "", "id": 116739007, "location_subtype": "", "month": "2024-02"}, {"category": "anti-social-behaviour", "location_type": "Force", "location": {"latitude": "53.411645", "street": {"id": 1719641, "name": "On or near Highgate"}, "longitude": "-1.393991"}, "context": "", "outcome_status": null, "persistent_id": "", "id": 116739008, "location_subtype": "", "month": "2024-02"}, {"category": "anti-social-behaviour", "location_type": "Force", "location": {"latitude": "53.431910", "street": {"id": 1721188, "name": "On or near Bridgegate"}, "longitude": "-1.357098"}, "context": "", "outcome_status": null, "persistent_id": "", "id": 116739012, "location_subtype": "", "month": "2024-02"}, {"category": "anti-social-behaviour", "location_type": "Force", "location": {"latitude": "53.338247", "street": {"id": 1721311, "name": "On or near Thorpe Green"}, "longitude": "-1.355308"}, "context": "", "outcome_status": null, "persistent_id": "", "id": 116739013, "location_subtype": "", "month": "2024-02"}, {"category": "anti-social-behaviour", "location_type": "Force", "location": {"latitude": "53.319440", "street": {"id": 1721298, "name": "On or near Auckland Drive"}, "longitude": "-1.354916"}, "context": "", "outcome_status": null, "persistent_id": "", "id": 116739014, "location_subtype": "", "month": "2024-02"}, {"category": "anti-social-behaviour", "location_type": "Force", "location": {"latitude": "53.432310", "street": {"id": 1721471, "name": "On or near Elliott Court"}, "longitude": "-1.351237"}, "context": "", "outcome_status": null, "persistent_id": "", "id": 116739015, "location_subtype": "", "month": "2024-02"}, {"category": "anti-social-behaviour", "location_type": "Force", "location": {"latitude": "53.433211", "street": {"id": 1721497, "name": "On or near Norfolk Street"}, "longitude": "-1.351660"}, "context": "", "outcome_status": null, "persistent_id": "", "id": 116739016, "location_subtype": "", "month": "2024-02"}, {"category": "anti-social-behaviour", "location_type": "Force", "location": {"latitude": "53.437183", "street": {"id": 1721597, "name": "On or near Selborne Street"}, "longitude": "-1.349733"}, "context": "", "outcome_status": null, "persistent_id": "", "id": 116739017, "location_subtype": "", "month": "2024-02"}, {"category": "anti-social-behaviour", "location_type": "Force", "location": {"latitude": "53.406812", "street": {"id": 1717027, "name": "On or near Skinnerthorpe Road"}, "longitude": "-1.452424"}, "context": "", "outcome_status": null, "persistent_id": "", "id": 116744484, "location_subtype": "", "month": "2024-02"}, {"category": "anti-social-behaviour", "location_type": "Force", "location": {"latitude": "53.329736", "street": {"id": 1716026, "name": "On or near Bochum Parkway"}, "longitude": "-1.464733"}, "context": "", "outcome_status": null, "persistent_id": "", "id": 116744483, "location_subtype": "", "month": "2024-02"}, {"category": "anti-social-behaviour", "location_type": "Force", "location": {"latitude": "53.466921", "street": {"id": 1716228, "name": "On or near Coppice Rise"}, "longitude": "-1.462738"}, "context": "", "outcome_status": null, "persistent_id": "", "id": 116744482, "location_subtype": "", "month": "2024-02"}, {"category": "anti-social-behaviour", "location_type": "Force", "location": {"latitude": "53.384399", "street": {"id": 1715767, "name": "On or near North Church Street"}, "longitude": "-1.469340"}, "context": "", "outcome_status": null, "persistent_id": "", "id": 116744480, "location_subtype": "", "month": "2024-02"}, {"category": "anti-social-behaviour", "location_type": "Force", "location": {"latitude": "53.384399", "street": {"id": 1715767, "name": "On or near North Church Street"}, "longitude": "-1.469340"}, "context": "", "outcome_status": null, "persistent_id": "", "id": 116744479, "location_subtype": "", "month": "2024-02"}, {"category": "anti-social-behaviour", "location_type": "Force", "location": {"latitude": "53.360296", "street": {"id": 1714851, "name": "On or near Hale Street"}, "longitude": "-1.478715"}, "context": "", "outcome_status": null, "persistent_id": "", "id": 116744476, "location_subtype": "", "month": "2024-02"}, {"category": "anti-social-behaviour", "location_type": "Force", "location": {"latitude": "53.378060", "street": {"id": 1714360, "name": "On or near Filey Street"}, "longitude": "-1.485353"}, "context": "", "outcome_status": null, "persistent_id": "", "id": 116744470, "location_subtype": "", "month": "2024-02"}, {"category": "anti-social-behaviour", "location_type": "Force", "location": {"latitude": "53.417531", "street": {"id": 1713791, "name": "On or near Binsted Road"}, "longitude": "-1.492189"}, "context": "", "outcome_status": null, "persistent_id": "", "id": 116744469, "location_subtype": "", "month": "2024-02"}, {"category": "anti-social-behaviour", "location_type": "Force", "location": {"latitude": "53.442999", "street": {"id": 1711355, "name": "On or near Langsett Road North"}, "longitude": "-1.548959"}, "context": "", "outcome_status": null, "persistent_id": "", "id": 116744464, "location_subtype": "", "month": "2024-02"}, {"category": "anti-social-behaviour", "location_type": "Force", "location": {"latitude": "53.433390", "street": {"id": 1722682, "name": "On or near Cawthorne Road"}, "longitude": "-1.320816"}, "context": "", "outcome_status": null, "persistent_id": "", "id": 116744079, "location_subtype": "", "month": "2024-02"}, {"category": "anti-social-behaviour", "location_type": "Force", "location": {"latitude": "53.350451", "street": {"id": 1722189, "name": "On or near Rothervale Close"}, "longitude": "-1.336812"}, "context": "", "outcome_status": null, "persistent_id": "", "id": 116744075, "location_subtype": "", "month": "2024-02"}, {"category": "anti-social-behaviour", "location_type": "Force", "location": {"latitude": "53.421062", "street": {"id": 1721575, "name": "On or near Moorgate Lane"}, "longitude": "-1.348986"}, "context": "", "outcome_status": null, "persistent_id": "", "id": 116744074, "location_subtype": "", "month": "2024-02"}, {"category": "anti-social-behaviour", "location_type": "Force", "location": {"latitude": "53.344200", "street": {"id": 1721056, "name": "On or near Petrol Station"}, "longitude": "-1.360282"}, "context": "", "outcome_status": null, "persistent_id": "", "id": 116744067, "location_subtype": "", "month": "2024-02"}, {"category": "anti-social-behaviour", "location_type": "Force", "location": {"latitude": "53.400387", "street": {"id": 1721097, "name": "On or near Mendip Rise"}, "longitude": "-1.360461"}, "context": "", "outcome_status": null, "persistent_id": "", "id": 116744066, "location_subtype": "", "month": "2024-02"}, {"category": "anti-social-behaviour", "location_type": "Force", "location": {"latitude": "53.382062", "street": {"id": 1720907, "name": "On or near Jacob Way"}, "longitude": "-1.364524"}, "context": "", "outcome_status": null, "persistent_id": "", "id": 116744065, "location_subtype": "", "month": "2024-02"}, {"category": "anti-social-behaviour", "location_type": "Force", "location": {"latitude": "53.396556", "street": {"id": 1715893, "name": "On or near Polka Court"}, "longitude": "-1.468241"}, "context": "", "outcome_status": null, "persistent_id": "", "id": 116739503, "location_subtype": "", "month": "2024-02"}, {"category": "anti-social-behaviour", "location_type": "Force", "location": {"latitude": "53.327724", "street": {"id": 1715868, "name": "On or near Shopping Area"}, "longitude": "-1.467567"}, "context": "", "outcome_status": null, "persistent_id": "", "id": 116739505, "location_subtype": "", "month": "2024-02"}, {"category": "anti-social-behaviour", "location_type": "Force", "location": {"latitude": "53.382912", "street": {"id": 1716031, "name": "On or near High Street"}, "longitude": "-1.466381"}, "context": "", "outcome_status": null, "persistent_id": "", "id": 116739506, "location_subtype": "", "month": "2024-02"}, {"category": "anti-social-behaviour", "location_type": "Force", "location": {"latitude": "53.359651", "street": {"id": 1716188, "name": "On or near Denson Close"}, "longitude": "-1.464839"}, "context": "", "outcome_status": null, "persistent_id": "", "id": 116739507, "location_subtype": "", "month": "2024-02"}, {"category": "anti-social-behaviour", "location_type": "Force", "location": {"latitude": "53.408120", "street": {"id": 1716566, "name": "On or near Smilter Lane"}, "longitude": "-1.457356"}, "context": "", "outcome_status": null, "persistent_id": "", "id": 116739509, "location_subtype": "", "month": "2024-02"}, {"category": "anti-social-behaviour", "location_type": "Force", "location": {"latitude": "53.350975", "street": {"id": 1717459, "name": "On or near Spotswood Close"}, "longitude": "-1.444847"}, "context": "", "outcome_status": null, "persistent_id": "", "id": 116739512, "location_subtype": "", "month": "2024-02"}, {"category": "anti-social-behaviour", "location_type": "Force", "location": {"latitude": "53.369790", "street": {"id": 1717564, "name": "On or near St Aidan's Rise"}, "longitude": "-1.443160"}, "context": "", "outcome_status": null, "persistent_id": "", "id": 116739513, "location_subtype": "", "month": "2024-02"}, {"category": "anti-social-behaviour", "location_type": "Force", "location": {"latitude": "53.430677", "street": {"id": 1720763, "name": "On or near Albert Street"}, "longitude": "-1.368556"}, "context": "", "outcome_status": null, "persistent_id": "", "id": 116744064, "location_subtype": "", "month": "2024-02"}, {"category": "anti-social-behaviour", "location_type": "Force", "location": {"latitude": "53.449543", "street": {"id": 1720592, "name": "On or near Ashleigh Gardens"}, "longitude": "-1.371844"}, "context": "", "outcome_status": null, "persistent_id": "", "id": 116744063, "location_subtype": "", "month": "2024-02"}, {"category": "anti-social-behaviour", "location_type": "Force", "location": {"latitude": "53.432974", "street": {"id": 1720456, "name": "On or near Park Street"}, "longitude": "-1.372841"}, "context": "", "outcome_status": null, "persistent_id": "", "id": 116744062, "location_subtype": "", "month": "2024-02"}, {"category": "anti-social-behaviour", "location_type": "Force", "location": {"latitude": "53.343538", "street": {"id": 1720408, "name": "On or near Brookside Close"}, "longitude": "-1.376662"}, "context": "", "outcome_status": null, "persistent_id": "", "id": 116744061, "location_subtype": "", "month": "2024-02"}, {"category": "anti-social-behaviour", "location_type": "Force", "location": {"latitude": "53.447442", "street": {"id": 1719692, "name": "On or near Crane Road"}, "longitude": "-1.393045"}, "context": "", "outcome_status": null, "persistent_id": "", "id": 116744056, "location_subtype": "", "month": "2024-02"}, {"category": "anti-social-behaviour", "location_type": "Force", "location": {"latitude": "53.364911", "street": {"id": 1718927, "name": "On or near Nodder Road"}, "longitude": "-1.413604"}, "context": "", "outcome_status": null, "persistent_id": "", "id": 116744054, "location_subtype": "", "month": "2024-02"}, {"category": "anti-social-behaviour", "location_type": "Force", "location": {"latitude": "53.376721", "street": {"id": 1716265, "name": "On or near Cross Turner Street"}, "longitude": "-1.463062"}, "context": "", "outcome_status": null, "persistent_id": "", "id": 116744046, "location_subtype": "", "month": "2024-02"}, {"category": "anti-social-behaviour", "location_type": "Force", "location": {"latitude": "53.462372", "street": {"id": 1716191, "name": "On or near Fairfield"}, "longitude": "-1.464618"}, "context": "", "outcome_status": null, "persistent_id": "", "id": 116744045, "location_subtype": "", "month": "2024-02"}, {"category": "anti-social-behaviour", "location_type": "Force", "location": {"latitude": "53.384399", "street": {"id": 1715767, "name": "On or near North Church Street"}, "longitude": "-1.469340"}, "context": "", "outcome_status": null, "persistent_id": "", "id": 116744044, "location_subtype": "", "month": "2024-02"}, {"category": "anti-social-behaviour", "location_type": "Force", "location": {"latitude": "53.385686", "street": {"id": 1715559, "name": "On or near Lambert Street"}, "longitude": "-1.471744"}, "context": "", "outcome_status": null, "persistent_id": "", "id": 116744041, "location_subtype": "", "month": "2024-02"}, {"category": "anti-social-behaviour", "location_type": "Force", "location": {"latitude": "53.380641", "street": {"id": 1715304, "name": "On or near Nightclub"}, "longitude": "-1.474268"}, "context": "", "outcome_status": null, "persistent_id": "", "id": 116744040, "location_subtype": "", "month": "2024-02"}, {"category": "anti-social-behaviour", "location_type": "Force", "location": {"latitude": "53.412902", "street": {"id": 1715213, "name": "On or near Petrol Station"}, "longitude": "-1.474407"}, "context": "", "outcome_status": null, "persistent_id": "", "id": 116744039, "location_subtype": "", "month": "2024-02"}, {"category": "anti-social-behaviour", "location_type": "Force", "location": {"latitude": "53.385753", "street": {"id": 1713658, "name": "On or near The Nook"}, "longitude": "-1.495484"}, "context": "", "outcome_status": null, "persistent_id": "", "id": 116744028, "location_subtype": "", "month": "2024-02"}, {"category": "anti-social-behaviour", "location_type": "Force", "location": {"latitude": "53.316833", "street": {"id": 1712786, "name": "On or near Conalan Avenue"}, "longitude": "-1.507764"}, "context": "", "outcome_status": null, "persistent_id": "", "id": 116744027, "location_subtype": "", "month": "2024-02"}, {"category": "anti-social-behaviour", "location_type": "Force", "location": {"latitude": "53.421586", "street": {"id": 1712244, "name": "On or near Forest Close"}, "longitude": "-1.520550"}, "context": "", "outcome_status": null, "persistent_id": "", "id": 116744025, "location_subtype": "", "month": "2024-02"}, {"category": "anti-social-behaviour", "location_type": "Force", "location": {"latitude": "53.374914", "street": {"id": 1722780, "name": "On or near Well Lane"}, "longitude": "-1.318500"}, "context": "", "outcome_status": null, "persistent_id": "", "id": 116742261, "location_subtype": "", "month": "2024-02"}, {"category": "anti-social-behaviour", "location_type": "Force", "location": {"latitude": "53.363500", "street": {"id": 1722692, "name": "On or near Queens Road"}, "longitude": "-1.321867"}, "context": "", "outcome_status": null, "persistent_id": "", "id": 116742260, "location_subtype": "", "month": "2024-02"}, {"category": "anti-social-behaviour", "location_type": "Force", "location": {"latitude": "53.431463", "street": {"id": 1722585, "name": "On or near Sheridan Drive"}, "longitude": "-1.323330"}, "context": "", "outcome_status": null, "persistent_id": "", "id": 116742259, "location_subtype": "", "month": "2024-02"}, {"category": "anti-social-behaviour", "location_type": "Force", "location": {"latitude": "53.427476", "street": {"id": 1721984, "name": "On or near Gordon Terrace"}, "longitude": "-1.341829"}, "context": "", "outcome_status": null, "persistent_id": "", "id": 116742257, "location_subtype": "", "month": "2024-02"}, {"category": "anti-social-behaviour", "location_type": "Force", "location": {"latitude": "53.322644", "street": {"id": 1721185, "name": "On or near Ralston Place"}, "longitude": "-1.357270"}, "context": "", "outcome_status": null, "persistent_id": "", "id": 116742254, "location_subtype": "", "month": "2024-02"}, {"category": "anti-social-behaviour", "location_type": "Force", "location": {"latitude": "53.324947", "street": {"id": 1721020, "name": "On or near Church Mews"}, "longitude": "-1.362700"}, "context": "", "outcome_status": null, "persistent_id": "", "id": 116742253, "location_subtype": "", "month": "2024-02"}, {"category": "anti-social-behaviour", "location_type": "Force", "location": {"latitude": "53.428552", "street": {"id": 1713915, "name": "On or near Chaucer Close"}, "longitude": "-1.490236"}, "context": "", "outcome_status": null, "persistent_id": "", "id": 116740326, "location_subtype": "", "month": "2024-02"}, {"category": "anti-social-behaviour", "location_type": "Force", "location": {"latitude": "53.371813", "street": {"id": 1714506, "name": "On or near Summerfield Street"}, "longitude": "-1.483384"}, "context": "", "outcome_status": null, "persistent_id": "", "id": 116740328, "location_subtype": "", "month": "2024-02"}, {"category": "anti-social-behaviour", "location_type": "Force", "location": {"latitude": "53.428120", "street": {"id": 1714624, "name": "On or near Deerlands Close"}, "longitude": "-1.481663"}, "context": "", "outcome_status": null, "persistent_id": "", "id": 116740329, "location_subtype": "", "month": "2024-02"}, {"category": "anti-social-behaviour", "location_type": "Force", "location": {"latitude": "53.384735", "street": {"id": 1714739, "name": "On or near Brownell Street"}, "longitude": "-1.480401"}, "context": "", "outcome_status": null, "persistent_id": "", "id": 116740332, "location_subtype": "", "month": "2024-02"}, {"category": "anti-social-behaviour", "location_type": "Force", "location": {"latitude": "53.327249", "street": {"id": 1714731, "name": "On or near Greenfield Drive"}, "longitude": "-1.479688"}, "context": "", "outcome_status": null, "persistent_id": "", "id": 116740333, "location_subtype": "", "month": "2024-02"}, {"category": "anti-social-behaviour", "location_type": "Force", "location": {"latitude": "53.374211", "street": {"id": 1715042, "name": "On or near Young Street"}, "longitude": "-1.476741"}, "context": "", "outcome_status": null, "persistent_id": "", "id": 116740334, "location_subtype": "", "month": "2024-02"}, {"category": "anti-social-behaviour", "location_type": "Force", "location": {"latitude": "53.379362", "street": {"id": 1715238, "name": "On or near Parking Area"}, "longitude": "-1.474694"}, "context": "", "outcome_status": null, "persistent_id": "", "id": 116740335, "location_subtype": "", "month": "2024-02"}, {"category": "anti-social-behaviour", "location_type": "Force", "location": {"latitude": "53.383554", "street": {"id": 1717056, "name": "On or near St John's Road"}, "longitude": "-1.451535"}, "context": "", "outcome_status": null, "persistent_id": "", "id": 116740343, "location_subtype": "", "month": "2024-02"}, {"category": "anti-social-behaviour", "location_type": "Force", "location": {"latitude": "53.346054", "street": {"id": 1717327, "name": "On or near Gaunt Way"}, "longitude": "-1.445842"}, "context": "", "outcome_status": null, "persistent_id": "", "id": 116740345, "location_subtype": "", "month": "2024-02"}, {"category": "anti-social-behaviour", "location_type": "Force", "location": {"latitude": "53.365134", "street": {"id": 1717343, "name": "On or near Guildford Walk"}, "longitude": "-1.445219"}, "context": "", "outcome_status": null, "persistent_id": "", "id": 116740346, "location_subtype": "", "month": "2024-02"}, {"category": "anti-social-behaviour", "location_type": "Force", "location": {"latitude": "53.422097", "street": {"id": 1717556, "name": "On or near Sports/recreation Area"}, "longitude": "-1.441369"}, "context": "", "outcome_status": null, "persistent_id": "", "id": 116740347, "location_subtype": "", "month": "2024-02"}, {"category": "anti-social-behaviour", "location_type": "Force", "location": {"latitude": "53.425016", "street": {"id": 1721219, "name": "On or near The Maltings"}, "longitude": "-1.357052"}, "context": "", "outcome_status": null, "persistent_id": "", "id": 116740359, "location_subtype": "", "month": "2024-02"}, {"category": "anti-social-behaviour", "location_type": "Force", "location": {"latitude": "53.418518", "street": {"id": 1721576, "name": "On or near College Park Close"}, "longitude": "-1.347385"}, "context": "", "outcome_status": null, "persistent_id": "", "id": 116740361, "location_subtype": "", "month": "2024-02"}, {"category": "anti-social-behaviour", "location_type": "Force", "location": {"latitude": "53.345229", "street": {"id": 1721943, "name": "On or near Newbould Crescent"}, "longitude": "-1.340047"}, "context": "", "outcome_status": null, "persistent_id": "", "id": 116740362, "location_subtype": "", "month": "2024-02"}, {"category": "anti-social-behaviour", "location_type": "Force", "location": {"latitude": "53.462339", "street": {"id": 1722423, "name": "On or near Ash Grove"}, "longitude": "-1.329663"}, "context": "", "outcome_status": null, "persistent_id": "", "id": 116740363, "location_subtype": "", "month": "2024-02"}, {"category": "anti-social-behaviour", "location_type": "Force", "location": {"latitude": "53.407397", "street": {"id": 1722391, "name": "On or near Sandringham Avenue"}, "longitude": "-1.329218"}, "context": "", "outcome_status": null, "persistent_id": "", "id": 116740364, "location_subtype": "", "month": "2024-02"}, {"category": "anti-social-behaviour", "location_type": "Force", "location": {"latitude": "53.430025", "street": {"id": 1720403, "name": "On or near Devonshire Street"}, "longitude": "-1.376316"}, "context": "", "outcome_status": null, "persistent_id": "", "id": 116742250, "location_subtype": "", "month": "2024-02"}, {"category": "anti-social-behaviour", "location_type": "Force", "location": {"latitude": "53.420442", "street": {"id": 1718604, "name": "On or near Vauxhall Road"}, "longitude": "-1.418724"}, "context": "", "outcome_status": null, "persistent_id": "", "id": 116742241, "location_subtype": "", "month": "2024-02"}, {"category": "anti-social-behaviour", "location_type": "Force", "location": {"latitude": "53.360441", "street": {"id": 1718288, "name": "On or near Pit Lane"}, "longitude": "-1.425957"}, "context": "", "outcome_status": null, "persistent_id": "", "id": 116742240, "location_subtype": "", "month": "2024-02"}, {"category": "anti-social-behaviour", "location_type": "Force", "location": {"latitude": "53.339564", "street": {"id": 1717125, "name": "On or near Blackstock Drive"}, "longitude": "-1.449621"}, "context": "", "outcome_status": null, "persistent_id": "", "id": 116742239, "location_subtype": "", "month": "2024-02"}, {"category": "anti-social-behaviour", "location_type": "Force", "location": {"latitude": "53.422360", "street": {"id": 1717045, "name": "On or near Padley Way"}, "longitude": "-1.451969"}, "context": "", "outcome_status": null, "persistent_id": "", "id": 116742238, "location_subtype": "", "month": "2024-02"}, {"category": "anti-social-behaviour", "location_type": "Force", "location": {"latitude": "53.391589", "street": {"id": 1716562, "name": "On or near Spital Lane"}, "longitude": "-1.459191"}, "context": "", "outcome_status": null, "persistent_id": "", "id": 116742235, "location_subtype": "", "month": "2024-02"}, {"category": "anti-social-behaviour", "location_type": "Force", "location": {"latitude": "53.372636", "street": {"id": 1716152, "name": "On or near Nightclub"}, "longitude": "-1.463955"}, "context": "", "outcome_status": null, "persistent_id": "", "id": 116742234, "location_subtype": "", "month": "2024-02"}, {"category": "anti-social-behaviour", "location_type": "Force", "location": {"latitude": "53.382289", "street": {"id": 1716088, "name": "On or near Parking Area"}, "longitude": "-1.465818"}, "context": "", "outcome_status": null, "persistent_id": "", "id": 116742233, "location_subtype": "", "month": "2024-02"}, {"category": "anti-social-behaviour", "location_type": "Force", "location": {"latitude": "53.447253", "street": {"id": 1716082, "name": "On or near Whitley Croft"}, "longitude": "-1.466509"}, "context": "", "outcome_status": null, "persistent_id": "", "id": 116742232, "location_subtype": "", "month": "2024-02"}, {"category": "anti-social-behaviour", "location_type": "Force", "location": {"latitude": "53.351908", "street": {"id": 1715963, "name": "On or near Supermarket"}, "longitude": "-1.466788"}, "context": "", "outcome_status": null, "persistent_id": "", "id": 116742231, "location_subtype": "", "month": "2024-02"}, {"category": "anti-social-behaviour", "location_type": "Force", "location": {"latitude": "53.374339", "street": {"id": 1715617, "name": "On or near Sylvester Street"}, "longitude": "-1.470938"}, "context": "", "outcome_status": null, "persistent_id": "", "id": 116742230, "location_subtype": "", "month": "2024-02"}, {"category": "anti-social-behaviour", "location_type": "Force", "location": {"latitude": "53.376769", "street": {"id": 1715414, "name": "On or near Rockingham Gate"}, "longitude": "-1.473854"}, "context": "", "outcome_status": null, "persistent_id": "", "id": 116742229, "location_subtype": "", "month": "2024-02"}, {"category": "anti-social-behaviour", "location_type": "Force", "location": {"latitude": "53.351490", "street": {"id": 1714825, "name": "On or near Newsham Road"}, "longitude": "-1.479213"}, "context": "", "outcome_status": null, "persistent_id": "", "id": 116742227, "location_subtype": "", "month": "2024-02"}, {"category": "anti-social-behaviour", "location_type": "Force", "location": {"latitude": "53.446914", "street": {"id": 1719277, "name": "On or near Studmoor Road"}, "longitude": "-1.406016"}, "context": "", "outcome_status": null, "persistent_id": "", "id": 116743659, "location_subtype": "", "month": "2024-02"}, {"category": "anti-social-behaviour", "location_type": "Force", "location": {"latitude": "53.346548", "street": {"id": 1720208, "name": "On or near Cotleigh Road"}, "longitude": "-1.379938"}, "context": "", "outcome_status": null, "persistent_id": "", "id": 116743664, "location_subtype": "", "month": "2024-02"}, {"category": "anti-social-behaviour", "location_type": "Force", "location": {"latitude": "53.426604", "street": {"id": 1720219, "name": "On or near Steel Street"}, "longitude": "-1.380460"}, "context": "", "outcome_status": null, "persistent_id": "", "id": 116743663, "location_subtype": "", "month": "2024-02"}, {"category": "anti-social-behaviour", "location_type": "Force", "location": {"latitude": "53.367681", "street": {"id": 1719973, "name": "On or near Richworth Road"}, "longitude": "-1.385297"},