[{"category": "anti-social-behaviour", "location_type": "Force", "location": {"latitude": "53.414119", "street": {"id": 1719025, "name": "On or near Shopping Area"}, "longitude": "-1.410731"}, "context": "", "outcome_status": null, "persistent_id": "", "id": 121970835, "location_subtype": "", "month": "2024-08"}, {"category": "anti-social-behaviour", "location_type": "Force", "location": {"latitude": "53.347356", "street": {"id": 1719602, "name": "On or near East Glade Crescent"}, "longitude": "-1.395534"}, "context": "", "outcome_status": null, "persistent_id": "", "id": 121970845, "location_subtype": "", "month": "2024-08"}, {"category": "anti-social-behaviour", "location_type": "Force", "location": {"latitude": "53.432974", "street": {"id": 1720456, "name": "On or near Park Street"}, "longitude": "-1.372841"}, "context": "", "outcome_status": null, "persistent_id": "", "id": 121970851, "location_subtype": "", "month": "2024-08"}, {"category": "anti-social-behaviour", "location_type": "Force", "location": {"latitude": "53.367108", "street": {"id": 1717635, "name": "On or near St Aidan's Place"}, "longitude": "-1.440520"}, "context": "", "outcome_status": null, "persistent_id": "", "id": 121985083, "location_subtype": "", "month": "2024-08"}, {"category": "anti-social-behaviour", "location_type": "Force", "location": {"latitude": "53.452768", "street": {"id": 1720863, "name": "On or near Providence Street"}, "longitude": "-1.366316"}, "context": "", "outcome_status": null, "persistent_id": "", "id": 121970854, "location_subtype": "", "month": "2024-08"}, {"category": "anti-social-behaviour", "location_type": "Force", "location": {"latitude": "53.433833", "street": {"id": 1721396, "name": "On or near Supermarket"}, "longitude": "-1.353592"}, "context": "", "outcome_status": null, "persistent_id": "", "id": 121970857, "location_subtype": "", "month": "2024-08"}, {"category": "anti-social-behaviour", "location_type": "Force", "location": {"latitude": "53.421062", "street": {"id": 1721575, "name": "On or near Moorgate Lane"}, "longitude": "-1.348986"}, "context": "", "outcome_status": null, "persistent_id": "", "id": 121970860, "location_subtype": "", "month": "2024-08"}, {"category": "anti-social-behaviour", "location_type": "Force", "location": {"latitude": "53.323156", "street": {"id": 1715090, "name": "On or near Lupton Crescent"}, "longitude": "-1.476855"}, "context": "", "outcome_status": null, "persistent_id": "", "id": 121970799, "location_subtype": "", "month": "2024-08"}, {"category": "anti-social-behaviour", "location_type": "Force", "location": {"latitude": "53.461650", "street": {"id": 1715968, "name": "On or near Market Place"}, "longitude": "-1.465832"}, "context": "", "outcome_status": null, "persistent_id": "", "id": 121970802, "location_subtype": "", "month": "2024-08"}, {"category": "anti-social-behaviour", "location_type": "Force", "location": {"latitude": "53.359031", "street": {"id": 1716592, "name": "On or near Derby Terrace"}, "longitude": "-1.458942"}, "context": "", "outcome_status": null, "persistent_id": "", "id": 121970808, "location_subtype": "", "month": "2024-08"}, {"category": "anti-social-behaviour", "location_type": "Force", "location": {"latitude": "53.410042", "street": {"id": 1717213, "name": "On or near Idsworth Road"}, "longitude": "-1.449058"}, "context": "", "outcome_status": null, "persistent_id": "", "id": 121970810, "location_subtype": "", "month": "2024-08"}, {"category": "anti-social-behaviour", "location_type": "Force", "location": {"latitude": "53.348396", "street": {"id": 1720010, "name": "On or near Dyke Vale Way"}, "longitude": "-1.384373"}, "context": "", "outcome_status": null, "persistent_id": "", "id": 121985099, "location_subtype": "", "month": "2024-08"}, {"category": "anti-social-behaviour", "location_type": "Force", "location": {"latitude": "53.383806", "street": {"id": 1717512, "name": "On or near Shopping Area"}, "longitude": "-1.443835"}, "context": "", "outcome_status": null, "persistent_id": "", "id": 121970813, "location_subtype": "", "month": "2024-08"}, {"category": "anti-social-behaviour", "location_type": "Force", "location": {"latitude": "53.449785", "street": {"id": 1719843, "name": "On or near Wingfield Road"}, "longitude": "-1.387305"}, "context": "", "outcome_status": null, "persistent_id": "", "id": 121985096, "location_subtype": "", "month": "2024-08"}, {"category": "anti-social-behaviour", "location_type": "Force", "location": {"latitude": "53.344980", "street": {"id": 1717828, "name": "On or near Morland Drive"}, "longitude": "-1.435387"}, "context": "", "outcome_status": null, "persistent_id": "", "id": 121970823, "location_subtype": "", "month": "2024-08"}, {"category": "anti-social-behaviour", "location_type": "Force", "location": {"latitude": "53.360336", "street": {"id": 1717646, "name": "On or near Errington Way"}, "longitude": "-1.441705"}, "context": "", "outcome_status": null, "persistent_id": "", "id": 121970818, "location_subtype": "", "month": "2024-08"}, {"category": "anti-social-behaviour", "location_type": "Force", "location": {"latitude": "53.339582", "street": {"id": 1717640, "name": "On or near Sandby Drive"}, "longitude": "-1.441931"}, "context": "", "outcome_status": null, "persistent_id": "", "id": 121970821, "location_subtype": "", "month": "2024-08"}, {"category": "anti-social-behaviour", "location_type": "Force", "location": {"latitude": "53.345141", "street": {"id": 1718297, "name": "On or near Supermarket"}, "longitude": "-1.425833"}, "context": "", "outcome_status": null, "persistent_id": "", "id": 121970826, "location_subtype": "", "month": "2024-08"}, {"category": "anti-social-behaviour", "location_type": "Force", "location": {"latitude": "53.397356", "street": {"id": 1718823, "name": "On or near Stovin Gardens"}, "longitude": "-1.414452"}, "context": "", "outcome_status": null, "persistent_id": "", "id": 121970829, "location_subtype": "", "month": "2024-08"}, {"category": "anti-social-behaviour", "location_type": "Force", "location": {"latitude": "53.345675", "street": {"id": 1719617, "name": "On or near East Glade Place"}, "longitude": "-1.395422"}, "context": "", "outcome_status": null, "persistent_id": "", "id": 121985091, "location_subtype": "", "month": "2024-08"}, {"category": "anti-social-behaviour", "location_type": "Force", "location": {"latitude": "53.343964", "street": {"id": 1717827, "name": "On or near Morland Road"}, "longitude": "-1.437143"}, "context": "", "outcome_status": null, "persistent_id": "", "id": 121985089, "location_subtype": "", "month": "2024-08"}, {"category": "anti-social-behaviour", "location_type": "Force", "location": {"latitude": "53.428320", "street": {"id": 1719064, "name": "On or near West View Road"}, "longitude": "-1.410399"}, "context": "", "outcome_status": null, "persistent_id": "", "id": 121970832, "location_subtype": "", "month": "2024-08"}, {"category": "anti-social-behaviour", "location_type": "Force", "location": {"latitude": "53.366799", "street": {"id": 1719207, "name": "On or near Spinkhill Avenue"}, "longitude": "-1.408183"}, "context": "", "outcome_status": null, "persistent_id": "", "id": 121970837, "location_subtype": "", "month": "2024-08"}, {"category": "anti-social-behaviour", "location_type": "Force", "location": {"latitude": "53.323113", "street": {"id": 1721484, "name": "On or near Borrowdale Avenue"}, "longitude": "-1.350927"}, "context": "", "outcome_status": null, "persistent_id": "", "id": 121970863, "location_subtype": "", "month": "2024-08"}, {"category": "anti-social-behaviour", "location_type": "Force", "location": {"latitude": "53.350201", "street": {"id": 1721688, "name": "On or near Woodhouse Avenue"}, "longitude": "-1.346941"}, "context": "", "outcome_status": null, "persistent_id": "", "id": 121970866, "location_subtype": "", "month": "2024-08"}, {"category": "anti-social-behaviour", "location_type": "Force", "location": {"latitude": "53.471442", "street": {"id": 1721916, "name": "On or near Homestead Drive"}, "longitude": "-1.342189"}, "context": "", "outcome_status": null, "persistent_id": "", "id": 121970869, "location_subtype": "", "month": "2024-08"}, {"category": "anti-social-behaviour", "location_type": "Force", "location": {"latitude": "53.339645", "street": {"id": 1722407, "name": "On or near Meadow Gate Avenue"}, "longitude": "-1.330086"}, "context": "", "outcome_status": null, "persistent_id": "", "id": 121970872, "location_subtype": "", "month": "2024-08"}, {"category": "anti-social-behaviour", "location_type": "Force", "location": {"latitude": "53.339645", "street": {"id": 1722407, "name": "On or near Meadow Gate Avenue"}, "longitude": "-1.330086"}, "context": "", "outcome_status": null, "persistent_id": "", "id": 121970875, "location_subtype": "", "month": "2024-08"}, {"category": "anti-social-behaviour", "location_type": "Force", "location": {"latitude": "53.362684", "street": {"id": 1722870, "name": "On or near Belgrave Place"}, "longitude": "-1.317448"}, "context": "", "outcome_status": null, "persistent_id": "", "id": 121970878, "location_subtype": "", "month": "2024-08"}, {"category": "anti-social-behaviour", "location_type": "Force", "location": {"latitude": "53.398246", "street": {"id": 1717498, "name": "On or near Atlas Way"}, "longitude": "-1.442758"}, "context": "", "outcome_status": null, "persistent_id": "", "id": 121985080, "location_subtype": "", "month": "2024-08"}, {"category": "anti-social-behaviour", "location_type": "Force", "location": {"latitude": "53.432099", "street": {"id": 1720829, "name": "On or near College Road"}, "longitude": "-1.365449"}, "context": "", "outcome_status": null, "persistent_id": "", "id": 121986532, "location_subtype": "", "month": "2024-08"}, {"category": "anti-social-behaviour", "location_type": "Force", "location": {"latitude": "53.385339", "street": {"id": 1712824, "name": "On or near Supermarket"}, "longitude": "-1.507955"}, "context": "", "outcome_status": null, "persistent_id": "", "id": 121968924, "location_subtype": "", "month": "2024-08"}, {"category": "anti-social-behaviour", "location_type": "Force", "location": {"latitude": "53.417431", "street": {"id": 1713318, "name": "On or near Carrwell Lane"}, "longitude": "-1.500270"}, "context": "", "outcome_status": null, "persistent_id": "", "id": 121968932, "location_subtype": "", "month": "2024-08"}, {"category": "anti-social-behaviour", "location_type": "Force", "location": {"latitude": "53.401994", "street": {"id": 1713635, "name": "On or near Supermarket"}, "longitude": "-1.495231"}, "context": "", "outcome_status": null, "persistent_id": "", "id": 121968935, "location_subtype": "", "month": "2024-08"}, {"category": "anti-social-behaviour", "location_type": "Force", "location": {"latitude": "53.419571", "street": {"id": 1713842, "name": "On or near Cookson Close"}, "longitude": "-1.492089"}, "context": "", "outcome_status": null, "persistent_id": "", "id": 121968938, "location_subtype": "", "month": "2024-08"}, {"category": "anti-social-behaviour", "location_type": "Force", "location": {"latitude": "53.389906", "street": {"id": 1714005, "name": "On or near Blake Grove Road"}, "longitude": "-1.489360"}, "context": "", "outcome_status": null, "persistent_id": "", "id": 121968941, "location_subtype": "", "month": "2024-08"}, {"category": "anti-social-behaviour", "location_type": "Force", "location": {"latitude": "53.324525", "street": {"id": 1714180, "name": "On or near Greenhill Parkway"}, "longitude": "-1.487948"}, "context": "", "outcome_status": null, "persistent_id": "", "id": 121968944, "location_subtype": "", "month": "2024-08"}, {"category": "anti-social-behaviour", "location_type": "Force", "location": {"latitude": "53.357779", "street": {"id": 1714512, "name": "On or near Leyburn Road"}, "longitude": "-1.482772"}, "context": "", "outcome_status": null, "persistent_id": "", "id": 121968950, "location_subtype": "", "month": "2024-08"}, {"category": "anti-social-behaviour", "location_type": "Force", "location": {"latitude": "53.343982", "street": {"id": 1714504, "name": "On or near Fraser Crescent"}, "longitude": "-1.482909"}, "context": "", "outcome_status": null, "persistent_id": "", "id": 121968954, "location_subtype": "", "month": "2024-08"}, {"category": "anti-social-behaviour", "location_type": "Force", "location": {"latitude": "53.369054", "street": {"id": 1714598, "name": "On or near Washington Road"}, "longitude": "-1.481448"}, "context": "", "outcome_status": null, "persistent_id": "", "id": 121968958, "location_subtype": "", "month": "2024-08"}, {"category": "anti-social-behaviour", "location_type": "Force", "location": {"latitude": "53.369054", "street": {"id": 1714598, "name": "On or near Washington Road"}, "longitude": "-1.481448"}, "context": "", "outcome_status": null, "persistent_id": "", "id": 121968961, "location_subtype": "", "month": "2024-08"}, {"category": "anti-social-behaviour", "location_type": "Force", "location": {"latitude": "53.424593", "street": {"id": 1714973, "name": "On or near Buchanan Road"}, "longitude": "-1.476725"}, "context": "", "outcome_status": null, "persistent_id": "", "id": 121968968, "location_subtype": "", "month": "2024-08"}, {"category": "anti-social-behaviour", "location_type": "Force", "location": {"latitude": "53.410502", "street": {"id": 1715079, "name": "On or near Longley Avenue West"}, "longitude": "-1.477545"}, "context": "", "outcome_status": null, "persistent_id": "", "id": 121968972, "location_subtype": "", "month": "2024-08"}, {"category": "anti-social-behaviour", "location_type": "Force", "location": {"latitude": "53.377324", "street": {"id": 1715241, "name": "On or near Nightclub"}, "longitude": "-1.475830"}, "context": "", "outcome_status": null, "persistent_id": "", "id": 121968975, "location_subtype": "", "month": "2024-08"}, {"category": "anti-social-behaviour", "location_type": "Force", "location": {"latitude": "53.318901", "street": {"id": 1715707, "name": "On or near Bowshaw Avenue"}, "longitude": "-1.469957"}, "context": "", "outcome_status": null, "persistent_id": "", "id": 121968982, "location_subtype": "", "month": "2024-08"}, {"category": "anti-social-behaviour", "location_type": "Force", "location": {"latitude": "53.375064", "street": {"id": 1716060, "name": "On or near Matilda Lane"}, "longitude": "-1.466194"}, "context": "", "outcome_status": null, "persistent_id": "", "id": 121968985, "location_subtype": "", "month": "2024-08"}, {"category": "anti-social-behaviour", "location_type": "Force", "location": {"latitude": "53.424927", "street": {"id": 1716147, "name": "On or near Old School Drive"}, "longitude": "-1.464953"}, "context": "", "outcome_status": null, "persistent_id": "", "id": 121968988, "location_subtype": "", "month": "2024-08"}, {"category": "anti-social-behaviour", "location_type": "Force", "location": {"latitude": "53.324637", "street": {"id": 1716168, "name": "On or near Ormond Drive"}, "longitude": "-1.464226"}, "context": "", "outcome_status": null, "persistent_id": "", "id": 121968995, "location_subtype": "", "month": "2024-08"}, {"category": "anti-social-behaviour", "location_type": "Force", "location": {"latitude": "53.431357", "street": {"id": 1720117, "name": "On or near Meadow Street"}, "longitude": "-1.381685"}, "context": "", "outcome_status": null, "persistent_id": "", "id": 121990759, "location_subtype": "", "month": "2024-08"}, {"category": "anti-social-behaviour", "location_type": "Force", "location": {"latitude": "53.472949", "street": {"id": 1721017, "name": "On or near Central Drive"}, "longitude": "-1.361556"}, "context": "", "outcome_status": null, "persistent_id": "", "id": 121986529, "location_subtype": "", "month": "2024-08"}, {"category": "anti-social-behaviour", "location_type": "Force", "location": {"latitude": "53.394620", "street": {"id": 1716284, "name": "On or near Catherine Street"}, "longitude": "-1.463618"}, "context": "", "outcome_status": null, "persistent_id": "", "id": 121968997, "location_subtype": "", "month": "2024-08"}, {"category": "anti-social-behaviour", "location_type": "Force", "location": {"latitude": "53.408120", "street": {"id": 1716566, "name": "On or near Smilter Lane"}, "longitude": "-1.457356"}, "context": "", "outcome_status": null, "persistent_id": "", "id": 121969004, "location_subtype": "", "month": "2024-08"}, {"category": "anti-social-behaviour", "location_type": "Force", "location": {"latitude": "53.436930", "street": {"id": 1716461, "name": "On or near St Michael's Road"}, "longitude": "-1.459744"}, "context": "", "outcome_status": null, "persistent_id": "", "id": 121969007, "location_subtype": "", "month": "2024-08"}, {"category": "anti-social-behaviour", "location_type": "Force", "location": {"latitude": "53.381892", "street": {"id": 1716577, "name": "On or near Anson Street"}, "longitude": "-1.459464"}, "context": "", "outcome_status": null, "persistent_id": "", "id": 121969011, "location_subtype": "", "month": "2024-08"}, {"category": "anti-social-behaviour", "location_type": "Force", "location": {"latitude": "53.381892", "street": {"id": 1716577, "name": "On or near Anson Street"}, "longitude": "-1.459464"}, "context": "", "outcome_status": null, "persistent_id": "", "id": 121969014, "location_subtype": "", "month": "2024-08"}, {"category": "anti-social-behaviour", "location_type": "Force", "location": {"latitude": "53.403909", "street": {"id": 1716796, "name": "On or near Osgathorpe Crescent"}, "longitude": "-1.456372"}, "context": "", "outcome_status": null, "persistent_id": "", "id": 121969019, "location_subtype": "", "month": "2024-08"}, {"category": "anti-social-behaviour", "location_type": "Force", "location": {"latitude": "53.351588", "street": {"id": 1717496, "name": "On or near Middle Hay Close"}, "longitude": "-1.443172"}, "context": "", "outcome_status": null, "persistent_id": "", "id": 121969022, "location_subtype": "", "month": "2024-08"}, {"category": "anti-social-behaviour", "location_type": "Force", "location": {"latitude": "53.358214", "street": {"id": 1720959, "name": "On or near Balmoral Road"}, "longitude": "-1.364368"}, "context": "", "outcome_status": null, "persistent_id": "", "id": 121986526, "location_subtype": "", "month": "2024-08"}, {"category": "anti-social-behaviour", "location_type": "Force", "location": {"latitude": "53.368789", "street": {"id": 1718253, "name": "On or near Waltheof Road"}, "longitude": "-1.427287"}, "context": "", "outcome_status": null, "persistent_id": "", "id": 121969031, "location_subtype": "", "month": "2024-08"}, {"category": "anti-social-behaviour", "location_type": "Force", "location": {"latitude": "53.453465", "street": {"id": 1720805, "name": "On or near Oxford Close"}, "longitude": "-1.367209"}, "context": "", "outcome_status": null, "persistent_id": "", "id": 121986523, "location_subtype": "", "month": "2024-08"}, {"category": "anti-social-behaviour", "location_type": "Force", "location": {"latitude": "53.378690", "street": {"id": 1718721, "name": "On or near Goore Drive"}, "longitude": "-1.417098"}, "context": "", "outcome_status": null, "persistent_id": "", "id": 121969034, "location_subtype": "", "month": "2024-08"}, {"category": "anti-social-behaviour", "location_type": "Force", "location": {"latitude": "53.369790", "street": {"id": 1717564, "name": "On or near St Aidan's Rise"}, "longitude": "-1.443160"}, "context": "", "outcome_status": null, "persistent_id": "", "id": 121985077, "location_subtype": "", "month": "2024-08"}, {"category": "anti-social-behaviour", "location_type": "Force", "location": {"latitude": "53.385749", "street": {"id": 1718723, "name": "On or near Acres Hill Court"}, "longitude": "-1.415708"}, "context": "", "outcome_status": null, "persistent_id": "", "id": 121969037, "location_subtype": "", "month": "2024-08"}, {"category": "anti-social-behaviour", "location_type": "Force", "location": {"latitude": "53.414119", "street": {"id": 1719025, "name": "On or near Shopping Area"}, "longitude": "-1.410731"}, "context": "", "outcome_status": null, "persistent_id": "", "id": 121969043, "location_subtype": "", "month": "2024-08"}, {"category": "anti-social-behaviour", "location_type": "Force", "location": {"latitude": "53.432243", "street": {"id": 1719751, "name": "On or near Dycott Road"}, "longitude": "-1.391410"}, "context": "", "outcome_status": null, "persistent_id": "", "id": 121969054, "location_subtype": "", "month": "2024-08"}, {"category": "anti-social-behaviour", "location_type": "Force", "location": {"latitude": "53.432706", "street": {"id": 1719752, "name": "On or near Ewers Road"}, "longitude": "-1.390666"}, "context": "", "outcome_status": null, "persistent_id": "", "id": 121969057, "location_subtype": "", "month": "2024-08"}, {"category": "anti-social-behaviour", "location_type": "Force", "location": {"latitude": "53.358881", "street": {"id": 1720608, "name": "On or near Cross Drive"}, "longitude": "-1.371450"}, "context": "", "outcome_status": null, "persistent_id": "", "id": 121969063, "location_subtype": "", "month": "2024-08"}, {"category": "anti-social-behaviour", "location_type": "Force", "location": {"latitude": "53.341160", "street": {"id": 1721026, "name": "On or near Pentland Gardens"}, "longitude": "-1.362143"}, "context": "", "outcome_status": null, "persistent_id": "", "id": 121969066, "location_subtype": "", "month": "2024-08"}, {"category": "anti-social-behaviour", "location_type": "Force", "location": {"latitude": "53.325896", "street": {"id": 1721018, "name": "On or near Stone Street"}, "longitude": "-1.362055"}, "context": "", "outcome_status": null, "persistent_id": "", "id": 121969069, "location_subtype": "", "month": "2024-08"}, {"category": "anti-social-behaviour", "location_type": "Force", "location": {"latitude": "53.430766", "street": {"id": 1721370, "name": "On or near Doncaster Gate"}, "longitude": "-1.353232"}, "context": "", "outcome_status": null, "persistent_id": "", "id": 121969078, "location_subtype": "", "month": "2024-08"}, {"category": "anti-social-behaviour", "location_type": "Force", "location": {"latitude": "53.341144", "street": {"id": 1721291, "name": "On or near Purbeck Court"}, "longitude": "-1.355910"}, "context": "", "outcome_status": null, "persistent_id": "", "id": 121969081, "location_subtype": "", "month": "2024-08"}, {"category": "anti-social-behaviour", "location_type": "Force", "location": {"latitude": "53.434282", "street": {"id": 1720695, "name": "On or near Clough Street"}, "longitude": "-1.370338"}, "context": "", "outcome_status": null, "persistent_id": "", "id": 121990768, "location_subtype": "", "month": "2024-08"}, {"category": "anti-social-behaviour", "location_type": "Force", "location": {"latitude": "53.421116", "street": {"id": 1721479, "name": "On or near Moorgate Avenue"}, "longitude": "-1.350670"}, "context": "", "outcome_status": null, "persistent_id": "", "id": 121969084, "location_subtype": "", "month": "2024-08"}, {"category": "anti-social-behaviour", "location_type": "Force", "location": {"latitude": "53.393768", "street": {"id": 1716636, "name": "On or near Grimesthorpe Road South"}, "longitude": "-1.457885"}, "context": "", "outcome_status": null, "persistent_id": "", "id": 121985059, "location_subtype": "", "month": "2024-08"}, {"category": "anti-social-behaviour", "location_type": "Force", "location": {"latitude": "53.433463", "street": {"id": 1721655, "name": "On or near Ridge Road"}, "longitude": "-1.346719"}, "context": "", "outcome_status": null, "persistent_id": "", "id": 121969087, "location_subtype": "", "month": "2024-08"}, {"category": "anti-social-behaviour", "location_type": "Force", "location": {"latitude": "53.461430", "street": {"id": 1721941, "name": "On or near Hawley Street"}, "longitude": "-1.342510"}, "context": "", "outcome_status": null, "persistent_id": "", "id": 121969091, "location_subtype": "", "month": "2024-08"}, {"category": "anti-social-behaviour", "location_type": "Force", "location": {"latitude": "53.346410", "street": {"id": 1721800, "name": "On or near Skelton Lane"}, "longitude": "-1.345617"}, "context": "", "outcome_status": null, "persistent_id": "", "id": 121969095, "location_subtype": "", "month": "2024-08"}, {"category": "anti-social-behaviour", "location_type": "Force", "location": {"latitude": "53.420115", "street": {"id": 1721865, "name": "On or near Oxley Grove"}, "longitude": "-1.343493"}, "context": "", "outcome_status": null, "persistent_id": "", "id": 121969098, "location_subtype": "", "month": "2024-08"}, {"category": "anti-social-behaviour", "location_type": "Force", "location": {"latitude": "53.337568", "street": {"id": 1722049, "name": "On or near Willingham Gardens"}, "longitude": "-1.339625"}, "context": "", "outcome_status": null, "persistent_id": "", "id": 121969104, "location_subtype": "", "month": "2024-08"}, {"category": "anti-social-behaviour", "location_type": "Force", "location": {"latitude": "53.403935", "street": {"id": 1716537, "name": "On or near Devon Road"}, "longitude": "-1.458192"}, "context": "", "outcome_status": null, "persistent_id": "", "id": 121985055, "location_subtype": "", "month": "2024-08"}, {"category": "anti-social-behaviour", "location_type": "Force", "location": {"latitude": "53.461102", "street": {"id": 1722279, "name": "On or near Roundwood Court"}, "longitude": "-1.333493"}, "context": "", "outcome_status": null, "persistent_id": "", "id": 121969107, "location_subtype": "", "month": "2024-08"}, {"category": "anti-social-behaviour", "location_type": "Force", "location": {"latitude": "53.433241", "street": {"id": 1722374, "name": "On or near Park Road"}, "longitude": "-1.331054"}, "context": "", "outcome_status": null, "persistent_id": "", "id": 121969110, "location_subtype": "", "month": "2024-08"}, {"category": "anti-social-behaviour", "location_type": "Force", "location": {"latitude": "53.422901", "street": {"id": 1722496, "name": "On or near Cowper Drive"}, "longitude": "-1.327213"}, "context": "", "outcome_status": null, "persistent_id": "", "id": 121969113, "location_subtype": "", "month": "2024-08"}, {"category": "anti-social-behaviour", "location_type": "Force", "location": {"latitude": "53.370937", "street": {"id": 1723024, "name": "On or near Aston Close"}, "longitude": "-1.314565"}, "context": "", "outcome_status": null, "persistent_id": "", "id": 121969119, "location_subtype": "", "month": "2024-08"}, {"category": "anti-social-behaviour", "location_type": "Force", "location": {"latitude": "53.330755", "street": {"id": 1720544, "name": "On or near Moor Farm Rise"}, "longitude": "-1.371428"}, "context": "", "outcome_status": null, "persistent_id": "", "id": 121986520, "location_subtype": "", "month": "2024-08"}, {"category": "anti-social-behaviour", "location_type": "Force", "location": {"latitude": "53.379673", "street": {"id": 1716501, "name": "On or near South Street"}, "longitude": "-1.459823"}, "context": "", "outcome_status": null, "persistent_id": "", "id": 121985052, "location_subtype": "", "month": "2024-08"}, {"category": "anti-social-behaviour", "location_type": "Force", "location": {"latitude": "53.385396", "street": {"id": 1721143, "name": "On or near Mill Lane"}, "longitude": "-1.357528"}, "context": "", "outcome_status": null, "persistent_id": "", "id": 121990771, "location_subtype": "", "month": "2024-08"}, {"category": "anti-social-behaviour", "location_type": "Force", "location": {"latitude": "53.441615", "street": {"id": 1722693, "name": "On or near Lady Oak Way"}, "longitude": "-1.320760"}, "context": "", "outcome_status": null, "persistent_id": "", "id": 122002251, "location_subtype": "", "month": "2024-08"}, {"category": "anti-social-behaviour", "location_type": "Force", "location": {"latitude": "53.428988", "street": {"id": 1722463, "name": "On or near Tennyson Road"}, "longitude": "-1.327493"}, "context": "", "outcome_status": null, "persistent_id": "", "id": 122002248, "location_subtype": "", "month": "2024-08"}, {"category": "anti-social-behaviour", "location_type": "Force", "location": {"latitude": "53.337394", "street": {"id": 1722370, "name": "On or near Farmoor Gardens"}, "longitude": "-1.329415"}, "context": "", "outcome_status": null, "persistent_id": "", "id": 122002245, "location_subtype": "", "month": "2024-08"}, {"category": "anti-social-behaviour", "location_type": "Force", "location": {"latitude": "53.331801", "street": {"id": 1722361, "name": "On or near Rother Valley Way"}, "longitude": "-1.330734"}, "context": "", "outcome_status": null, "persistent_id": "", "id": 122002242, "location_subtype": "", "month": "2024-08"}, {"category": "anti-social-behaviour", "location_type": "Force", "location": {"latitude": "53.464269", "street": {"id": 1722451, "name": "On or near Supermarket"}, "longitude": "-1.329147"}, "context": "", "outcome_status": null, "persistent_id": "", "id": 122002236, "location_subtype": "", "month": "2024-08"}, {"category": "anti-social-behaviour", "location_type": "Force", "location": {"latitude": "53.417673", "street": {"id": 1721969, "name": "On or near Green Croft Close"}, "longitude": "-1.340807"}, "context": "", "outcome_status": null, "persistent_id": "", "id": 122002233, "location_subtype": "", "month": "2024-08"}, {"category": "anti-social-behaviour", "location_type": "Force", "location": {"latitude": "53.342955", "street": {"id": 1721787, "name": "On or near Drake House Lane"}, "longitude": "-1.345054"}, "context": "", "outcome_status": null, "persistent_id": "", "id": 122002230, "location_subtype": "", "month": "2024-08"}, {"category": "anti-social-behaviour", "location_type": "Force", "location": {"latitude": "53.325834", "street": {"id": 1721477, "name": "On or near Halfway Gardens"}, "longitude": "-1.352072"}, "context": "", "outcome_status": null, "persistent_id": "", "id": 122002227, "location_subtype": "", "month": "2024-08"}, {"category": "anti-social-behaviour", "location_type": "Force", "location": {"latitude": "53.432013", "street": {"id": 1721560, "name": "On or near Walker Lane"}, "longitude": "-1.349616"}, "context": "", "outcome_status": null, "persistent_id": "", "id": 122002224, "location_subtype": "", "month": "2024-08"}, {"category": "anti-social-behaviour", "location_type": "Force", "location": {"latitude": "53.425594", "street": {"id": 1721267, "name": "On or near Nightingale Close"}, "longitude": "-1.354364"}, "context": "", "outcome_status": null, "persistent_id": "", "id": 122002221, "location_subtype": "", "month": "2024-08"}, {"category": "anti-social-behaviour", "location_type": "Force", "location": {"latitude": "53.433833", "street": {"id": 1721396, "name": "On or near Supermarket"}, "longitude": "-1.353592"}, "context": "", "outcome_status": null, "persistent_id": "", "id": 122002218, "location_subtype": "", "month": "2024-08"}, {"category": "anti-social-behaviour", "location_type": "Force", "location": {"latitude": "53.469720", "street": {"id": 1721363, "name": "On or near Scovell Avenue"}, "longitude": "-1.354478"}, "context": "", "outcome_status": null, "persistent_id": "", "id": 122002215, "location_subtype": "", "month": "2024-08"}, {"category": "anti-social-behaviour", "location_type": "Force", "location": {"latitude": "53.470727", "street": {"id": 1721334, "name": "On or near Humphries Avenue"}, "longitude": "-1.354508"}, "context": "", "outcome_status": null, "persistent_id": "", "id": 122002209, "location_subtype": "", "month": "2024-08"}, {"category": "anti-social-behaviour", "location_type": "Force", "location": {"latitude": "53.430929", "street": {"id": 1721272, "name": "On or near Vicarage Lane"}, "longitude": "-1.355277"}, "context": "", "outcome_status": null, "persistent_id": "", "id": 122002206, "location_subtype": "", "month": "2024-08"}, {"category": "anti-social-behaviour", "location_type": "Force", "location": {"latitude": "53.431910", "street": {"id": 1721188, "name": "On or near Bridgegate"}, "longitude": "-1.357098"}, "context": "", "outcome_status": null, "persistent_id": "", "id": 122002203, "location_subtype": "", "month": "2024-08"}, {"category": "anti-social-behaviour", "location_type": "Force", "location": {"latitude": "53.345462", "street": {"id": 1720622, "name": "On or near Delves Place"}, "longitude": "-1.371647"}, "context": "", "outcome_status": null, "persistent_id": "", "id": 122002200, "location_subtype": "", "month": "2024-08"}, {"category": "anti-social-behaviour", "location_type": "Force", "location": {"latitude": "53.430025", "street": {"id": 1720403, "name": "On or near Devonshire Street"}, "longitude": "-1.376316"}, "context": "", "outcome_status": null, "persistent_id": "", "id": 122002195, "location_subtype": "", "month": "2024-08"}, {"category": "anti-social-behaviour", "location_type": "Force", "location": {"latitude": "53.435170", "street": {"id": 1720035, "name": "On or near Petrol Station"}, "longitude": "-1.382157"}, "context": "", "outcome_status": null, "persistent_id": "", "id": 122002191, "location_subtype": "", "month": "2024-08"}, {"category": "anti-social-behaviour", "location_type": "Force", "location": {"latitude": "53.433161", "street": {"id": 1719648, "name": "On or near Aubrey Senior Way"}, "longitude": "-1.393550"}, "context": "", "outcome_status": null, "persistent_id": "", "id": 122002188, "location_subtype": "", "month": "2024-08"}, {"category": "anti-social-behaviour", "location_type": "Force", "location": {"latitude": "53.361074", "street": {"id": 1719564, "name": "On or near Stradbroke Drive"}, "longitude": "-1.395730"}, "context": "", "outcome_status": null, "persistent_id": "", "id": 122002186, "location_subtype": "", "month": "2024-08"}, {"category": "anti-social-behaviour", "location_type": "Force", "location": {"latitude": "53.346874", "street": {"id": 1719498, "name": "On or near Birley Moor Road"}, "longitude": "-1.397974"}, "context": "", "outcome_status": null, "persistent_id": "", "id": 122002183, "location_subtype": "", "month": "2024-08"}, {"category": "anti-social-behaviour", "location_type": "Force", "location": {"latitude": "53.386870", "street": {"id": 1719002, "name": "On or near Parking Area"}, "longitude": "-1.411709"}, "context": "", "outcome_status": null, "persistent_id": "", "id": 122002177, "location_subtype": "", "month": "2024-08"}, {"category": "anti-social-behaviour", "location_type": "Force", "location": {"latitude": "53.428791", "street": {"id": 1718751, "name": "On or near Blackburn Lane"}, "longitude": "-1.416608"}, "context": "", "outcome_status": null, "persistent_id": "", "id": 122002174, "location_subtype": "", "month": "2024-08"}, {"category": "anti-social-behaviour", "location_type": "Force", "location": {"latitude": "53.392435", "street": {"id": 1718658, "name": "On or near Uttley Croft"}, "longitude": "-1.417286"}, "context": "", "outcome_status": null, "persistent_id": "", "id": 122002171, "location_subtype": "", "month": "2024-08"}, {"category": "anti-social-behaviour", "location_type": "Force", "location": {"latitude": "53.430906", "street": {"id": 1718450, "name": "On or near M1"}, "longitude": "-1.420899"}, "context": "", "outcome_status": null, "persistent_id": "", "id": 122002168, "location_subtype": "", "month": "2024-08"}, {"category": "anti-social-behaviour", "location_type": "Force", "location": {"latitude": "53.343256", "street": {"id": 1717876, "name": "On or near Leighton Drive"}, "longitude": "-1.433863"}, "context": "", "outcome_status": null, "persistent_id": "", "id": 122002166, "location_subtype": "", "month": "2024-08"}, {"category": "anti-social-behaviour", "location_type": "Force", "location": {"latitude": "53.418961", "street": {"id": 1717953, "name": "On or near Tenterden Road"}, "longitude": "-1.434182"}, "context": "", "outcome_status": null, "persistent_id": "", "id": 122002163, "location_subtype": "", "month": "2024-08"}, {"category": "anti-social-behaviour", "location_type": "Force", "location": {"latitude": "53.368213", "street": {"id": 1717716, "name": "On or near City Road"}, "longitude": "-1.440310"}, "context": "", "outcome_status": null, "persistent_id": "", "id": 122002160, "location_subtype": "", "month": "2024-08"}, {"category": "anti-social-behaviour", "location_type": "Force", "location": {"latitude": "53.401994", "street": {"id": 1713635, "name": "On or near Supermarket"}, "longitude": "-1.495231"}, "context": "", "outcome_status": null, "persistent_id": "", "id": 121993460, "location_subtype": "", "month": "2024-08"}, {"category": "anti-social-behaviour", "location_type": "Force", "location": {"latitude": "53.353393", "street": {"id": 1713455, "name": "On or near Glenorchy Road"}, "longitude": "-1.497608"}, "context": "", "outcome_status": null, "persistent_id": "", "id": 121993458, "location_subtype": "", "month": "2024-08"}, {"category": "anti-social-behaviour", "location_type": "Force", "location": {"latitude": "53.346177", "street": {"id": 1713594, "name": "On or near Marriott Lane"}, "longitude": "-1.495816"}, "context": "", "outcome_status": null, "persistent_id": "", "id": 121993454, "location_subtype": "", "month": "2024-08"}, {"category": "anti-social-behaviour", "location_type": "Force", "location": {"latitude": "53.402138", "street": {"id": 1712367, "name": "On or near Wisewood Road"}, "longitude": "-1.516933"}, "context": "", "outcome_status": null, "persistent_id": "", "id": 121993448, "location_subtype": "", "month": "2024-08"}, {"category": "anti-social-behaviour", "location_type": "Force", "location": {"latitude": "53.368471", "street": {"id": 1712231, "name": "On or near Oakbrook Road"}, "longitude": "-1.520335"}, "context": "", "outcome_status": null, "persistent_id": "", "id": 121993445, "location_subtype": "", "month": "2024-08"}, {"category": "anti-social-behaviour", "location_type": "Force", "location": {"latitude": "53.362082", "street": {"id": 1711433, "name": "On or near Whiteley Lane"}, "longitude": "-1.546297"}, "context": "", "outcome_status": null, "persistent_id": "", "id": 121993439, "location_subtype": "", "month": "2024-08"}, {"category": "anti-social-behaviour", "location_type": "Force", "location": {"latitude": "53.451555", "street": {"id": 1711326, "name": "On or near Wharncliffe Avenue"}, "longitude": "-1.553371"}, "context": "", "outcome_status": null, "persistent_id": "", "id": 121993436, "location_subtype": "", "month": "2024-08"}, {"category": "anti-social-behaviour", "location_type": "Force", "location": {"latitude": "53.439884", "street": {"id": 1722024, "name": "On or near Shaw Road"}, "longitude": "-1.337453"}, "context": "", "outcome_status": null, "persistent_id": "", "id": 121992239, "location_subtype": "", "month": "2024-08"}, {"category": "anti-social-behaviour", "location_type": "Force", "location": {"latitude": "53.471442", "street": {"id": 1721916, "name": "On or near Homestead Drive"}, "longitude": "-1.342189"}, "context": "", "outcome_status": null, "persistent_id": "", "id": 121992236, "location_subtype": "", "month": "2024-08"}, {"category": "anti-social-behaviour", "location_type": "Force", "location": {"latitude": "53.456933", "street": {"id": 1721895, "name": "On or near Vesey Street"}, "longitude": "-1.343513"}, "context": "", "outcome_status": null, "persistent_id": "", "id": 121992233, "location_subtype": "", "month": "2024-08"}, {"category": "anti-social-behaviour", "location_type": "Force", "location": {"latitude": "53.341890", "street": {"id": 1721269, "name": "On or near Shopping Area"}, "longitude": "-1.351147"}, "context": "", "outcome_status": null, "persistent_id": "", "id": 121992230, "location_subtype": "", "month": "2024-08"}, {"category": "anti-social-behaviour", "location_type": "Force", "location": {"latitude": "53.428656", "street": {"id": 1721414, "name": "On or near Wellgate Terrace"}, "longitude": "-1.352030"}, "context": "", "outcome_status": null, "persistent_id": "", "id": 121992227, "location_subtype": "", "month": "2024-08"}, {"category": "anti-social-behaviour", "location_type": "Force", "location": {"latitude": "53.419326", "street": {"id": 1721365, "name": "On or near Boston Castle Terrace"}, "longitude": "-1.352157"}, "context": "", "outcome_status": null, "persistent_id": "", "id": 121992224, "location_subtype": "", "month": "2024-08"}, {"category": "anti-social-behaviour", "location_type": "Force", "location": {"latitude": "53.429600", "street": {"id": 1720148, "name": "On or near Rosebery Street"}, "longitude": "-1.380943"}, "context": "", "outcome_status": null, "persistent_id": "", "id": 121992216, "location_subtype": "", "month": "2024-08"}, {"category": "anti-social-behaviour", "location_type": "Force", "location": {"latitude": "53.344604", "street": {"id": 1719085, "name": "On or near Sports/recreation Area"}, "longitude": "-1.408436"}, "context": "", "outcome_status": null, "persistent_id": "", "id": 121992210, "location_subtype": "", "month": "2024-08"}, {"category": "anti-social-behaviour", "location_type": "Force", "location": {"latitude": "53.388704", "street": {"id": 1719007, "name": "On or near Boden Place"}, "longitude": "-1.411623"}, "context": "", "outcome_status": null, "persistent_id": "", "id": 121992206, "location_subtype": "", "month": "2024-08"}, {"category": "anti-social-behaviour", "location_type": "Force", "location": {"latitude": "53.416522", "street": {"id": 1718912, "name": "On or near Meadowhall Interchange"}, "longitude": "-1.413015"}, "context": "", "outcome_status": null, "persistent_id": "", "id": 121992203, "location_subtype": "", "month": "2024-08"}, {"category": "anti-social-behaviour", "location_type": "Force", "location": {"latitude": "53.367476", "street": {"id": 1718456, "name": "On or near Archdale Close"}, "longitude": "-1.421594"}, "context": "", "outcome_status": null, "persistent_id": "", "id": 121992197, "location_subtype": "", "month": "2024-08"}, {"category": "anti-social-behaviour", "location_type": "Force", "location": {"latitude": "53.412046", "street": {"id": 1717479, "name": "On or near Park/open Space"}, "longitude": "-1.444037"}, "context": "", "outcome_status": null, "persistent_id": "", "id": 121992178, "location_subtype": "", "month": "2024-08"}, {"category": "anti-social-behaviour", "location_type": "Force", "location": {"latitude": "53.399806", "street": {"id": 1717096, "name": "On or near Carwood Close"}, "longitude": "-1.449656"}, "context": "", "outcome_status": null, "persistent_id": "", "id": 121992175, "location_subtype": "", "month": "2024-08"}, {"category": "anti-social-behaviour", "location_type": "Force", "location": {"latitude": "53.406812", "street": {"id": 1717027, "name": "On or near Skinnerthorpe Road"}, "longitude": "-1.452424"}, "context": "", "outcome_status": null, "persistent_id": "", "id": 121992169, "location_subtype": "", "month": "2024-08"}, {"category": "anti-social-behaviour", "location_type": "Force", "location": {"latitude": "53.396324", "street": {"id": 1716028, "name": "On or near Rising Street"}, "longitude": "-1.466725"}, "context": "", "outcome_status": null, "persistent_id": "", "id": 121992164, "location_subtype": "", "month": "2024-08"}, {"category": "anti-social-behaviour", "location_type": "Force", "location": {"latitude": "53.422099", "street": {"id": 1715343, "name": "On or near Adrian Crescent"}, "longitude": "-1.471654"}, "context": "", "outcome_status": null, "persistent_id": "", "id": 121992158, "location_subtype": "", "month": "2024-08"}, {"category": "anti-social-behaviour", "location_type": "Force", "location": {"latitude": "53.380604", "street": {"id": 1715626, "name": "On or near Barker's Pool"}, "longitude": "-1.471025"}, "context": "", "outcome_status": null, "persistent_id": "", "id": 121992155, "location_subtype": "", "month": "2024-08"}, {"category": "anti-social-behaviour", "location_type": "Force", "location": {"latitude": "53.381171", "street": {"id": 1715659, "name": "On or near Conference/exhibition Centre"}, "longitude": "-1.471064"}, "context": "", "outcome_status": null, "persistent_id": "", "id": 121992151, "location_subtype": "", "month": "2024-08"}, {"category": "anti-social-behaviour", "location_type": "Force", "location": {"latitude": "53.412957", "street": {"id": 1715501, "name": "On or near Parking Area"}, "longitude": "-1.471542"}, "context": "", "outcome_status": null, "persistent_id": "", "id": 121992148, "location_subtype": "", "month": "2024-08"}, {"category": "anti-social-behaviour", "location_type": "Force", "location": {"latitude": "53.368196", "street": {"id": 1715358, "name": "On or near Woodhead Road"}, "longitude": "-1.474170"}, "context": "", "outcome_status": null, "persistent_id": "", "id": 121992145, "location_subtype": "", "month": "2024-08"}, {"category": "anti-social-behaviour", "location_type": "Force", "location": {"latitude": "53.361976", "street": {"id": 1715154, "name": "On or near Kiln Street"}, "longitude": "-1.476425"}, "context": "", "outcome_status": null, "persistent_id": "", "id": 121992138, "location_subtype": "", "month": "2024-08"}, {"category": "anti-social-behaviour", "location_type": "Force", "location": {"latitude": "53.372797", "street": {"id": 1714964, "name": "On or near Supermarket"}, "longitude": "-1.478096"}, "context": "", "outcome_status": null, "persistent_id": "", "id": 121992135, "location_subtype": "", "month": "2024-08"}, {"category": "anti-social-behaviour", "location_type": "Force", "location": {"latitude": "53.379899", "street": {"id": 1714975, "name": "On or near Parking Area"}, "longitude": "-1.478325"}, "context": "", "outcome_status": null, "persistent_id": "", "id": 121992129, "location_subtype": "", "month": "2024-08"}, {"category": "anti-social-behaviour", "location_type": "Force", "location": {"latitude": "53.428108", "street": {"id": 1714149, "name": "On or near Supermarket"}, "longitude": "-1.487202"}, "context": "", "outcome_status": null, "persistent_id": "", "id": 121992120, "location_subtype": "", "month": "2024-08"}, {"category": "anti-social-behaviour", "location_type": "Force", "location": {"latitude": "53.321554", "street": {"id": 1714026, "name": "On or near Becket Road"}, "longitude": "-1.488870"}, "context": "", "outcome_status": null, "persistent_id": "", "id": 121992117, "location_subtype": "", "month": "2024-08"}, {"category": "anti-social-behaviour", "location_type": "Force", "location": {"latitude": "53.416000", "street": {"id": 1713947, "name": "On or near Lamb Drive"}, "longitude": "-1.491410"}, "context": "", "outcome_status": null, "persistent_id": "", "id": 121992114, "location_subtype": "", "month": "2024-08"}, {"category": "anti-social-behaviour", "location_type": "Force", "location": {"latitude": "53.423128", "street": {"id": 1713236, "name": "On or near Birley Rise Road"}, "longitude": "-1.501949"}, "context": "", "outcome_status": null, "persistent_id": "", "id": 121992111, "location_subtype": "", "month": "2024-08"}, {"category": "anti-social-behaviour", "location_type": "Force", "location": {"latitude": "53.422137", "street": {"id": 1716249, "name": "On or near Cliffe House Road"}, "longitude": "-1.462159"}, "context": "", "outcome_status": null, "persistent_id": "", "id": 121985047, "location_subtype": "", "month": "2024-08"}, {"category": "anti-social-behaviour", "location_type": "Force", "location": {"latitude": "53.382697", "street": {"id": 1715851, "name": "On or near East Parade"}, "longitude": "-1.468624"}, "context": "", "outcome_status": null, "persistent_id": "", "id": 121985041, "location_subtype": "", "month": "2024-08"}, {"category": "anti-social-behaviour", "location_type": "Force", "location": {"latitude": "53.432974", "street": {"id": 1720456, "name": "On or near Park Street"}, "longitude": "-1.372841"}, "context": "", "outcome_status": null, "persistent_id": "", "id": 121986518, "location_subtype": "", "month": "2024-08"}, {"category": "anti-social-behaviour", "location_type": "Force", "location": {"latitude": "53.377160", "street": {"id": 1715850, "name": "On or near Froggatt Lane"}, "longitude": "-1.468783"}, "context": "", "outcome_status": null, "persistent_id": "", "id": 121985032, "location_subtype": "", "month": "2024-08"}, {"category": "anti-social-behaviour", "location_type": "Force", "location": {"latitude": "53.390375", "street": {"id": 1715402, "name": "On or near Mowbray Street"}, "longitude": "-1.471070"}, "context": "", "outcome_status": null, "persistent_id": "", "id": 121985026, "location_subtype": "", "month": "2024-08"}, {"category": "anti-social-behaviour", "location_type": "Force", "location": {"latitude": "53.368130", "street": {"id": 1713471, "name": "On or near Neill Road"}, "longitude": "-1.498682"}, "context": "", "outcome_status": null, "persistent_id": "", "id": 121989223, "location_subtype": "", "month": "2024-08"}, {"category": "anti-social-behaviour", "location_type": "Force", "location": {"latitude": "53.343496", "street": {"id": 1719956, "name": "On or near Halcyon Close"}, "longitude": "-1.386005"}, "context": "", "outcome_status": null, "persistent_id": "", "id": 121986514, "location_subtype": "", "month": "2024-08"}, {"category": "anti-social-behaviour", "location_type": "Force", "location": {"latitude": "53.436886", "street": {"id": 1711633, "name": "On or near Orchard Street"}, "longitude": "-1.539194"}, "context": "", "outcome_status": null, "persistent_id": "", "id": 121984989, "location_subtype": "", "month": "2024-08"}, {"category": "anti-social-behaviour", "location_type": "Force", "location": {"latitude": "53.322555", "street": {"id": 1715316, "name": "On or near Chesterfield Road South"}, "longitude": "-1.473049"}, "context": "", "outcome_status": null, "persistent_id": "", "id": 121985023, "location_subtype": "", "month": "2024-08"}, {"category": "anti-social-behaviour", "location_type": "Force", "location": {"latitude": "53.394377", "street": {"id": 1711860, "name": "On or near Anvil Close"}, "longitude": "-1.531894"}, "context": "", "outcome_status": null, "persistent_id": "", "id": 121984992, "location_subtype": "", "month": "2024-08"}, {"category": "anti-social-behaviour", "location_type": "Force", "location": {"latitude": "53.316462", "street": {"id": 1712277, "name": "On or near Wollaton Road"}, "longitude": "-1.520257"}, "context": "", "outcome_status": null, "persistent_id": "", "id": 121984996, "location_subtype": "", "month": "2024-08"}, {"category": "anti-social-behaviour", "location_type": "Force", "location": {"latitude": "53.381164", "street": {"id": 1715397, "name": "On or near West Street Lane"}, "longitude": "-1.473664"}, "context": "", "outcome_status": null, "persistent_id": "", "id": 121985020, "location_subtype": "", "month": "2024-08"}, {"category": "anti-social-behaviour", "location_type": "Force", "location": {"latitude": "53.377385", "street": {"id": 1713208, "name": "On or near Supermarket"}, "longitude": "-1.501885"}, "context": "", "outcome_status": null, "persistent_id": "", "id": 121984999, "location_subtype": "", "month": "2024-08"}, {"category": "anti-social-behaviour", "location_type": "Force", "location": {"latitude": "53.415437", "street": {"id": 1714176, "name": "On or near Adkins Drive"}, "longitude": "-1.485865"}, "context": "", "outcome_status": null, "persistent_id": "", "id": 121985001, "location_subtype": "", "month": "2024-08"}, {"category": "anti-social-behaviour", "location_type": "Force", "location": {"latitude": "53.432418", "street": {"id": 1714298, "name": "On or near B6087"}, "longitude": "-1.486081"}, "context": "", "outcome_status": null, "persistent_id": "", "id": 121985005, "location_subtype": "", "month": "2024-08"}, {"category": "anti-social-behaviour", "location_type": "Force", "location": {"latitude": "53.350509", "street": {"id": 1714321, "name": "On or near Woodseats Mews"}, "longitude": "-1.485159"}, "context": "", "outcome_status": null, "persistent_id": "", "id": 121985011, "location_subtype": "", "month": "2024-08"}, {"category": "anti-social-behaviour", "location_type": "Force", "location": {"latitude": "53.401937", "street": {"id": 1713480, "name": "On or near Kipling Road"}, "longitude": "-1.498722"}, "context": "", "outcome_status": null, "persistent_id": "", "id": 121989220, "location_subtype": "", "month": "2024-08"}, {"category": "anti-social-behaviour", "location_type": "Force", "location": {"latitude": "53.370711", "street": {"id": 1714469, "name": "On or near Parliament Street"}, "longitude": "-1.484088"}, "context": "", "outcome_status": null, "persistent_id": "", "id": 121985014, "location_subtype": "", "month": "2024-08"}, {"category": "anti-social-behaviour", "location_type": "Force", "location": {"latitude": "53.340602", "street": {"id": 1714838, "name": "On or near Woodseats House Road"}, "longitude": "-1.478684"}, "context": "", "outcome_status": null, "persistent_id": "", "id": 121985017, "location_subtype": "", "month": "2024-08"}, {"category": "anti-social-behaviour", "location_type": "Force", "location": {"latitude": "53.343925", "street": {"id": 1719823, "name": "On or near Fern View Grove"}, "longitude": "-1.388958"}, "context": "", "outcome_status": null, "persistent_id": "", "id": 121986508, "location_subtype": "", "month": "2024-08"}, {"category": "anti-social-behaviour", "location_type": "Force", "location": {"latitude": "53.332422", "street": {"id": 1721299, "name": "On or near Meadowcroft Glade"}, "longitude": "-1.355321"}, "context": "", "outcome_status": null, "persistent_id": "", "id": 121990773, "location_subtype": "", "month": "2024-08"}, {"category": "anti-social-behaviour", "location_type": "Force", "location": {"latitude": "53.439321", "street": {"id": 1722380, "name": "On or near Rosewell Court"}, "longitude": "-1.330115"}, "context": "", "outcome_status": null, "persistent_id": "", "id": 121988028, "location_subtype": "", "month": "2024-08"}, {"category": "anti-social-behaviour", "location_type": "Force", "location": {"latitude": "53.321860", "street": {"id": 1722098, "name": "On or near Judd Close"}, "longitude": "-1.338936"}, "context": "", "outcome_status": null, "persistent_id": "", "id": 121988022, "location_subtype": "", "month": "2024-08"}, {"category": "anti-social-behaviour", "location_type": "Force", "location": {"latitude": "53.464465", "street": {"id": 1721990, "name": "On or near Dale Road"}, "longitude": "-1.340203"}, "context": "", "outcome_status": null, "persistent_id": "", "id": 121988019, "location_subtype": "", "month": "2024-08"}, {"category": "anti-social-behaviour", "location_type": "Force", "location": {"latitude": "53.450380", "street": {"id": 1721946, "name": "On or near Great Eastern Way"}, "longitude": "-1.341822"}, "context": "", "outcome_status": null, "persistent_id": "", "id": 121988015, "location_subtype": "", "month": "2024-08"}, {"category": "anti-social-behaviour", "location_type": "Force", "location": {"latitude": "53.435258", "street": {"id": 1722058, "name": "On or near Clifton Park Rise"}, "longitude": "-1.339632"}, "context": "", "outcome_status": null, "persistent_id": "", "id": 121990777, "location_subtype": "", "month": "2024-08"}, {"category": "anti-social-behaviour", "location_type": "Force", "location": {"latitude": "53.449549", "street": {"id": 1721977, "name": "On or near Shopping Area"}, "longitude": "-1.341127"}, "context": "", "outcome_status": null, "persistent_id": "", "id": 121990780, "location_subtype": "", "month": "2024-08"}, {"category": "anti-social-behaviour", "location_type": "Force", "location": {"latitude": "53.435278", "street": {"id": 1721872, "name": "On or near St Leonard's Lane"}, "longitude": "-1.341799"}, "context": "", "outcome_status": null, "persistent_id": "", "id": 121988012, "location_subtype": "", "month": "2024-08"}, {"category": "anti-social-behaviour", "location_type": "Force", "location": {"latitude": "53.439321", "street": {"id": 1722380, "name": "On or near Rosewell Court"}, "longitude": "-1.330115"}, "context": "", "outcome_status": null, "persistent_id": "", "id": 121990786, "location_subtype": "", "month": "2024-08"}, {"category": "anti-social-behaviour", "location_type": "Force", "location": {"latitude": "53.349194", "street": {"id": 1721758, "name": "On or near Robin Lane"}, "longitude": "-1.345214"}, "context": "", "outcome_status": null, "persistent_id": "", "id": 121988009, "location_subtype": "", "month": "2024-08"}, {"category": "anti-social-behaviour", "location_type": "Force", "location": {"latitude": "53.425176", "street": {"id": 1722567, "name": "On or near Browning Court"}, "longitude": "-1.324273"}, "context": "", "outcome_status": null, "persistent_id": "", "id": 121990788, "location_subtype": "", "month": "2024-08"}, {"category": "anti-social-behaviour", "location_type": "Force", "location": {"latitude": "53.443332", "street": {"id": 1713231, "name": "On or near Lump Lane"}, "longitude": "-1.501441"}, "context": "", "outcome_status": null, "persistent_id": "", "id": 121989217, "location_subtype": "", "month": "2024-08"}, {"category": "anti-social-behaviour", "location_type": "Force", "location": {"latitude": "53.478524", "street": {"id": 1711086, "name": "On or near Netherfield Close"}, "longitude": "-1.571455"}, "context": "", "outcome_status": null, "persistent_id": "", "id": 121989199, "location_subtype": "", "month": "2024-08"}, {"category": "anti-social-behaviour", "location_type": "Force", "location": {"latitude": "53.383292", "street": {"id": 1713486, "name": "On or near Conduit Lane"}, "longitude": "-1.498219"}, "context": "", "outcome_status": null, "persistent_id": "", "id": 121987887, "location_subtype": "", "month": "2024-08"}, {"category": "anti-social-behaviour", "location_type": "Force", "location": {"latitude": "53.322018", "street": {"id": 1721138, "name": "On or near Ladybank Road"}, "longitude": "-1.359681"}, "context": "", "outcome_status": null, "persistent_id": "", "id": 121988006, "location_subtype": "", "month": "2024-08"}, {"category": "anti-social-behaviour", "location_type": "Force", "location": {"latitude": "53.383806", "street": {"id": 1717512, "name": "On or near Shopping Area"}, "longitude": "-1.443835"}, "context": "", "outcome_status": null, "persistent_id": "", "id": 121989297, "location_subtype": "", "month": "2024-08"}, {"category": "anti-social-behaviour", "location_type": "Force", "location": {"latitude": "53.363755", "street": {"id": 1720998, "name": "On or near Goathland Drive"}, "longitude": "-1.361656"}, "context": "", "outcome_status": null, "persistent_id": "", "id": 121988003, "location_subtype": "", "month": "2024-08"}, {"category": "anti-social-behaviour", "location_type": "Force", "location": {"latitude": "53.404291", "street": {"id": 1713462, "name": "On or near Hawksley Road"}, "longitude": "-1.498589"}, "context": "", "outcome_status": null, "persistent_id": "", "id": 121987884, "location_subtype": "", "month": "2024-08"}, {"category": "anti-social-behaviour", "location_type": "Force", "location": {"latitude": "53.389899", "street": {"id": 1721712, "name": "On or near Bole Hill"}, "longitude": "-1.347461"}, "context": "", "outcome_status": null, "persistent_id": "", "id": 121989369, "location_subtype": "", "month": "2024-08"}, {"category": "anti-social-behaviour", "location_type": "Force", "location": {"latitude": "53.346548", "street": {"id": 1720208, "name": "On or near Cotleigh Road"}, "longitude": "-1.379938"}, "context": "", "outcome_status": null, "persistent_id": "", "id": 121988000, "location_subtype": "", "month": "2024-08"}, {"category": "anti-social-behaviour", "location_type": "Force", "location": {"latitude": "53.345765", "street": {"id": 1719896, "name": "On or near Spa View Road"}, "longitude": "-1.386724"}, "context": "", "outcome_status": null, "persistent_id": "", "id": 121987997, "location_subtype": "", "month": "2024-08"}, {"category": "anti-social-behaviour", "location_type": "Force", "location": {"latitude": "53.429232", "street": {"id": 1721762, "name": "On or near Parkfield Road"}, "longitude": "-1.344015"}, "context": "", "outcome_status": null, "persistent_id": "", "id": 121989366, "location_subtype": "", "month": "2024-08"}, {"category": "anti-social-behaviour", "location_type": "Force", "location": {"latitude": "53.344341", "street": {"id": 1721693, "name": "On or near Daisy Walk"}, "longitude": "-1.347045"}, "context": "", "outcome_status": null, "persistent_id": "", "id": 121989363, "location_subtype": "", "month": "2024-08"}, {"category": "anti-social-behaviour", "location_type": "Force", "location": {"latitude": "53.372936", "street": {"id": 1719878, "name": "On or near Fitzalan Road"}, "longitude": "-1.388002"}, "context": "", "outcome_status": null, "persistent_id": "", "id": 121987994, "location_subtype": "", "month": "2024-08"}, {"category": "anti-social-behaviour", "location_type": "Force", "location": {"latitude": "53.377216", "street": {"id": 1713302, "name": "On or near Peel Street"}, "longitude": "-1.500304"}, "context": "", "outcome_status": null, "persistent_id": "", "id": 121987881, "location_subtype": "", "month": "2024-08"}, {"category": "anti-social-behaviour", "location_type": "Force", "location": {"latitude": "53.343109", "street": {"id": 1719740, "name": "On or near Weakland Drive"}, "longitude": "-1.391043"}, "context": "", "outcome_status": null, "persistent_id": "", "id": 121987990, "location_subtype": "", "month": "2024-08"}, {"category": "anti-social-behaviour", "location_type": "Force", "location": {"latitude": "53.412720", "street": {"id": 1719715, "name": "On or near Ferrars Road"}, "longitude": "-1.391478"}, "context": "", "outcome_status": null, "persistent_id": "", "id": 121987988, "location_subtype": "", "month": "2024-08"}, {"category": "anti-social-behaviour", "location_type": "Force", "location": {"latitude": "53.323113", "street": {"id": 1721484, "name": "On or near Borrowdale Avenue"}, "longitude": "-1.350927"}, "context": "", "outcome_status": null, "persistent_id": "", "id": 121989360, "location_subtype": "", "month": "2024-08"}, {"category": "anti-social-behaviour", "location_type": "Force", "location": {"latitude": "53.348248", "street": {"id": 1712171, "name": "On or near Parkhead Crescent"}, "longitude": "-1.523025"}, "context": "", "outcome_status": null, "persistent_id": "", "id": 121987879, "location_subtype": "", "month": "2024-08"}, {"category": "anti-social-behaviour", "location_type": "Force", "location": {"latitude": "53.432974", "street": {"id": 1720456, "name": "On or near Park Street"}, "longitude": "-1.372841"}, "context": "", "outcome_status": null, "persistent_id": "", "id": 121989351, "location_subtype": "", "month": "2024-08"}, {"category": "anti-social-behaviour", "location_type": "Force", "location": {"latitude": "53.398646", "street": {"id": 1719191, "name": "On or near Europa Close"}, "longitude": "-1.406222"}, "context": "", "outcome_status": null, "persistent_id": "", "id": 121987982, "location_subtype": "", "month": "2024-08"}, {"category": "anti-social-behaviour", "location_type": "Force", "location": {"latitude": "53.416522", "street": {"id": 1718912, "name": "On or near Meadowhall Interchange"}, "longitude": "-1.413015"}, "context": "", "outcome_status": null, "persistent_id": "", "id": 121987979, "location_subtype": "", "month": "2024-08"}, {"category": "anti-social-behaviour", "location_type": "Force", "location": {"latitude": "53.405627", "street": {"id": 1718720, "name": "On or near Park/open Space"}, "longitude": "-1.409314"}, "context": "", "outcome_status": null, "persistent_id": "", "id": 121987977, "location_subtype": "", "month": "2024-08"}, {"category": "anti-social-behaviour", "location_type": "Force", "location": {"latitude": "53.428791", "street": {"id": 1718751, "name": "On or near Blackburn Lane"}, "longitude": "-1.416608"}, "context": "", "outcome_status": null, "persistent_id": "", "id": 121987968, "location_subtype": "", "month": "2024-08"}, {"category": "anti-social-behaviour", "location_type": "Force", "location": {"latitude": "53.423416", "street": {"id": 1718566, "name": "On or near Dara Street"}, "longitude": "-1.418608"}, "context": "", "outcome_status": null, "persistent_id": "", "id": 121987965, "location_subtype": "", "month": "2024-08"}, {"category": "anti-social-behaviour", "location_type": "Force", "location": {"latitude": "53.340296", "street": {"id": 1718076, "name": "On or near Bowman Drive"}, "longitude": "-1.429516"}, "context": "", "outcome_status": null, "persistent_id": "", "id": 121987962, "location_subtype": "", "month": "2024-08"}, {"category": "anti-social-behaviour", "location_type": "Force", "location": {"latitude": "53.367731", "street": {"id": 1711920, "name": "On or near Pavilion Court"}, "longitude": "-1.530953"}, "context": "", "outcome_status": null, "persistent_id": "", "id": 121987876, "location_subtype": "", "month": "2024-08"}, {"category": "anti-social-behaviour", "location_type": "Force", "location": {"latitude": "53.345727", "street": {"id": 1717951, "name": "On or near Leighton Place"}, "longitude": "-1.433499"}, "context": "", "outcome_status": null, "persistent_id": "", "id": 121987959, "location_subtype": "", "month": "2024-08"}, {"category": "anti-social-behaviour", "location_type": "Force", "location": {"latitude": "53.477079", "street": {"id": 1710927, "name": "On or near Grayson Close"}, "longitude": "-1.592564"}, "context": "", "outcome_status": null, "persistent_id": "", "id": 121987873, "location_subtype": "", "month": "2024-08"}, {"category": "anti-social-behaviour", "location_type": "Force", "location": {"latitude": "53.365287", "street": {"id": 1717818, "name": "On or near Strouts Way"}, "longitude": "-1.437478"}, "context": "", "outcome_status": null, "persistent_id": "", "id": 121987956, "location_subtype": "", "month": "2024-08"}, {"category": "anti-social-behaviour", "location_type": "Force", "location": {"latitude": "53.414119", "street": {"id": 1719025, "name": "On or near Shopping Area"}, "longitude": "-1.410731"}, "context": "", "outcome_status": null, "persistent_id": "", "id": 121989342, "location_subtype": "", "month": "2024-08"}, {"category": "anti-social-behaviour", "location_type": "Force", "location": {"latitude": "53.348288", "street": {"id": 1712232, "name": "On or near Parkhead Court"}, "longitude": "-1.521778"}, "context": "", "outcome_status": null, "persistent_id": "", "id": 121990645, "location_subtype": "", "month": "2024-08"}, {"category": "anti-social-behaviour", "location_type": "Force", "location": {"latitude": "53.351588", "street": {"id": 1717496, "name": "On or near Middle Hay Close"}, "longitude": "-1.443172"}, "context": "", "outcome_status": null, "persistent_id": "", "id": 121987954, "location_subtype": "", "month": "2024-08"}, {"category": "anti-social-behaviour", "location_type": "Force", "location": {"latitude": "53.400980", "street": {"id": 1712887, "name": "On or near Holme Lane"}, "longitude": "-1.506298"}, "context": "", "outcome_status": null, "persistent_id": "", "id": 121990648, "location_subtype": "", "month": "2024-08"}, {"category": "anti-social-behaviour", "location_type": "Force", "location": {"latitude": "53.402644", "street": {"id": 1713181, "name": "On or near Hillsborough Road"}, "longitude": "-1.502338"}, "context": "", "outcome_status": null, "persistent_id": "", "id": 121990651, "location_subtype": "", "month": "2024-08"}, {"category": "anti-social-behaviour", "location_type": "Force", "location": {"latitude": "53.397356", "street": {"id": 1718823, "name": "On or near Stovin Gardens"}, "longitude": "-1.414452"}, "context": "", "outcome_status": null, "persistent_id": "", "id": 121989341, "location_subtype": "", "month": "2024-08"}, {"category": "anti-social-behaviour", "location_type": "Force", "location": {"latitude": "53.364981", "street": {"id": 1716804, "name": "On or near Park Grange Rise"}, "longitude": "-1.454824"}, "context": "", "outcome_status": null, "persistent_id": "", "id": 121987950, "location_subtype": "", "month": "2024-08"}, {"category": "anti-social-behaviour", "location_type": "Force", "location": {"latitude": "53.362655", "street": {"id": 1716679, "name": "On or near Thornborough Place"}, "longitude": "-1.457228"}, "context": "", "outcome_status": null, "persistent_id": "", "id": 121987944, "location_subtype": "", "month": "2024-08"}, {"category": "anti-social-behaviour", "location_type": "Force", "location": {"latitude": "53.414806", "street": {"id": 1716838, "name": "On or near Horninglow Close"}, "longitude": "-1.455060"}, "context": "", "outcome_status": null, "persistent_id": "", "id": 121987942, "location_subtype": "", "month": "2024-08"}, {"category": "anti-social-behaviour", "location_type": "Force", "location": {"latitude": "53.380251", "street": {"id": 1716752, "name": "On or near Weigh Lane"}, "longitude": "-1.456523"}, "context": "", "outcome_status": null, "persistent_id": "", "id": 121987938, "location_subtype": "", "month": "2024-08"}, {"category": "anti-social-behaviour", "location_type": "Force", "location": {"latitude": "53.403909", "street": {"id": 1716796, "name": "On or near Osgathorpe Crescent"}, "longitude": "-1.456372"}, "context": "", "outcome_status": null, "persistent_id": "", "id": 121987935, "location_subtype": "", "month": "2024-08"}, {"category": "anti-social-behaviour", "location_type": "Force", "location": {"latitude": "53.403909", "street": {"id": 1716796, "name": "On or near Osgathorpe Crescent"}, "longitude": "-1.456372"}, "context": "", "outcome_status": null, "persistent_id": "", "id": 121987932, "location_subtype": "", "month": "2024-08"}, {"category": "anti-social-behaviour", "location_type": "Force", "location": {"latitude": "53.342981", "street": {"id": 1718501, "name": "On or near Supermarket"}, "longitude": "-1.421400"}, "context": "", "outcome_status": null, "persistent_id": "", "id": 121989334, "location_subtype": "", "month": "2024-08"}, {"category": "anti-social-behaviour", "location_type": "Force", "location": {"latitude": "53.482763", "street": {"id": 1710889, "name": "On or near Supermarket"}, "longitude": "-1.596442"}, "context": "", "outcome_status": null, "persistent_id": "", "id": 121965655, "location_subtype": "", "month": "2024-08"}, {"category": "anti-social-behaviour", "location_type": "Force", "location": {"latitude": "53.454263", "street": {"id": 1710951, "name": "On or near Bank Side"}, "longitude": "-1.586623"}, "context": "", "outcome_status": null, "persistent_id": "", "id": 121965658, "location_subtype": "", "month": "2024-08"}, {"category": "anti-social-behaviour", "location_type": "Force", "location": {"latitude": "53.426105", "street": {"id": 1713341, "name": "On or near Fox Hill Road"}, "longitude": "-1.500273"}, "context": "", "outcome_status": null, "persistent_id": "", "id": 121990654, "location_subtype": "", "month": "2024-08"}, {"category": "anti-social-behaviour", "location_type": "Force", "location": {"latitude": "53.399992", "street": {"id": 1718032, "name": "On or near Don Road"}, "longitude": "-1.431756"}, "context": "", "outcome_status": null, "persistent_id": "", "id": 121989329, "location_subtype": "", "month": "2024-08"}, {"category": "anti-social-behaviour", "location_type": "Force", "location": {"latitude": "53.440268", "street": {"id": 1713822, "name": "On or near Grenobank Road"}, "longitude": "-1.493092"}, "context": "", "outcome_status": null, "persistent_id": "", "id": 121990657, "location_subtype": "", "month": "2024-08"}, {"category": "anti-social-behaviour", "location_type": "Force", "location": {"latitude": "53.452089", "street": {"id": 1711314, "name": "On or near Broom Royd"}, "longitude": "-1.554510"}, "context": "", "outcome_status": null, "persistent_id": "", "id": 121965661, "location_subtype": "", "month": "2024-08"}, {"category": "anti-social-behaviour", "location_type": "Force", "location": {"latitude": "53.355319", "street": {"id": 1713007, "name": "On or near Carter Knowle Avenue"}, "longitude": "-1.504617"}, "context": "", "outcome_status": null, "persistent_id": "", "id": 121965664, "location_subtype": "", "month": "2024-08"}, {"category": "anti-social-behaviour", "location_type": "Force", "location": {"latitude": "53.385753", "street": {"id": 1713658, "name": "On or near The Nook"}, "longitude": "-1.495484"}, "context": "", "outcome_status": null, "persistent_id": "", "id": 121965670, "location_subtype": "", "month": "2024-08"}, {"category": "anti-social-behaviour", "location_type": "Force", "location": {"latitude": "53.394992", "street": {"id": 1714033, "name": "On or near Ash Street"}, "longitude": "-1.488848"}, "context": "", "outcome_status": null, "persistent_id": "", "id": 121990659, "location_subtype": "", "month": "2024-08"}, {"category": "anti-social-behaviour", "location_type": "Force", "location": {"latitude": "53.414356", "street": {"id": 1713780, "name": "On or near Oxspring Bank"}, "longitude": "-1.491625"}, "context": "", "outcome_status": null, "persistent_id": "", "id": 121965675, "location_subtype": "", "month": "2024-08"}, {"category": "anti-social-behaviour", "location_type": "Force", "location": {"latitude": "53.319377", "street": {"id": 1713642, "name": "On or near Boland Road"}, "longitude": "-1.492799"}, "context": "", "outcome_status": null, "persistent_id": "", "id": 121965678, "location_subtype": "", "month": "2024-08"}, {"category": "anti-social-behaviour", "location_type": "Force", "location": {"latitude": "53.422099", "street": {"id": 1715343, "name": "On or near Adrian Crescent"}, "longitude": "-1.471654"}, "context": "", "outcome_status": null, "persistent_id": "", "id": 121965687, "location_subtype": "", "month": "2024-08"}, {"category": "anti-social-behaviour", "location_type": "Force", "location": {"latitude": "53.377008", "street": {"id": 1715673, "name": "On or near Parking Area"}, "longitude": "-1.470860"}, "context": "", "outcome_status": null, "persistent_id": "", "id": 121965690, "location_subtype": "", "month": "2024-08"}, {"category": "anti-social-behaviour", "location_type": "Force", "location": {"latitude": "53.383629", "street": {"id": 1716093, "name": "On or near Angel Street"}, "longitude": "-1.465952"}, "context": "", "outcome_status": null, "persistent_id": "", "id": 121965697, "location_subtype": "", "month": "2024-08"}, {"category": "anti-social-behaviour", "location_type": "Force", "location": {"latitude": "53.411300", "street": {"id": 1714140, "name": "On or near Penrith Close"}, "longitude": "-1.487329"}, "context": "", "outcome_status": null, "persistent_id": "", "id": 121990662, "location_subtype": "", "month": "2024-08"}, {"category": "anti-social-behaviour", "location_type": "Force", "location": {"latitude": "53.445560", "street": {"id": 1716303, "name": "On or near Washington Road"}, "longitude": "-1.461833"}, "context": "", "outcome_status": null, "persistent_id": "", "id": 121965700, "location_subtype": "", "month": "2024-08"}, {"category": "anti-social-behaviour", "location_type": "Force", "location": {"latitude": "53.322100", "street": {"id": 1716250, "name": "On or near Dyche Road"}, "longitude": "-1.463732"}, "context": "", "outcome_status": null, "persistent_id": "", "id": 121965703, "location_subtype": "", "month": "2024-08"}, {"category": "anti-social-behaviour", "location_type": "Force", "location": {"latitude": "53.361726", "street": {"id": 1717969, "name": "On or near Dagnam Road"}, "longitude": "-1.433347"}, "context": "", "outcome_status": null, "persistent_id": "", "id": 121989323, "location_subtype": "", "month": "2024-08"}, {"category": "anti-social-behaviour", "location_type": "Force", "location": {"latitude": "53.377279", "street": {"id": 1716573, "name": "On or near Claywood Drive"}, "longitude": "-1.459101"}, "context": "", "outcome_status": null, "persistent_id": "", "id": 121987929, "location_subtype": "", "month": "2024-08"}, {"category": "anti-social-behaviour", "location_type": "Force", "location": {"latitude": "53.460772", "street": {"id": 1716062, "name": "On or near Falding Street"}, "longitude": "-1.464518"}, "context": "", "outcome_status": null, "persistent_id": "", "id": 121987927, "location_subtype": "", "month": "2024-08"}, {"category": "anti-social-behaviour", "location_type": "Force", "location": {"latitude": "53.379861", "street": {"id": 1715877, "name": "On or near Cadman Lane"}, "longitude": "-1.467682"}, "context": "", "outcome_status": null, "persistent_id": "", "id": 121987921, "location_subtype": "", "month": "2024-08"}, {"category": "anti-social-behaviour", "location_type": "Force", "location": {"latitude": "53.356711", "street": {"id": 1717998, "name": "On or near Hurlfield Road"}, "longitude": "-1.433489"}, "context": "", "outcome_status": null, "persistent_id": "", "id": 121989320, "location_subtype": "", "month": "2024-08"}, {"category": "anti-social-behaviour", "location_type": "Force", "location": {"latitude": "53.340235", "street": {"id": 1715774, "name": "On or near St Ives Drive"}, "longitude": "-1.468837"}, "context": "", "outcome_status": null, "persistent_id": "", "id": 121987918, "location_subtype": "", "month": "2024-08"}, {"category": "anti-social-behaviour", "location_type": "Force", "location": {"latitude": "53.368196", "street": {"id": 1715358, "name": "On or near Woodhead Road"}, "longitude": "-1.474170"}, "context": "", "outcome_status": null, "persistent_id": "", "id": 121987915, "location_subtype": "", "month": "2024-08"}, {"category": "anti-social-behaviour", "location_type": "Force", "location": {"latitude": "53.380878", "street": {"id": 1715356, "name": "On or near Parking Area"}, "longitude": "-1.474059"}, "context": "", "outcome_status": null, "persistent_id": "", "id": 121987912, "location_subtype": "", "month": "2024-08"}, {"category": "anti-social-behaviour", "location_type": "Force", "location": {"latitude": "53.390258", "street": {"id": 1714944, "name": "On or near Cornish Street"}, "longitude": "-1.477131"}, "context": "", "outcome_status": null, "persistent_id": "", "id": 121987909, "location_subtype": "", "month": "2024-08"}, {"category": "anti-social-behaviour", "location_type": "Force", "location": {"latitude": "53.382893", "street": {"id": 1715110, "name": "On or near Boden Lane"}, "longitude": "-1.476379"}, "context": "", "outcome_status": null, "persistent_id": "", "id": 121987906, "location_subtype": "", "month": "2024-08"}, {"category": "anti-social-behaviour", "location_type": "Force", "location": {"latitude": "53.322857", "street": {"id": 1714428, "name": "On or near Gervase Drive"}, "longitude": "-1.484590"}, "context": "", "outcome_status": null, "persistent_id": "", "id": 121987903, "location_subtype": "", "month": "2024-08"}, {"category": "anti-social-behaviour", "location_type": "Force", "location": {"latitude": "53.375650", "street": {"id": 1714410, "name": "On or near Travis Place"}, "longitude": "-1.485111"}, "context": "", "outcome_status": null, "persistent_id": "", "id": 121987900, "location_subtype": "", "month": "2024-08"}, {"category": "anti-social-behaviour", "location_type": "Force", "location": {"latitude": "53.428799", "street": {"id": 1714350, "name": "On or near Wordsworth Close"}, "longitude": "-1.484891"}, "context": "", "outcome_status": null, "persistent_id": "", "id": 121987897, "location_subtype": "", "month": "2024-08"}, {"category": "anti-social-behaviour", "location_type": "Force", "location": {"latitude": "53.473676", "street": {"id": 1714124, "name": "On or near Chapel Road"}, "longitude": "-1.488370"}, "context": "", "outcome_status": null, "persistent_id": "", "id": 121990665, "location_subtype": "", "month": "2024-08"}, {"category": "anti-social-behaviour", "location_type": "Force", "location": {"latitude": "53.392749", "street": {"id": 1714314, "name": "On or near West Don Street"}, "longitude": "-1.485807"}, "context": "", "outcome_status": null, "persistent_id": "", "id": 121987894, "location_subtype": "", "month": "2024-08"}, {"category": "anti-social-behaviour", "location_type": "Force", "location": {"latitude": "53.393795", "street": {"id": 1714259, "name": "On or near Barrack Lane"}, "longitude": "-1.486501"}, "context": "", "outcome_status": null, "persistent_id": "", "id": 121987891, "location_subtype": "", "month": "2024-08"}, {"category": "anti-social-behaviour", "location_type": "Force", "location": {"latitude": "53.437602", "street": {"id": 1717896, "name": "On or near Grange Mill Lane"}, "longitude": "-1.433874"}, "context": "", "outcome_status": null, "persistent_id": "", "id": 121989317, "location_subtype": "", "month": "2024-08"}, {"category": "anti-social-behaviour", "location_type": "Force", "location": {"latitude": "53.326141", "street": {"id": 1714444, "name": "On or near James Andrew Crescent"}, "longitude": "-1.483260"}, "context": "", "outcome_status": null, "persistent_id": "", "id": 121990671, "location_subtype": "", "month": "2024-08"}, {"category": "anti-social-behaviour", "location_type": "Force", "location": {"latitude": "53.362706", "street": {"id": 1719746, "name": "On or near Glenholme Place"}, "longitude": "-1.391485"}, "context": "", "outcome_status": null, "persistent_id": "", "id": 121986502, "location_subtype": "", "month": "2024-08"}, {"category": "anti-social-behaviour", "location_type": "Force", "location": {"latitude": "53.381470", "street": {"id": 1714999, "name": "On or near Portobello Street"}, "longitude": "-1.477840"}, "context": "", "outcome_status": null, "persistent_id": "", "id": 121990674, "location_subtype": "", "month": "2024-08"}, {"category": "anti-social-behaviour", "location_type": "Force", "location": {"latitude": "53.442159", "street": {"id": 1719598, "name": "On or near Clifford Road"}, "longitude": "-1.395303"}, "context": "", "outcome_status": null, "persistent_id": "", "id": 121986496, "location_subtype": "", "month": "2024-08"}, {"category": "anti-social-behaviour", "location_type": "Force", "location": {"latitude": "53.391235", "street": {"id": 1715106, "name": "On or near Adelaide Lane"}, "longitude": "-1.476638"}, "context": "", "outcome_status": null, "persistent_id": "", "id": 121990680, "location_subtype": "", "month": "2024-08"}, {"category": "anti-social-behaviour", "location_type": "Force", "location": {"latitude": "53.429119", "street": {"id": 1715317, "name": "On or near Holgate Crescent"}, "longitude": "-1.471748"}, "context": "", "outcome_status": null, "persistent_id": "", "id": 121990682, "location_subtype": "", "month": "2024-08"}, {"category": "anti-social-behaviour", "location_type": "Force", "location": {"latitude": "53.359606", "street": {"id": 1717755, "name": "On or near Supermarket"}, "longitude": "-1.437493"}, "context": "", "outcome_status": null, "persistent_id": "", "id": 121989311, "location_subtype": "", "month": "2024-08"}, {"category": "anti-social-behaviour", "location_type": "Force", "location": {"latitude": "53.348533", "street": {"id": 1719423, "name": "On or near Supermarket"}, "longitude": "-1.400805"}, "context": "", "outcome_status": null, "persistent_id": "", "id": 121986493, "location_subtype": "", "month": "2024-08"}, {"category": "anti-social-behaviour", "location_type": "Force", "location": {"latitude": "53.364578", "street": {"id": 1717643, "name": "On or near Spring Lane"}, "longitude": "-1.441665"}, "context": "", "outcome_status": null, "persistent_id": "", "id": 121989305, "location_subtype": "", "month": "2024-08"}, {"category": "anti-social-behaviour", "location_type": "Force", "location": {"latitude": "53.377948", "street": {"id": 1715675, "name": "On or near Union Lane"}, "longitude": "-1.470051"}, "context": "", "outcome_status": null, "persistent_id": "", "id": 121990685, "location_subtype": "", "month": "2024-08"}, {"category": "anti-social-behaviour", "location_type": "Force", "location": {"latitude": "53.318901", "street": {"id": 1715707, "name": "On or near Bowshaw Avenue"}, "longitude": "-1.469957"}, "context": "", "outcome_status": null, "persistent_id": "", "id": 121990694, "location_subtype": "", "month": "2024-08"}, {"category": "anti-social-behaviour", "location_type": "Force", "location": {"latitude": "53.402333", "street": {"id": 1715849, "name": "On or near Firshill Croft"}, "longitude": "-1.467778"}, "context": "", "outcome_status": null, "persistent_id": "", "id": 121990697, "location_subtype": "", "month": "2024-08"}, {"category": "anti-social-behaviour", "location_type": "Force", "location": {"latitude": "53.420085", "street": {"id": 1716217, "name": "On or near Crowland Road"}, "longitude": "-1.461628"}, "context": "", "outcome_status": null, "persistent_id": "", "id": 121990700, "location_subtype": "", "month": "2024-08"}, {"category": "anti-social-behaviour", "location_type": "Force", "location": {"latitude": "53.407385", "street": {"id": 1717508, "name": "On or near Petrol Station"}, "longitude": "-1.442808"}, "context": "", "outcome_status": null, "persistent_id": "", "id": 121989302, "location_subtype": "", "month": "2024-08"}, {"category": "anti-social-behaviour", "location_type": "Force", "location": {"latitude": "53.416848", "street": {"id": 1716846, "name": "On or near Maun Way"}, "longitude": "-1.455425"}, "context": "", "outcome_status": null, "persistent_id": "", "id": 121990703, "location_subtype": "", "month": "2024-08"}, {"category": "anti-social-behaviour", "location_type": "Force", "location": {"latitude": "53.346401", "street": {"id": 1719079, "name": "On or near Kildonan Grove"}, "longitude": "-1.409367"}, "context": "", "outcome_status": null, "persistent_id": "", "id": 121986491, "location_subtype": "", "month": "2024-08"}, {"category": "anti-social-behaviour", "location_type": "Force", "location": {"latitude": "53.392435", "street": {"id": 1718658, "name": "On or near Uttley Croft"}, "longitude": "-1.417286"}, "context": "", "outcome_status": null, "persistent_id": "", "id": 121986487, "location_subtype": "", "month": "2024-08"}, {"category": "anti-social-behaviour", "location_type": "Force", "location": {"latitude": "53.379377", "street": {"id": 1718440, "name": "On or near Greenwood Avenue"}, "longitude": "-1.421538"}, "context": "", "outcome_status": null, "persistent_id": "", "id": 121986481, "location_subtype": "", "month": "2024-08"}, {"category": "anti-social-behaviour", "location_type": "Force", "location": {"latitude": "53.447511", "street": {"id": 1718654, "name": "On or near Upper Wortley Road"}, "longitude": "-1.417722"}, "context": "", "outcome_status": null, "persistent_id": "", "id": 121986479, "location_subtype": "", "month": "2024-08"}, {"category": "anti-social-behaviour", "location_type": "Force", "location": {"latitude": "53.408202", "street": {"id": 1717605, "name": "On or near Dunmow Road"}, "longitude": "-1.441921"}, "context": "", "outcome_status": null, "persistent_id": "", "id": 121989300, "location_subtype": "", "month": "2024-08"}, {"category": "anti-social-behaviour", "location_type": "Force", "location": {"latitude": "53.327210", "street": {"id": 1715229, "name": "On or near Petrol Station"}, "longitude": "-1.474764"}, "context": "", "outcome_status": null, "persistent_id": "", "id": 121989259, "location_subtype": "", "month": "2024-08"}, {"category": "anti-social-behaviour", "location_type": "Force", "location": {"latitude": "53.434546", "street": {"id": 1717008, "name": "On or near Perkyn Terrace"}, "longitude": "-1.451330"}, "context": "", "outcome_status": null, "persistent_id": "", "id": 121990709, "location_subtype": "", "month": "2024-08"}, {"category": "anti-social-behaviour", "location_type": "Force", "location": {"latitude": "53.357507", "street": {"id": 1717692, "name": "On or near Berners Place"}, "longitude": "-1.440330"}, "context": "", "outcome_status": null, "persistent_id": "", "id": 121986473, "location_subtype": "", "month": "2024-08"}, {"category": "anti-social-behaviour", "location_type": "Force", "location": {"latitude": "53.387642", "street": {"id": 1716070, "name": "On or near Nursery Lane"}, "longitude": "-1.464849"}, "context": "", "outcome_status": null, "persistent_id": "", "id": 121989265, "location_subtype": "", "month": "2024-08"}, {"category": "anti-social-behaviour", "location_type": "Force", "location": {"latitude": "53.389639", "street": {"id": 1716737, "name": "On or near Supermarket"}, "longitude": "-1.457193"}, "context": "", "outcome_status": null, "persistent_id": "", "id": 121989268, "location_subtype": "", "month": "2024-08"}, {"category": "anti-social-behaviour", "location_type": "Force", "location": {"latitude": "53.367108", "street": {"id": 1717635, "name": "On or near St Aidan's Place"}, "longitude": "-1.440520"}, "context": "", "outcome_status": null, "persistent_id": "", "id": 121986470, "location_subtype": "", "month": "2024-08"}, {"category": "anti-social-behaviour", "location_type": "Force", "location": {"latitude": "53.436916", "street": {"id": 1717727, "name": "On or near B6086"}, "longitude": "-1.439107"}, "context": "", "outcome_status": null, "persistent_id": "", "id": 121986467, "location_subtype": "", "month": "2024-08"}, {"category": "anti-social-behaviour", "location_type": "Force", "location": {"latitude": "53.359395", "street": {"id": 1717670, "name": "On or near Errington Crescent"}, "longitude": "-1.440440"}, "context": "", "outcome_status": null, "persistent_id": "", "id": 121986465, "location_subtype": "", "month": "2024-08"}, {"category": "anti-social-behaviour", "location_type": "Force", "location": {"latitude": "53.378498", "street": {"id": 1717093, "name": "On or near Sports/recreation Area"}, "longitude": "-1.448139"}, "context": "", "outcome_status": null, "persistent_id": "", "id": 121990715, "location_subtype": "", "month": "2024-08"}, {"category": "anti-social-behaviour", "location_type": "Force", "location": {"latitude": "53.351787", "street": {"id": 1714182, "name": "On or near Plymouth Road"}, "longitude": "-1.487577"}, "context": "", "outcome_status": null, "persistent_id": "", "id": 121989241, "location_subtype": "", "month": "2024-08"}, {"category": "anti-social-behaviour", "location_type": "Force", "location": {"latitude": "53.434455", "street": {"id": 1717696, "name": "On or near The Ravine"}, "longitude": "-1.439335"}, "context": "", "outcome_status": null, "persistent_id": "", "id": 121986462, "location_subtype": "", "month": "2024-08"}, {"category": "anti-social-behaviour", "location_type": "Force", "location": {"latitude": "53.398246", "street": {"id": 1717498, "name": "On or near Atlas Way"}, "longitude": "-1.442758"}, "context": "", "outcome_status": null, "persistent_id": "", "id": 121990724, "location_subtype": "", "month": "2024-08"}, {"category": "anti-social-behaviour", "location_type": "Force", "location": {"latitude": "53.429626", "street": {"id": 1717732, "name": "On or near Keppel Place"}, "longitude": "-1.437156"}, "context": "", "outcome_status": null, "persistent_id": "", "id": 121990727, "location_subtype": "", "month": "2024-08"}, {"category": "anti-social-behaviour", "location_type": "Force", "location": {"latitude": "53.435321", "street": {"id": 1716839, "name": "On or near Godric Road"}, "longitude": "-1.453699"}, "context": "", "outcome_status": null, "persistent_id": "", "id": 121989271, "location_subtype": "", "month": "2024-08"}, {"category": "anti-social-behaviour", "location_type": "Force", "location": {"latitude": "53.460378", "street": {"id": 1717832, "name": "On or near The Bellfields"}, "longitude": "-1.437578"}, "context": "", "outcome_status": null, "persistent_id": "", "id": 121990730, "location_subtype": "", "month": "2024-08"}, {"category": "anti-social-behaviour", "location_type": "Force", "location": {"latitude": "53.397356", "street": {"id": 1718823, "name": "On or near Stovin Gardens"}, "longitude": "-1.414452"}, "context": "", "outcome_status": null, "persistent_id": "", "id": 121990736, "location_subtype": "", "month": "2024-08"}, {"category": "anti-social-behaviour", "location_type": "Force", "location": {"latitude": "53.309619", "street": {"id": 2220702, "name": "On or near Green Chase"}, "longitude": "-1.365675"}, "context": "", "outcome_status": null, "persistent_id": "", "id": 120822933, "location_subtype": "", "month": "2024-08"}, {"category": "anti-social-behaviour", "location_type": "Force", "location": {"latitude": "53.403909", "street": {"id": 1716796, "name": "On or near Osgathorpe Crescent"}, "longitude": "-1.456372"}, "context": "", "outcome_status": null, "persistent_id": "", "id": 121986459, "location_subtype": "", "month": "2024-08"}, {"category": "anti-social-behaviour", "location_type": "Force", "location": {"latitude": "53.416312", "street": {"id": 1715998, "name": "On or near Longley Crescent"}, "longitude": "-1.466084"}, "context": "", "outcome_status": null, "persistent_id": "", "id": 121986453, "location_subtype": "", "month": "2024-08"}, {"category": "anti-social-behaviour", "location_type": "Force", "location": {"latitude": "53.365643", "street": {"id": 1715703, "name": "On or near Harrington Road"}, "longitude": "-1.470219"}, "context": "", "outcome_status": null, "persistent_id": "", "id": 121986450, "location_subtype": "", "month": "2024-08"}, {"category": "anti-social-behaviour", "location_type": "Force", "location": {"latitude": "53.381414", "street": {"id": 1715639, "name": "On or near Orchard Lane"}, "longitude": "-1.471121"}, "context": "", "outcome_status": null, "persistent_id": "", "id": 121986447, "location_subtype": "", "month": "2024-08"}, {"category": "anti-social-behaviour", "location_type": "Force", "location": {"latitude": "53.305154", "street": {"id": 2215170, "name": "On or near Alexandra Road"}, "longitude": "-1.467336"}, "context": "", "outcome_status": null, "persistent_id": "", "id": 120822294, "location_subtype": "", "month": "2024-08"}, {"category": "anti-social-behaviour", "location_type": "Force", "location": {"latitude": "53.380685", "street": {"id": 1715555, "name": "On or near Sports/recreation Area"}, "longitude": "-1.472405"}, "context": "", "outcome_status": null, "persistent_id": "", "id": 121986444, "location_subtype": "", "month": "2024-08"}, {"category": "anti-social-behaviour", "location_type": "Force", "location": {"latitude": "53.325585", "street": {"id": 2221992, "name": "On or near Cutler Close"}, "longitude": "-1.326582"}, "context": "", "outcome_status": null, "persistent_id": "", "id": 120822678, "location_subtype": "", "month": "2024-08"}, {"category": "anti-social-behaviour", "location_type": "Force", "location": {"latitude": "53.366844", "street": {"id": 1715215, "name": "On or near Sitwell Place"}, "longitude": "-1.475479"}, "context": "", "outcome_status": null, "persistent_id": "", "id": 121986437, "location_subtype": "", "month": "2024-08"}, {"category": "anti-social-behaviour", "location_type": "Force", "location": {"latitude": "53.432057", "street": {"id": 1714633, "name": "On or near Knutton Road"}, "longitude": "-1.481691"}, "context": "", "outcome_status": null, "persistent_id": "", "id": 121986435, "location_subtype": "", "month": "2024-08"}, {"category": "anti-social-behaviour", "location_type": "Force", "location": {"latitude": "53.308821", "street": {"id": 2220304, "name": "On or near Ravencar Road"}, "longitude": "-1.372831"}, "context": "", "outcome_status": null, "persistent_id": "", "id": 120822462, "location_subtype": "", "month": "2024-08"}, {"category": "anti-social-behaviour", "location_type": "Force", "location": {"latitude": "53.388439", "street": {"id": 1714257, "name": "On or near Burlington Street"}, "longitude": "-1.486836"}, "context": "", "outcome_status": null, "persistent_id": "", "id": 121986425, "location_subtype": "", "month": "2024-08"}, {"category": "anti-social-behaviour", "location_type": "Force", "location": {"latitude": "53.385339", "street": {"id": 1712824, "name": "On or near Supermarket"}, "longitude": "-1.507955"}, "context": "", "outcome_status": null, "persistent_id": "", "id": 121986422, "location_subtype": "", "month": "2024-08"}, {"category": "anti-social-behaviour", "location_type": "Force", "location": {"latitude": "53.359356", "street": {"id": 1712620, "name": "On or near Gisborne Road"}, "longitude": "-1.511482"}, "context": "", "outcome_status": null, "persistent_id": "", "id": 121986419, "location_subtype": "", "month": "2024-08"}, {"category": "anti-social-behaviour", "location_type": "Force", "location": {"latitude": "53.418909", "street": {"id": 1712567, "name": "On or near Winn Grove"}, "longitude": "-1.512064"}, "context": "", "outcome_status": null, "persistent_id": "", "id": 121986417, "location_subtype": "", "month": "2024-08"}, {"category": "anti-social-behaviour", "location_type": "Force", "location": {"latitude": "53.336596", "street": {"id": 1721357, "name": "On or near Parking Area"}, "longitude": "-1.354237"}, "context": "", "outcome_status": null, "persistent_id": "", "id": 120821769, "location_subtype": "", "month": "2024-08"}, {"category": "anti-social-behaviour", "location_type": "Force", "location": {"latitude": "53.390381", "street": {"id": 1714102, "name": "On or near Brandreth Road"}, "longitude": "-1.489068"}, "context": "", "outcome_status": null, "persistent_id": "", "id": 121989238, "location_subtype": "", "month": "2024-08"}, {"category": "anti-social-behaviour", "location_type": "Force", "location": {"latitude": "53.308303", "street": {"id": 2220137, "name": "On or near Fern Close"}, "longitude": "-1.376860"}, "context": "", "outcome_status": null, "persistent_id": "", "id": 120822049, "location_subtype": "", "month": "2024-08"}, {"category": "anti-social-behaviour", "location_type": "Force", "location": {"latitude": "53.309496", "street": {"id": 2221029, "name": "On or near Market Street"}, "longitude": "-1.356222"}, "context": "", "outcome_status": null, "persistent_id": "", "id": 120821986, "location_subtype": "", "month": "2024-08"}, {"category": "anti-social-behaviour", "location_type": "Force", "location": {"latitude": "53.310452", "street": {"id": 2220666, "name": "On or near Greenfields"}, "longitude": "-1.366773"}, "context": "", "outcome_status": null, "persistent_id": "", "id": 120821983, "location_subtype": "", "month": "2024-08"}, {"category": "anti-social-behaviour", "location_type": "Force", "location": {"latitude": "53.443541", "street": {"id": 1722743, "name": "On or near Supermarket"}, "longitude": "-1.319167"}, "context": "", "outcome_status": null, "persistent_id": "", "id": 121985149, "location_subtype": "", "month": "2024-08"}, {"category": "anti-social-behaviour", "location_type": "Force", "location": {"latitude": "53.308821", "street": {"id": 2220304, "name": "On or near Ravencar Road"}, "longitude": "-1.372831"}, "context": "", "outcome_status": null, "persistent_id": "", "id": 120821980, "location_subtype": "", "month": "2024-08"}, {"category": "anti-social-behaviour", "location_type": "Force", "location": {"latitude": "53.365916", "street": {"id": 1716986, "name": "On or near Park Grange Court"}, "longitude": "-1.452918"}, "context": "", "outcome_status": null, "persistent_id": "", "id": 121989274, "location_subtype": "", "month": "2024-08"}, {"category": "anti-social-behaviour", "location_type": "Force", "location": {"latitude": "53.417175", "street": {"id": 1722656, "name": "On or near Stag Crescent"}, "longitude": "-1.322474"}, "context": "", "outcome_status": null, "persistent_id": "", "id": 121985144, "location_subtype": "", "month": "2024-08"}, {"category": "anti-social-behaviour", "location_type": "Force", "location": {"latitude": "53.421743", "street": {"id": 1722510, "name": "On or near Shenstone Drive"}, "longitude": "-1.325907"}, "context": "", "outcome_status": null, "persistent_id": "", "id": 121985141, "location_subtype": "", "month": "2024-08"}, {"category": "anti-social-behaviour", "location_type": "Force", "location": {"latitude": "53.420641", "street": {"id": 1722142, "name": "On or near Lisle Road"}, "longitude": "-1.337767"},