[{"category": "anti-social-behaviour", "location_type": "Force", "location": {"latitude": "53.476208", "street": {"id": 1714021, "name": "On or near Farnaby Drive"}, "longitude": "-1.489952"}, "context": "", "outcome_status": null, "persistent_id": "", "id": 128977134, "location_subtype": "", "month": "2025-06"}, {"category": "anti-social-behaviour", "location_type": "Force", "location": {"latitude": "53.460524", "street": {"id": 1714264, "name": "On or near Chapel Close"}, "longitude": "-1.485998"}, "context": "", "outcome_status": null, "persistent_id": "", "id": 128977141, "location_subtype": "", "month": "2025-06"}, {"category": "anti-social-behaviour", "location_type": "Force", "location": {"latitude": "53.435007", "street": {"id": 1714437, "name": "On or near Creswick Greave"}, "longitude": "-1.484274"}, "context": "", "outcome_status": null, "persistent_id": "", "id": 128977146, "location_subtype": "", "month": "2025-06"}, {"category": "anti-social-behaviour", "location_type": "Force", "location": {"latitude": "53.370131", "street": {"id": 1714579, "name": "On or near Cemetery Road"}, "longitude": "-1.482953"}, "context": "", "outcome_status": null, "persistent_id": "", "id": 128977150, "location_subtype": "", "month": "2025-06"}, {"category": "anti-social-behaviour", "location_type": "Force", "location": {"latitude": "53.370220", "street": {"id": 1714511, "name": "On or near Sunderland Street"}, "longitude": "-1.482952"}, "context": "", "outcome_status": null, "persistent_id": "", "id": 128977155, "location_subtype": "", "month": "2025-06"}, {"category": "anti-social-behaviour", "location_type": "Force", "location": {"latitude": "53.431576", "street": {"id": 1714744, "name": "On or near Margetson Crescent"}, "longitude": "-1.478596"}, "context": "", "outcome_status": null, "persistent_id": "", "id": 128977163, "location_subtype": "", "month": "2025-06"}, {"category": "anti-social-behaviour", "location_type": "Force", "location": {"latitude": "53.360230", "street": {"id": 1714853, "name": "On or near Avenue Road"}, "longitude": "-1.479873"}, "context": "", "outcome_status": null, "persistent_id": "", "id": 128977168, "location_subtype": "", "month": "2025-06"}, {"category": "anti-social-behaviour", "location_type": "Force", "location": {"latitude": "53.380878", "street": {"id": 1715356, "name": "On or near Parking Area"}, "longitude": "-1.474059"}, "context": "", "outcome_status": null, "persistent_id": "", "id": 128977172, "location_subtype": "", "month": "2025-06"}, {"category": "anti-social-behaviour", "location_type": "Force", "location": {"latitude": "53.327210", "street": {"id": 1715229, "name": "On or near Petrol Station"}, "longitude": "-1.474764"}, "context": "", "outcome_status": null, "persistent_id": "", "id": 128977176, "location_subtype": "", "month": "2025-06"}, {"category": "anti-social-behaviour", "location_type": "Force", "location": {"latitude": "53.354532", "street": {"id": 1715722, "name": "On or near Skelton Road"}, "longitude": "-1.469876"}, "context": "", "outcome_status": null, "persistent_id": "", "id": 128977180, "location_subtype": "", "month": "2025-06"}, {"category": "anti-social-behaviour", "location_type": "Force", "location": {"latitude": "53.381809", "street": {"id": 1715708, "name": "On or near Shopping Area"}, "longitude": "-1.468581"}, "context": "", "outcome_status": null, "persistent_id": "", "id": 128977183, "location_subtype": "", "month": "2025-06"}, {"category": "anti-social-behaviour", "location_type": "Force", "location": {"latitude": "53.380414", "street": {"id": 1716005, "name": "On or near Theatre/concert Hall"}, "longitude": "-1.466623"}, "context": "", "outcome_status": null, "persistent_id": "", "id": 128977186, "location_subtype": "", "month": "2025-06"}, {"category": "anti-social-behaviour", "location_type": "Force", "location": {"latitude": "53.388411", "street": {"id": 1712687, "name": "On or near Woodfield Road"}, "longitude": "-1.510067"}, "context": "", "outcome_status": null, "persistent_id": "", "id": 128979103, "location_subtype": "", "month": "2025-06"}, {"category": "anti-social-behaviour", "location_type": "Force", "location": {"latitude": "53.412329", "street": {"id": 1712969, "name": "On or near Hillsborough Grove"}, "longitude": "-1.505565"}, "context": "", "outcome_status": null, "persistent_id": "", "id": 128979106, "location_subtype": "", "month": "2025-06"}, {"category": "anti-social-behaviour", "location_type": "Force", "location": {"latitude": "53.406961", "street": {"id": 1713464, "name": "On or near Broughton Road"}, "longitude": "-1.498587"}, "context": "", "outcome_status": null, "persistent_id": "", "id": 128979111, "location_subtype": "", "month": "2025-06"}, {"category": "anti-social-behaviour", "location_type": "Force", "location": {"latitude": "53.413328", "street": {"id": 1713914, "name": "On or near Scraith Wood Drive"}, "longitude": "-1.488779"}, "context": "", "outcome_status": null, "persistent_id": "", "id": 128979115, "location_subtype": "", "month": "2025-06"}, {"category": "anti-social-behaviour", "location_type": "Force", "location": {"latitude": "53.340602", "street": {"id": 1714838, "name": "On or near Woodseats House Road"}, "longitude": "-1.478684"}, "context": "", "outcome_status": null, "persistent_id": "", "id": 128979118, "location_subtype": "", "month": "2025-06"}, {"category": "anti-social-behaviour", "location_type": "Force", "location": {"latitude": "53.378717", "street": {"id": 1715016, "name": "On or near Eldon Street"}, "longitude": "-1.477317"}, "context": "", "outcome_status": null, "persistent_id": "", "id": 128979122, "location_subtype": "", "month": "2025-06"}, {"category": "anti-social-behaviour", "location_type": "Force", "location": {"latitude": "53.429945", "street": {"id": 1715219, "name": "On or near Milnrow Crescent"}, "longitude": "-1.475576"}, "context": "", "outcome_status": null, "persistent_id": "", "id": 128979126, "location_subtype": "", "month": "2025-06"}, {"category": "anti-social-behaviour", "location_type": "Force", "location": {"latitude": "53.381414", "street": {"id": 1715639, "name": "On or near Orchard Lane"}, "longitude": "-1.471121"}, "context": "", "outcome_status": null, "persistent_id": "", "id": 128979128, "location_subtype": "", "month": "2025-06"}, {"category": "anti-social-behaviour", "location_type": "Force", "location": {"latitude": "53.339451", "street": {"id": 1715331, "name": "On or near Bole Hill"}, "longitude": "-1.472466"}, "context": "", "outcome_status": null, "persistent_id": "", "id": 128979131, "location_subtype": "", "month": "2025-06"}, {"category": "anti-social-behaviour", "location_type": "Force", "location": {"latitude": "53.438872", "street": {"id": 1716274, "name": "On or near Supermarket"}, "longitude": "-1.463619"}, "context": "", "outcome_status": null, "persistent_id": "", "id": 128979140, "location_subtype": "", "month": "2025-06"}, {"category": "anti-social-behaviour", "location_type": "Force", "location": {"latitude": "53.430380", "street": {"id": 1716380, "name": "On or near Martin Crescent"}, "longitude": "-1.462281"}, "context": "", "outcome_status": null, "persistent_id": "", "id": 128979144, "location_subtype": "", "month": "2025-06"}, {"category": "anti-social-behaviour", "location_type": "Force", "location": {"latitude": "53.324100", "street": {"id": 1716382, "name": "On or near Hazlebarrow Close"}, "longitude": "-1.460704"}, "context": "", "outcome_status": null, "persistent_id": "", "id": 128979151, "location_subtype": "", "month": "2025-06"}, {"category": "anti-social-behaviour", "location_type": "Force", "location": {"latitude": "53.413627", "street": {"id": 1716586, "name": "On or near Longley Hall Way"}, "longitude": "-1.458580"}, "context": "", "outcome_status": null, "persistent_id": "", "id": 128979155, "location_subtype": "", "month": "2025-06"}, {"category": "anti-social-behaviour", "location_type": "Force", "location": {"latitude": "53.406084", "street": {"id": 1716801, "name": "On or near Fir Vale Place"}, "longitude": "-1.456239"}, "context": "", "outcome_status": null, "persistent_id": "", "id": 128979159, "location_subtype": "", "month": "2025-06"}, {"category": "anti-social-behaviour", "location_type": "Force", "location": {"latitude": "53.408120", "street": {"id": 1716566, "name": "On or near Smilter Lane"}, "longitude": "-1.457356"}, "context": "", "outcome_status": null, "persistent_id": "", "id": 128979167, "location_subtype": "", "month": "2025-06"}, {"category": "anti-social-behaviour", "location_type": "Force", "location": {"latitude": "53.408120", "street": {"id": 1716566, "name": "On or near Smilter Lane"}, "longitude": "-1.457356"}, "context": "", "outcome_status": null, "persistent_id": "", "id": 128979170, "location_subtype": "", "month": "2025-06"}, {"category": "anti-social-behaviour", "location_type": "Force", "location": {"latitude": "53.371811", "street": {"id": 1715040, "name": "On or near Boston Street"}, "longitude": "-1.476680"}, "context": "", "outcome_status": null, "persistent_id": "", "id": 128980424, "location_subtype": "", "month": "2025-06"}, {"category": "anti-social-behaviour", "location_type": "Force", "location": {"latitude": "53.427328", "street": {"id": 1710803, "name": "On or near Woodfall Lane"}, "longitude": "-1.600986"}, "context": "", "outcome_status": null, "persistent_id": "", "id": 128984417, "location_subtype": "", "month": "2025-06"}, {"category": "anti-social-behaviour", "location_type": "Force", "location": {"latitude": "53.369545", "street": {"id": 1712314, "name": "On or near Riverdale Avenue"}, "longitude": "-1.519331"}, "context": "", "outcome_status": null, "persistent_id": "", "id": 128980416, "location_subtype": "", "month": "2025-06"}, {"category": "anti-social-behaviour", "location_type": "Force", "location": {"latitude": "53.409818", "street": {"id": 1712457, "name": "On or near Wadsley Park Crescent"}, "longitude": "-1.515793"}, "context": "", "outcome_status": null, "persistent_id": "", "id": 128989591, "location_subtype": "", "month": "2025-06"}, {"category": "anti-social-behaviour", "location_type": "Force", "location": {"latitude": "53.318968", "street": {"id": 2218905, "name": "On or near Ridgeway Moor"}, "longitude": "-1.398892"}, "context": "", "outcome_status": null, "persistent_id": "", "id": 129074734, "location_subtype": "", "month": "2025-06"}, {"category": "anti-social-behaviour", "location_type": "Force", "location": {"latitude": "53.403697", "street": {"id": 1712274, "name": "On or near Studfield Crescent"}, "longitude": "-1.520150"}, "context": "", "outcome_status": null, "persistent_id": "", "id": 128989589, "location_subtype": "", "month": "2025-06"}, {"category": "anti-social-behaviour", "location_type": "Force", "location": {"latitude": "53.433223", "street": {"id": 1721503, "name": "On or near Carlisle Street"}, "longitude": "-1.350591"}, "context": "", "outcome_status": null, "persistent_id": "", "id": 128988598, "location_subtype": "", "month": "2025-06"}, {"category": "anti-social-behaviour", "location_type": "Force", "location": {"latitude": "53.468889", "street": {"id": 1721364, "name": "On or near Jackson Crescent"}, "longitude": "-1.353632"}, "context": "", "outcome_status": null, "persistent_id": "", "id": 128988596, "location_subtype": "", "month": "2025-06"}, {"category": "anti-social-behaviour", "location_type": "Force", "location": {"latitude": "53.433833", "street": {"id": 1721396, "name": "On or near Supermarket"}, "longitude": "-1.353592"}, "context": "", "outcome_status": null, "persistent_id": "", "id": 128988594, "location_subtype": "", "month": "2025-06"}, {"category": "anti-social-behaviour", "location_type": "Force", "location": {"latitude": "53.433054", "street": {"id": 1721368, "name": "On or near Henry Street"}, "longitude": "-1.354146"}, "context": "", "outcome_status": null, "persistent_id": "", "id": 128988592, "location_subtype": "", "month": "2025-06"}, {"category": "anti-social-behaviour", "location_type": "Force", "location": {"latitude": "53.398209", "street": {"id": 1721156, "name": "On or near Willow Close"}, "longitude": "-1.358388"}, "context": "", "outcome_status": null, "persistent_id": "", "id": 128988590, "location_subtype": "", "month": "2025-06"}, {"category": "anti-social-behaviour", "location_type": "Force", "location": {"latitude": "53.394943", "street": {"id": 1721092, "name": "On or near Victoria Street"}, "longitude": "-1.361099"}, "context": "", "outcome_status": null, "persistent_id": "", "id": 128988588, "location_subtype": "", "month": "2025-06"}, {"category": "anti-social-behaviour", "location_type": "Force", "location": {"latitude": "53.400098", "street": {"id": 1721037, "name": "On or near Whitehill Willow"}, "longitude": "-1.361954"}, "context": "", "outcome_status": null, "persistent_id": "", "id": 128988586, "location_subtype": "", "month": "2025-06"}, {"category": "anti-social-behaviour", "location_type": "Force", "location": {"latitude": "53.403332", "street": {"id": 1720958, "name": "On or near Icknield Way"}, "longitude": "-1.363245"}, "context": "", "outcome_status": null, "persistent_id": "", "id": 128988584, "location_subtype": "", "month": "2025-06"}, {"category": "anti-social-behaviour", "location_type": "Force", "location": {"latitude": "53.387568", "street": {"id": 1720891, "name": "On or near Highfield Lane"}, "longitude": "-1.365419"}, "context": "", "outcome_status": null, "persistent_id": "", "id": 128988582, "location_subtype": "", "month": "2025-06"}, {"category": "anti-social-behaviour", "location_type": "Force", "location": {"latitude": "53.404112", "street": {"id": 1720843, "name": "On or near Field View Court"}, "longitude": "-1.366211"}, "context": "", "outcome_status": null, "persistent_id": "", "id": 128988580, "location_subtype": "", "month": "2025-06"}, {"category": "anti-social-behaviour", "location_type": "Force", "location": {"latitude": "53.404415", "street": {"id": 1720797, "name": "On or near Parking Area"}, "longitude": "-1.367515"}, "context": "", "outcome_status": null, "persistent_id": "", "id": 128988578, "location_subtype": "", "month": "2025-06"}, {"category": "anti-social-behaviour", "location_type": "Force", "location": {"latitude": "53.404791", "street": {"id": 1720844, "name": "On or near Field View"}, "longitude": "-1.367239"}, "context": "", "outcome_status": null, "persistent_id": "", "id": 128988577, "location_subtype": "", "month": "2025-06"}, {"category": "anti-social-behaviour", "location_type": "Force", "location": {"latitude": "53.404791", "street": {"id": 1720844, "name": "On or near Field View"}, "longitude": "-1.367239"}, "context": "", "outcome_status": null, "persistent_id": "", "id": 128988575, "location_subtype": "", "month": "2025-06"}, {"category": "anti-social-behaviour", "location_type": "Force", "location": {"latitude": "53.359402", "street": {"id": 1720710, "name": "On or near Church Lane"}, "longitude": "-1.369699"}, "context": "", "outcome_status": null, "persistent_id": "", "id": 128988573, "location_subtype": "", "month": "2025-06"}, {"category": "anti-social-behaviour", "location_type": "Force", "location": {"latitude": "53.430867", "street": {"id": 1720039, "name": "On or near Clara Place"}, "longitude": "-1.384356"}, "context": "", "outcome_status": null, "persistent_id": "", "id": 128988569, "location_subtype": "", "month": "2025-06"}, {"category": "anti-social-behaviour", "location_type": "Force", "location": {"latitude": "53.435745", "street": {"id": 1719516, "name": "On or near Crane Drive"}, "longitude": "-1.396102"}, "context": "", "outcome_status": null, "persistent_id": "", "id": 128988567, "location_subtype": "", "month": "2025-06"}, {"category": "anti-social-behaviour", "location_type": "Force", "location": {"latitude": "53.413627", "street": {"id": 1716586, "name": "On or near Longley Hall Way"}, "longitude": "-1.458580"}, "context": "", "outcome_status": null, "persistent_id": "", "id": 128984498, "location_subtype": "", "month": "2025-06"}, {"category": "anti-social-behaviour", "location_type": "Force", "location": {"latitude": "53.441858", "street": {"id": 1715854, "name": "On or near St Mary's Close"}, "longitude": "-1.468203"}, "context": "", "outcome_status": null, "persistent_id": "", "id": 128988519, "location_subtype": "", "month": "2025-06"}, {"category": "anti-social-behaviour", "location_type": "Force", "location": {"latitude": "53.306774", "street": {"id": 2214966, "name": "On or near Chiverton Close"}, "longitude": "-1.471803"}, "context": "", "outcome_status": null, "persistent_id": "", "id": 129074203, "location_subtype": "", "month": "2025-06"}, {"category": "anti-social-behaviour", "location_type": "Force", "location": {"latitude": "53.414915", "street": {"id": 1715212, "name": "On or near Southey Rise"}, "longitude": "-1.475445"}, "context": "", "outcome_status": null, "persistent_id": "", "id": 128988513, "location_subtype": "", "month": "2025-06"}, {"category": "anti-social-behaviour", "location_type": "Force", "location": {"latitude": "53.323863", "street": {"id": 1714957, "name": "On or near Lupton Road"}, "longitude": "-1.478228"}, "context": "", "outcome_status": null, "persistent_id": "", "id": 128988512, "location_subtype": "", "month": "2025-06"}, {"category": "anti-social-behaviour", "location_type": "Force", "location": {"latitude": "53.424593", "street": {"id": 1714973, "name": "On or near Buchanan Road"}, "longitude": "-1.476725"}, "context": "", "outcome_status": null, "persistent_id": "", "id": 128988510, "location_subtype": "", "month": "2025-06"}, {"category": "anti-social-behaviour", "location_type": "Force", "location": {"latitude": "53.428799", "street": {"id": 1714350, "name": "On or near Wordsworth Close"}, "longitude": "-1.484891"}, "context": "", "outcome_status": null, "persistent_id": "", "id": 128988508, "location_subtype": "", "month": "2025-06"}, {"category": "anti-social-behaviour", "location_type": "Force", "location": {"latitude": "53.468161", "street": {"id": 1713958, "name": "On or near Dikelands Mount"}, "longitude": "-1.491359"}, "context": "", "outcome_status": null, "persistent_id": "", "id": 128988506, "location_subtype": "", "month": "2025-06"}, {"category": "anti-social-behaviour", "location_type": "Force", "location": {"latitude": "53.412786", "street": {"id": 1712552, "name": "On or near Marlcliffe Road"}, "longitude": "-1.511607"}, "context": "", "outcome_status": null, "persistent_id": "", "id": 128988504, "location_subtype": "", "month": "2025-06"}, {"category": "anti-social-behaviour", "location_type": "Force", "location": {"latitude": "53.308303", "street": {"id": 2220137, "name": "On or near Fern Close"}, "longitude": "-1.376860"}, "context": "", "outcome_status": null, "persistent_id": "", "id": 129073939, "location_subtype": "", "month": "2025-06"}, {"category": "anti-social-behaviour", "location_type": "Force", "location": {"latitude": "53.373857", "street": {"id": 1715681, "name": "On or near Mary Street"}, "longitude": "-1.469666"}, "context": "", "outcome_status": null, "persistent_id": "", "id": 128952707, "location_subtype": "", "month": "2025-06"}, {"category": "anti-social-behaviour", "location_type": "Force", "location": {"latitude": "53.408795", "street": {"id": 1715788, "name": "On or near Musgrave Drive"}, "longitude": "-1.469457"}, "context": "", "outcome_status": null, "persistent_id": "", "id": 128952709, "location_subtype": "", "month": "2025-06"}, {"category": "anti-social-behaviour", "location_type": "Force", "location": {"latitude": "53.358402", "street": {"id": 1716153, "name": "On or near Gerard Street"}, "longitude": "-1.464975"}, "context": "", "outcome_status": null, "persistent_id": "", "id": 128952714, "location_subtype": "", "month": "2025-06"}, {"category": "anti-social-behaviour", "location_type": "Force", "location": {"latitude": "53.402860", "street": {"id": 1715223, "name": "On or near Sports/recreation Area"}, "longitude": "-1.474001"}, "context": "", "outcome_status": null, "persistent_id": "", "id": 128952685, "location_subtype": "", "month": "2025-06"}, {"category": "anti-social-behaviour", "location_type": "Force", "location": {"latitude": "53.421349", "street": {"id": 1716159, "name": "On or near Emerson Drive"}, "longitude": "-1.464697"}, "context": "", "outcome_status": null, "persistent_id": "", "id": 128952718, "location_subtype": "", "month": "2025-06"}, {"category": "anti-social-behaviour", "location_type": "Force", "location": {"latitude": "53.344775", "street": {"id": 1718233, "name": "On or near Herdings Road"}, "longitude": "-1.428060"}, "context": "", "outcome_status": null, "persistent_id": "", "id": 128952757, "location_subtype": "", "month": "2025-06"}, {"category": "anti-social-behaviour", "location_type": "Force", "location": {"latitude": "53.320074", "street": {"id": 1711866, "name": "On or near King Ecgbert Road"}, "longitude": "-1.531236"}, "context": "", "outcome_status": null, "persistent_id": "", "id": 128988501, "location_subtype": "", "month": "2025-06"}, {"category": "anti-social-behaviour", "location_type": "Force", "location": {"latitude": "53.461650", "street": {"id": 1715968, "name": "On or near Market Place"}, "longitude": "-1.465832"}, "context": "", "outcome_status": null, "persistent_id": "", "id": 128954618, "location_subtype": "", "month": "2025-06"}, {"category": "anti-social-behaviour", "location_type": "Force", "location": {"latitude": "53.476176", "street": {"id": 1710874, "name": "On or near Cedar Close"}, "longitude": "-1.599398"}, "context": "", "outcome_status": null, "persistent_id": "", "id": 128988499, "location_subtype": "", "month": "2025-06"}, {"category": "anti-social-behaviour", "location_type": "Force", "location": {"latitude": "53.322214", "street": {"id": 2219033, "name": "On or near Ridgeway Moor"}, "longitude": "-1.398966"}, "context": "", "outcome_status": null, "persistent_id": "", "id": 129073937, "location_subtype": "", "month": "2025-06"}, {"category": "anti-social-behaviour", "location_type": "Force", "location": {"latitude": "53.357844", "street": {"id": 1715201, "name": "On or near Arthington Street"}, "longitude": "-1.475003"}, "context": "", "outcome_status": null, "persistent_id": "", "id": 128954607, "location_subtype": "", "month": "2025-06"}, {"category": "anti-social-behaviour", "location_type": "Force", "location": {"latitude": "53.443541", "street": {"id": 1722743, "name": "On or near Supermarket"}, "longitude": "-1.319167"}, "context": "", "outcome_status": null, "persistent_id": "", "id": 128954760, "location_subtype": "", "month": "2025-06"}, {"category": "anti-social-behaviour", "location_type": "Force", "location": {"latitude": "53.339645", "street": {"id": 1722407, "name": "On or near Meadow Gate Avenue"}, "longitude": "-1.330086"}, "context": "", "outcome_status": null, "persistent_id": "", "id": 128954764, "location_subtype": "", "month": "2025-06"}, {"category": "anti-social-behaviour", "location_type": "Force", "location": {"latitude": "53.484057", "street": {"id": 1710772, "name": "On or near Hawthorne Avenue"}, "longitude": "-1.609661"}, "context": "", "outcome_status": null, "persistent_id": "", "id": 128956294, "location_subtype": "", "month": "2025-06"}, {"category": "anti-social-behaviour", "location_type": "Force", "location": {"latitude": "53.483612", "street": {"id": 1710812, "name": "On or near Ridal Croft"}, "longitude": "-1.605777"}, "context": "", "outcome_status": null, "persistent_id": "", "id": 128956297, "location_subtype": "", "month": "2025-06"}, {"category": "anti-social-behaviour", "location_type": "Force", "location": {"latitude": "53.414201", "street": {"id": 1712997, "name": "On or near Eskdale Road"}, "longitude": "-1.503933"}, "context": "", "outcome_status": null, "persistent_id": "", "id": 128956301, "location_subtype": "", "month": "2025-06"}, {"category": "anti-social-behaviour", "location_type": "Force", "location": {"latitude": "53.377270", "street": {"id": 1716621, "name": "On or near Parking Area"}, "longitude": "-1.459041"}, "context": "", "outcome_status": null, "persistent_id": "", "id": 128969214, "location_subtype": "", "month": "2025-06"}, {"category": "anti-social-behaviour", "location_type": "Force", "location": {"latitude": "53.432099", "street": {"id": 1720829, "name": "On or near College Road"}, "longitude": "-1.365449"}, "context": "", "outcome_status": null, "persistent_id": "", "id": 128969281, "location_subtype": "", "month": "2025-06"}, {"category": "anti-social-behaviour", "location_type": "Force", "location": {"latitude": "53.359550", "street": {"id": 1722634, "name": "On or near Ilkley Crescent"}, "longitude": "-1.322862"}, "context": "", "outcome_status": null, "persistent_id": "", "id": 128956469, "location_subtype": "", "month": "2025-06"}, {"category": "anti-social-behaviour", "location_type": "Force", "location": {"latitude": "53.443541", "street": {"id": 1722743, "name": "On or near Supermarket"}, "longitude": "-1.319167"}, "context": "", "outcome_status": null, "persistent_id": "", "id": 128969297, "location_subtype": "", "month": "2025-06"}, {"category": "anti-social-behaviour", "location_type": "Force", "location": {"latitude": "53.373831", "street": {"id": 1717713, "name": "On or near Swift Way"}, "longitude": "-1.440326"}, "context": "", "outcome_status": null, "persistent_id": "", "id": 128988555, "location_subtype": "", "month": "2025-06"}, {"category": "anti-social-behaviour", "location_type": "Force", "location": {"latitude": "53.417673", "street": {"id": 1717553, "name": "On or near Windmill Lane"}, "longitude": "-1.443302"}, "context": "", "outcome_status": null, "persistent_id": "", "id": 128988550, "location_subtype": "", "month": "2025-06"}, {"category": "anti-social-behaviour", "location_type": "Force", "location": {"latitude": "53.472360", "street": {"id": 1714127, "name": "On or near Jeffcock Road"}, "longitude": "-1.487588"}, "context": "", "outcome_status": null, "persistent_id": "", "id": 128958081, "location_subtype": "", "month": "2025-06"}, {"category": "anti-social-behaviour", "location_type": "Force", "location": {"latitude": "53.380967", "street": {"id": 1714044, "name": "On or near Western Bank"}, "longitude": "-1.490339"}, "context": "", "outcome_status": null, "persistent_id": "", "id": 128958077, "location_subtype": "", "month": "2025-06"}, {"category": "anti-social-behaviour", "location_type": "Force", "location": {"latitude": "53.428753", "street": {"id": 1722047, "name": "On or near Victoria Avenue"}, "longitude": "-1.340245"}, "context": "", "outcome_status": null, "persistent_id": "", "id": 128958222, "location_subtype": "", "month": "2025-06"}, {"category": "anti-social-behaviour", "location_type": "Force", "location": {"latitude": "53.441819", "street": {"id": 1722952, "name": "On or near Dalton Lane"}, "longitude": "-1.315668"}, "context": "", "outcome_status": null, "persistent_id": "", "id": 128958228, "location_subtype": "", "month": "2025-06"}, {"category": "anti-social-behaviour", "location_type": "Force", "location": {"latitude": "53.376769", "street": {"id": 1715414, "name": "On or near Rockingham Gate"}, "longitude": "-1.473854"}, "context": "", "outcome_status": null, "persistent_id": "", "id": 128960110, "location_subtype": "", "month": "2025-06"}, {"category": "anti-social-behaviour", "location_type": "Force", "location": {"latitude": "53.395583", "street": {"id": 1716195, "name": "On or near Cranworth Place"}, "longitude": "-1.463892"}, "context": "", "outcome_status": null, "persistent_id": "", "id": 128960113, "location_subtype": "", "month": "2025-06"}, {"category": "anti-social-behaviour", "location_type": "Force", "location": {"latitude": "53.379247", "street": {"id": 1715628, "name": "On or near Cross Burgess Street"}, "longitude": "-1.471072"}, "context": "", "outcome_status": null, "persistent_id": "", "id": 128961963, "location_subtype": "", "month": "2025-06"}, {"category": "anti-social-behaviour", "location_type": "Force", "location": {"latitude": "53.380604", "street": {"id": 1715626, "name": "On or near Barker's Pool"}, "longitude": "-1.471025"}, "context": "", "outcome_status": null, "persistent_id": "", "id": 128961971, "location_subtype": "", "month": "2025-06"}, {"category": "anti-social-behaviour", "location_type": "Force", "location": {"latitude": "53.362272", "street": {"id": 1715834, "name": "On or near Anns Road"}, "longitude": "-1.468022"}, "context": "", "outcome_status": null, "persistent_id": "", "id": 128961977, "location_subtype": "", "month": "2025-06"}, {"category": "anti-social-behaviour", "location_type": "Force", "location": {"latitude": "53.382912", "street": {"id": 1716031, "name": "On or near High Street"}, "longitude": "-1.466381"}, "context": "", "outcome_status": null, "persistent_id": "", "id": 128961982, "location_subtype": "", "month": "2025-06"}, {"category": "anti-social-behaviour", "location_type": "Force", "location": {"latitude": "53.374259", "street": {"id": 1716723, "name": "On or near Farm Bank Road"}, "longitude": "-1.457261"}, "context": "", "outcome_status": null, "persistent_id": "", "id": 128962011, "location_subtype": "", "month": "2025-06"}, {"category": "anti-social-behaviour", "location_type": "Force", "location": {"latitude": "53.431920", "street": {"id": 1717099, "name": "On or near Hartley Brook Road"}, "longitude": "-1.451018"}, "context": "", "outcome_status": null, "persistent_id": "", "id": 128962019, "location_subtype": "", "month": "2025-06"}, {"category": "anti-social-behaviour", "location_type": "Force", "location": {"latitude": "53.434455", "street": {"id": 1717696, "name": "On or near The Ravine"}, "longitude": "-1.439335"}, "context": "", "outcome_status": null, "persistent_id": "", "id": 128962036, "location_subtype": "", "month": "2025-06"}, {"category": "anti-social-behaviour", "location_type": "Force", "location": {"latitude": "53.326262", "street": {"id": 1711572, "name": "On or near High Trees"}, "longitude": "-1.541362"}, "context": "", "outcome_status": null, "persistent_id": "", "id": 128961928, "location_subtype": "", "month": "2025-06"}, {"category": "anti-social-behaviour", "location_type": "Force", "location": {"latitude": "53.329471", "street": {"id": 1712214, "name": "On or near Ryecroft Glen Road"}, "longitude": "-1.520982"}, "context": "", "outcome_status": null, "persistent_id": "", "id": 128961932, "location_subtype": "", "month": "2025-06"}, {"category": "anti-social-behaviour", "location_type": "Force", "location": {"latitude": "53.406961", "street": {"id": 1713464, "name": "On or near Broughton Road"}, "longitude": "-1.498587"}, "context": "", "outcome_status": null, "persistent_id": "", "id": 128961936, "location_subtype": "", "month": "2025-06"}, {"category": "anti-social-behaviour", "location_type": "Force", "location": {"latitude": "53.341609", "street": {"id": 1717974, "name": "On or near Bowman Close"}, "longitude": "-1.433359"}, "context": "", "outcome_status": null, "persistent_id": "", "id": 128962051, "location_subtype": "", "month": "2025-06"}, {"category": "anti-social-behaviour", "location_type": "Force", "location": {"latitude": "53.367603", "street": {"id": 1714581, "name": "On or near Croydon Street"}, "longitude": "-1.482533"}, "context": "", "outcome_status": null, "persistent_id": "", "id": 128963609, "location_subtype": "", "month": "2025-06"}, {"category": "anti-social-behaviour", "location_type": "Force", "location": {"latitude": "53.379020", "street": {"id": 1714719, "name": "On or near Cavendish Street"}, "longitude": "-1.480846"}, "context": "", "outcome_status": null, "persistent_id": "", "id": 128963617, "location_subtype": "", "month": "2025-06"}, {"category": "anti-social-behaviour", "location_type": "Force", "location": {"latitude": "53.308821", "street": {"id": 2220304, "name": "On or near Ravencar Road"}, "longitude": "-1.372831"}, "context": "", "outcome_status": null, "persistent_id": "", "id": 129073875, "location_subtype": "", "month": "2025-06"}, {"category": "anti-social-behaviour", "location_type": "Force", "location": {"latitude": "53.351261", "street": {"id": 1719213, "name": "On or near Longstone Crescent"}, "longitude": "-1.407001"}, "context": "", "outcome_status": null, "persistent_id": "", "id": 128963684, "location_subtype": "", "month": "2025-06"}, {"category": "anti-social-behaviour", "location_type": "Force", "location": {"latitude": "53.355315", "street": {"id": 1714424, "name": "On or near Arnside Road"}, "longitude": "-1.484590"}, "context": "", "outcome_status": null, "persistent_id": "", "id": 128963605, "location_subtype": "", "month": "2025-06"}, {"category": "anti-social-behaviour", "location_type": "Force", "location": {"latitude": "53.426381", "street": {"id": 1721629, "name": "On or near Lilian Street South"}, "longitude": "-1.348528"}, "context": "", "outcome_status": null, "persistent_id": "", "id": 128965489, "location_subtype": "", "month": "2025-06"}, {"category": "anti-social-behaviour", "location_type": "Force", "location": {"latitude": "53.428804", "street": {"id": 1715637, "name": "On or near Holgate Road"}, "longitude": "-1.469525"}, "context": "", "outcome_status": null, "persistent_id": "", "id": 128967255, "location_subtype": "", "month": "2025-06"}, {"category": "anti-social-behaviour", "location_type": "Force", "location": {"latitude": "53.353178", "street": {"id": 1717082, "name": "On or near Bankwood Close"}, "longitude": "-1.450783"}, "context": "", "outcome_status": null, "persistent_id": "", "id": 128967297, "location_subtype": "", "month": "2025-06"}, {"category": "anti-social-behaviour", "location_type": "Force", "location": {"latitude": "53.339564", "street": {"id": 1717125, "name": "On or near Blackstock Drive"}, "longitude": "-1.449621"}, "context": "", "outcome_status": null, "persistent_id": "", "id": 128967302, "location_subtype": "", "month": "2025-06"}, {"category": "anti-social-behaviour", "location_type": "Force", "location": {"latitude": "53.382742", "street": {"id": 1717534, "name": "On or near Wybourn Hall Drive"}, "longitude": "-1.442946"}, "context": "", "outcome_status": null, "persistent_id": "", "id": 128967316, "location_subtype": "", "month": "2025-06"}, {"category": "anti-social-behaviour", "location_type": "Force", "location": {"latitude": "53.422097", "street": {"id": 1717556, "name": "On or near Sports/recreation Area"}, "longitude": "-1.441369"}, "context": "", "outcome_status": null, "persistent_id": "", "id": 128967324, "location_subtype": "", "month": "2025-06"}, {"category": "anti-social-behaviour", "location_type": "Force", "location": {"latitude": "53.413040", "street": {"id": 1718417, "name": "On or near Sports/recreation Area"}, "longitude": "-1.423413"}, "context": "", "outcome_status": null, "persistent_id": "", "id": 128967328, "location_subtype": "", "month": "2025-06"}, {"category": "anti-social-behaviour", "location_type": "Force", "location": {"latitude": "53.347861", "street": {"id": 1719337, "name": "On or near Churchdale Mews"}, "longitude": "-1.403052"}, "context": "", "outcome_status": null, "persistent_id": "", "id": 128967335, "location_subtype": "", "month": "2025-06"}, {"category": "anti-social-behaviour", "location_type": "Force", "location": {"latitude": "53.447602", "street": {"id": 1719394, "name": "On or near Ashworth Drive"}, "longitude": "-1.399954"}, "context": "", "outcome_status": null, "persistent_id": "", "id": 128967340, "location_subtype": "", "month": "2025-06"}, {"category": "anti-social-behaviour", "location_type": "Force", "location": {"latitude": "53.369790", "street": {"id": 1717564, "name": "On or near St Aidan's Rise"}, "longitude": "-1.443160"}, "context": "", "outcome_status": null, "persistent_id": "", "id": 128967308, "location_subtype": "", "month": "2025-06"}, {"category": "anti-social-behaviour", "location_type": "Force", "location": {"latitude": "53.350975", "street": {"id": 1717459, "name": "On or near Spotswood Close"}, "longitude": "-1.444847"}, "context": "", "outcome_status": null, "persistent_id": "", "id": 128967312, "location_subtype": "", "month": "2025-06"}, {"category": "anti-social-behaviour", "location_type": "Force", "location": {"latitude": "53.404415", "street": {"id": 1720797, "name": "On or near Parking Area"}, "longitude": "-1.367515"}, "context": "", "outcome_status": null, "persistent_id": "", "id": 128967366, "location_subtype": "", "month": "2025-06"}, {"category": "anti-social-behaviour", "location_type": "Force", "location": {"latitude": "53.379832", "street": {"id": 1715247, "name": "On or near Rockingham Street"}, "longitude": "-1.475319"}, "context": "", "outcome_status": null, "persistent_id": "", "id": 128969181, "location_subtype": "", "month": "2025-06"}, {"category": "anti-social-behaviour", "location_type": "Force", "location": {"latitude": "53.339451", "street": {"id": 1715331, "name": "On or near Bole Hill"}, "longitude": "-1.472466"}, "context": "", "outcome_status": null, "persistent_id": "", "id": 128969184, "location_subtype": "", "month": "2025-06"}, {"category": "anti-social-behaviour", "location_type": "Force", "location": {"latitude": "53.377279", "street": {"id": 1716573, "name": "On or near Claywood Drive"}, "longitude": "-1.459101"}, "context": "", "outcome_status": null, "persistent_id": "", "id": 128988540, "location_subtype": "", "month": "2025-06"}, {"category": "anti-social-behaviour", "location_type": "Force", "location": {"latitude": "53.381809", "street": {"id": 1715708, "name": "On or near Shopping Area"}, "longitude": "-1.468581"}, "context": "", "outcome_status": null, "persistent_id": "", "id": 128969188, "location_subtype": "", "month": "2025-06"}, {"category": "anti-social-behaviour", "location_type": "Force", "location": {"latitude": "53.327724", "street": {"id": 1715868, "name": "On or near Shopping Area"}, "longitude": "-1.467567"}, "context": "", "outcome_status": null, "persistent_id": "", "id": 128969193, "location_subtype": "", "month": "2025-06"}, {"category": "anti-social-behaviour", "location_type": "Force", "location": {"latitude": "53.353337", "street": {"id": 1716134, "name": "On or near Carfield Place"}, "longitude": "-1.464046"}, "context": "", "outcome_status": null, "persistent_id": "", "id": 128969194, "location_subtype": "", "month": "2025-06"}, {"category": "anti-social-behaviour", "location_type": "Force", "location": {"latitude": "53.359623", "street": {"id": 1716223, "name": "On or near Farish Place"}, "longitude": "-1.464554"}, "context": "", "outcome_status": null, "persistent_id": "", "id": 128969198, "location_subtype": "", "month": "2025-06"}, {"category": "anti-social-behaviour", "location_type": "Force", "location": {"latitude": "53.349124", "street": {"id": 1716124, "name": "On or near Thorpe House Avenue"}, "longitude": "-1.464685"}, "context": "", "outcome_status": null, "persistent_id": "", "id": 128969202, "location_subtype": "", "month": "2025-06"}, {"category": "anti-social-behaviour", "location_type": "Force", "location": {"latitude": "53.421586", "street": {"id": 1712244, "name": "On or near Forest Close"}, "longitude": "-1.520550"}, "context": "", "outcome_status": null, "persistent_id": "", "id": 128970836, "location_subtype": "", "month": "2025-06"}, {"category": "anti-social-behaviour", "location_type": "Force", "location": {"latitude": "53.414289", "street": {"id": 1719486, "name": "On or near Lifford Street"}, "longitude": "-1.397925"}, "context": "", "outcome_status": null, "persistent_id": "", "id": 128970990, "location_subtype": "", "month": "2025-06"}, {"category": "anti-social-behaviour", "location_type": "Force", "location": {"latitude": "53.380967", "street": {"id": 1714044, "name": "On or near Western Bank"}, "longitude": "-1.490339"}, "context": "", "outcome_status": null, "persistent_id": "", "id": 128972825, "location_subtype": "", "month": "2025-06"}, {"category": "anti-social-behaviour", "location_type": "Force", "location": {"latitude": "53.369630", "street": {"id": 1714006, "name": "On or near Stalker Lees Road"}, "longitude": "-1.489828"}, "context": "", "outcome_status": null, "persistent_id": "", "id": 128972829, "location_subtype": "", "month": "2025-06"}, {"category": "anti-social-behaviour", "location_type": "Force", "location": {"latitude": "53.394665", "street": {"id": 1714151, "name": "On or near Wood Street"}, "longitude": "-1.488175"}, "context": "", "outcome_status": null, "persistent_id": "", "id": 128972834, "location_subtype": "", "month": "2025-06"}, {"category": "anti-social-behaviour", "location_type": "Force", "location": {"latitude": "53.353735", "street": {"id": 1714420, "name": "On or near Windermere Road"}, "longitude": "-1.484924"}, "context": "", "outcome_status": null, "persistent_id": "", "id": 128972838, "location_subtype": "", "month": "2025-06"}, {"category": "anti-social-behaviour", "location_type": "Force", "location": {"latitude": "53.411469", "street": {"id": 1715013, "name": "On or near Herries Road"}, "longitude": "-1.476630"}, "context": "", "outcome_status": null, "persistent_id": "", "id": 128972850, "location_subtype": "", "month": "2025-06"}, {"category": "anti-social-behaviour", "location_type": "Force", "location": {"latitude": "53.408708", "street": {"id": 1715364, "name": "On or near Musgrave Place"}, "longitude": "-1.474227"}, "context": "", "outcome_status": null, "persistent_id": "", "id": 128972854, "location_subtype": "", "month": "2025-06"}, {"category": "anti-social-behaviour", "location_type": "Force", "location": {"latitude": "53.401815", "street": {"id": 1713260, "name": "On or near River Terrace"}, "longitude": "-1.501761"}, "context": "", "outcome_status": null, "persistent_id": "", "id": 128977101, "location_subtype": "", "month": "2025-06"}, {"category": "anti-social-behaviour", "location_type": "Force", "location": {"latitude": "53.393722", "street": {"id": 1713196, "name": "On or near Supermarket"}, "longitude": "-1.501886"}, "context": "", "outcome_status": null, "persistent_id": "", "id": 128977104, "location_subtype": "", "month": "2025-06"}, {"category": "anti-social-behaviour", "location_type": "Force", "location": {"latitude": "53.429578", "street": {"id": 1720191, "name": "On or near Hartington Road"}, "longitude": "-1.380176"}, "context": "", "outcome_status": null, "persistent_id": "", "id": 128979207, "location_subtype": "", "month": "2025-06"}, {"category": "anti-social-behaviour", "location_type": "Force", "location": {"latitude": "53.346896", "street": {"id": 1720339, "name": "On or near Four Wells Drive"}, "longitude": "-1.377665"}, "context": "", "outcome_status": null, "persistent_id": "", "id": 128979210, "location_subtype": "", "month": "2025-06"}, {"category": "anti-social-behaviour", "location_type": "Force", "location": {"latitude": "53.373670", "street": {"id": 1715872, "name": "On or near St Mary's Road"}, "longitude": "-1.468105"}, "context": "", "outcome_status": null, "persistent_id": "", "id": 128980436, "location_subtype": "", "month": "2025-06"}, {"category": "anti-social-behaviour", "location_type": "Force", "location": {"latitude": "53.374345", "street": {"id": 1713643, "name": "On or near Broomgrove Lane"}, "longitude": "-1.495273"}, "context": "", "outcome_status": null, "persistent_id": "", "id": 128981456, "location_subtype": "", "month": "2025-06"}, {"category": "anti-social-behaviour", "location_type": "Force", "location": {"latitude": "53.358861", "street": {"id": 1713747, "name": "On or near Union Road"}, "longitude": "-1.494058"}, "context": "", "outcome_status": null, "persistent_id": "", "id": 128981460, "location_subtype": "", "month": "2025-06"}, {"category": "anti-social-behaviour", "location_type": "Force", "location": {"latitude": "53.380967", "street": {"id": 1714044, "name": "On or near Western Bank"}, "longitude": "-1.490339"}, "context": "", "outcome_status": null, "persistent_id": "", "id": 128981462, "location_subtype": "", "month": "2025-06"}, {"category": "anti-social-behaviour", "location_type": "Force", "location": {"latitude": "53.354730", "street": {"id": 1714030, "name": "On or near Edgedale Road"}, "longitude": "-1.488428"}, "context": "", "outcome_status": null, "persistent_id": "", "id": 128981464, "location_subtype": "", "month": "2025-06"}, {"category": "anti-social-behaviour", "location_type": "Force", "location": {"latitude": "53.359606", "street": {"id": 1717755, "name": "On or near Supermarket"}, "longitude": "-1.437493"}, "context": "", "outcome_status": null, "persistent_id": "", "id": 128981543, "location_subtype": "", "month": "2025-06"}, {"category": "anti-social-behaviour", "location_type": "Force", "location": {"latitude": "53.471691", "street": {"id": 1710995, "name": "On or near Royd Lane"}, "longitude": "-1.581211"}, "context": "", "outcome_status": null, "persistent_id": "", "id": 128981435, "location_subtype": "", "month": "2025-06"}, {"category": "anti-social-behaviour", "location_type": "Force", "location": {"latitude": "53.408120", "street": {"id": 1716566, "name": "On or near Smilter Lane"}, "longitude": "-1.457356"}, "context": "", "outcome_status": null, "persistent_id": "", "id": 128982508, "location_subtype": "", "month": "2025-06"}, {"category": "anti-social-behaviour", "location_type": "Force", "location": {"latitude": "53.314045", "street": {"id": 1711552, "name": "On or near Baslow Road"}, "longitude": "-1.541268"}, "context": "", "outcome_status": null, "persistent_id": "", "id": 128983408, "location_subtype": "", "month": "2025-06"}, {"category": "anti-social-behaviour", "location_type": "Force", "location": {"latitude": "53.357498", "street": {"id": 1718105, "name": "On or near Hurlfield Drive"}, "longitude": "-1.430759"}, "context": "", "outcome_status": null, "persistent_id": "", "id": 128983483, "location_subtype": "", "month": "2025-06"}, {"category": "anti-social-behaviour", "location_type": "Force", "location": {"latitude": "53.381842", "street": {"id": 1712323, "name": "On or near Marsh Lane"}, "longitude": "-1.519358"}, "context": "", "outcome_status": null, "persistent_id": "", "id": 128983415, "location_subtype": "", "month": "2025-06"}, {"category": "anti-social-behaviour", "location_type": "Force", "location": {"latitude": "53.432706", "street": {"id": 1719752, "name": "On or near Ewers Road"}, "longitude": "-1.390666"}, "context": "", "outcome_status": null, "persistent_id": "", "id": 128983491, "location_subtype": "", "month": "2025-06"}, {"category": "anti-social-behaviour", "location_type": "Force", "location": {"latitude": "53.435087", "street": {"id": 1721425, "name": "On or near Kenneth Street"}, "longitude": "-1.352911"}, "context": "", "outcome_status": null, "persistent_id": "", "id": 128987503, "location_subtype": "", "month": "2025-06"}, {"category": "anti-social-behaviour", "location_type": "Force", "location": {"latitude": "53.382062", "street": {"id": 1720907, "name": "On or near Jacob Way"}, "longitude": "-1.364524"}, "context": "", "outcome_status": null, "persistent_id": "", "id": 128987501, "location_subtype": "", "month": "2025-06"}, {"category": "anti-social-behaviour", "location_type": "Force", "location": {"latitude": "53.431195", "street": {"id": 1721189, "name": "On or near Corporation Street"}, "longitude": "-1.357892"}, "context": "", "outcome_status": null, "persistent_id": "", "id": 128987499, "location_subtype": "", "month": "2025-06"}, {"category": "anti-social-behaviour", "location_type": "Force", "location": {"latitude": "53.394829", "street": {"id": 1716886, "name": "On or near Maxwell Street"}, "longitude": "-1.454157"}, "context": "", "outcome_status": null, "persistent_id": "", "id": 128984500, "location_subtype": "", "month": "2025-06"}, {"category": "anti-social-behaviour", "location_type": "Force", "location": {"latitude": "53.339645", "street": {"id": 1722407, "name": "On or near Meadow Gate Avenue"}, "longitude": "-1.330086"}, "context": "", "outcome_status": null, "persistent_id": "", "id": 128980502, "location_subtype": "", "month": "2025-06"}, {"category": "anti-social-behaviour", "location_type": "Force", "location": {"latitude": "53.404112", "street": {"id": 1720843, "name": "On or near Field View Court"}, "longitude": "-1.366211"}, "context": "", "outcome_status": null, "persistent_id": "", "id": 128987497, "location_subtype": "", "month": "2025-06"}, {"category": "anti-social-behaviour", "location_type": "Force", "location": {"latitude": "53.405142", "street": {"id": 1720315, "name": "On or near Ellen Tree Close"}, "longitude": "-1.375838"}, "context": "", "outcome_status": null, "persistent_id": "", "id": 128987496, "location_subtype": "", "month": "2025-06"}, {"category": "anti-social-behaviour", "location_type": "Force", "location": {"latitude": "53.430867", "street": {"id": 1720039, "name": "On or near Clara Place"}, "longitude": "-1.384356"}, "context": "", "outcome_status": null, "persistent_id": "", "id": 128987494, "location_subtype": "", "month": "2025-06"}, {"category": "anti-social-behaviour", "location_type": "Force", "location": {"latitude": "53.375867", "street": {"id": 1719657, "name": "On or near Handsworth Road"}, "longitude": "-1.393522"}, "context": "", "outcome_status": null, "persistent_id": "", "id": 128987492, "location_subtype": "", "month": "2025-06"}, {"category": "anti-social-behaviour", "location_type": "Force", "location": {"latitude": "53.443667", "street": {"id": 1719419, "name": "On or near Sports/recreation Area"}, "longitude": "-1.400198"}, "context": "", "outcome_status": null, "persistent_id": "", "id": 128987490, "location_subtype": "", "month": "2025-06"}, {"category": "anti-social-behaviour", "location_type": "Force", "location": {"latitude": "53.378690", "street": {"id": 1718721, "name": "On or near Goore Drive"}, "longitude": "-1.417098"}, "context": "", "outcome_status": null, "persistent_id": "", "id": 128987486, "location_subtype": "", "month": "2025-06"}, {"category": "anti-social-behaviour", "location_type": "Force", "location": {"latitude": "53.428791", "street": {"id": 1718751, "name": "On or near Blackburn Lane"}, "longitude": "-1.416608"}, "context": "", "outcome_status": null, "persistent_id": "", "id": 128987484, "location_subtype": "", "month": "2025-06"}, {"category": "anti-social-behaviour", "location_type": "Force", "location": {"latitude": "53.360441", "street": {"id": 1718288, "name": "On or near Pit Lane"}, "longitude": "-1.425957"}, "context": "", "outcome_status": null, "persistent_id": "", "id": 128987482, "location_subtype": "", "month": "2025-06"}, {"category": "anti-social-behaviour", "location_type": "Force", "location": {"latitude": "53.310171", "street": {"id": 2221047, "name": "On or near Parking Area"}, "longitude": "-1.356256"}, "context": "", "outcome_status": null, "persistent_id": "", "id": 129073561, "location_subtype": "", "month": "2025-06"}, {"category": "anti-social-behaviour", "location_type": "Force", "location": {"latitude": "53.374372", "street": {"id": 1718088, "name": "On or near Manor Park Place"}, "longitude": "-1.431211"}, "context": "", "outcome_status": null, "persistent_id": "", "id": 128987480, "location_subtype": "", "month": "2025-06"}, {"category": "anti-social-behaviour", "location_type": "Force", "location": {"latitude": "53.403441", "street": {"id": 1716847, "name": "On or near Osgathorpe Road"}, "longitude": "-1.454393"}, "context": "", "outcome_status": null, "persistent_id": "", "id": 128987474, "location_subtype": "", "month": "2025-06"}, {"category": "anti-social-behaviour", "location_type": "Force", "location": {"latitude": "53.472304", "street": {"id": 1714107, "name": "On or near Greno View Road"}, "longitude": "-1.489200"}, "context": "", "outcome_status": null, "persistent_id": "", "id": 128984444, "location_subtype": "", "month": "2025-06"}, {"category": "anti-social-behaviour", "location_type": "Force", "location": {"latitude": "53.430904", "street": {"id": 1716811, "name": "On or near Hartley Brook Avenue"}, "longitude": "-1.452927"}, "context": "", "outcome_status": null, "persistent_id": "", "id": 128984502, "location_subtype": "", "month": "2025-06"}, {"category": "anti-social-behaviour", "location_type": "Force", "location": {"latitude": "53.466921", "street": {"id": 1716228, "name": "On or near Coppice Rise"}, "longitude": "-1.462738"}, "context": "", "outcome_status": null, "persistent_id": "", "id": 128987472, "location_subtype": "", "month": "2025-06"}, {"category": "anti-social-behaviour", "location_type": "Force", "location": {"latitude": "53.382133", "street": {"id": 1715928, "name": "On or near George Street"}, "longitude": "-1.467068"}, "context": "", "outcome_status": null, "persistent_id": "", "id": 128987470, "location_subtype": "", "month": "2025-06"}, {"category": "anti-social-behaviour", "location_type": "Force", "location": {"latitude": "53.418719", "street": {"id": 1713967, "name": "On or near Halliwell Close"}, "longitude": "-1.490204"}, "context": "", "outcome_status": null, "persistent_id": "", "id": 128984446, "location_subtype": "", "month": "2025-06"}, {"category": "anti-social-behaviour", "location_type": "Force", "location": {"latitude": "53.380414", "street": {"id": 1716005, "name": "On or near Theatre/concert Hall"}, "longitude": "-1.466623"}, "context": "", "outcome_status": null, "persistent_id": "", "id": 128987468, "location_subtype": "", "month": "2025-06"}, {"category": "anti-social-behaviour", "location_type": "Force", "location": {"latitude": "53.381809", "street": {"id": 1715708, "name": "On or near Shopping Area"}, "longitude": "-1.468581"}, "context": "", "outcome_status": null, "persistent_id": "", "id": 128987464, "location_subtype": "", "month": "2025-06"}, {"category": "anti-social-behaviour", "location_type": "Force", "location": {"latitude": "53.382697", "street": {"id": 1715851, "name": "On or near East Parade"}, "longitude": "-1.468624"}, "context": "", "outcome_status": null, "persistent_id": "", "id": 128985574, "location_subtype": "", "month": "2025-06"}, {"category": "anti-social-behaviour", "location_type": "Force", "location": {"latitude": "53.401881", "street": {"id": 1720855, "name": "On or near Whitehill Road"}, "longitude": "-1.365974"}, "context": "", "outcome_status": null, "persistent_id": "", "id": 128985641, "location_subtype": "", "month": "2025-06"}, {"category": "anti-social-behaviour", "location_type": "Force", "location": {"latitude": "53.325821", "street": {"id": 1714136, "name": "On or near Reney Road"}, "longitude": "-1.488203"}, "context": "", "outcome_status": null, "persistent_id": "", "id": 128984450, "location_subtype": "", "month": "2025-06"}, {"category": "anti-social-behaviour", "location_type": "Force", "location": {"latitude": "53.432418", "street": {"id": 1714298, "name": "On or near B6087"}, "longitude": "-1.486081"}, "context": "", "outcome_status": null, "persistent_id": "", "id": 128984452, "location_subtype": "", "month": "2025-06"}, {"category": "anti-social-behaviour", "location_type": "Force", "location": {"latitude": "53.426137", "street": {"id": 1714485, "name": "On or near Buchanan Drive"}, "longitude": "-1.482485"}, "context": "", "outcome_status": null, "persistent_id": "", "id": 128984456, "location_subtype": "", "month": "2025-06"}, {"category": "anti-social-behaviour", "location_type": "Force", "location": {"latitude": "53.387300", "street": {"id": 1715471, "name": "On or near Shalesmoor"}, "longitude": "-1.472852"}, "context": "", "outcome_status": null, "persistent_id": "", "id": 128987461, "location_subtype": "", "month": "2025-06"}, {"category": "anti-social-behaviour", "location_type": "Force", "location": {"latitude": "53.392934", "street": {"id": 1721041, "name": "On or near Tristford Close"}, "longitude": "-1.362001"}, "context": "", "outcome_status": null, "persistent_id": "", "id": 128986568, "location_subtype": "", "month": "2025-06"}, {"category": "anti-social-behaviour", "location_type": "Force", "location": {"latitude": "53.429317", "street": {"id": 1714452, "name": "On or near Petrol Station"}, "longitude": "-1.484147"}, "context": "", "outcome_status": null, "persistent_id": "", "id": 128986480, "location_subtype": "", "month": "2025-06"}, {"category": "anti-social-behaviour", "location_type": "Force", "location": {"latitude": "53.424776", "street": {"id": 1714491, "name": "On or near Lytton Road"}, "longitude": "-1.483660"}, "context": "", "outcome_status": null, "persistent_id": "", "id": 128986482, "location_subtype": "", "month": "2025-06"}, {"category": "anti-social-behaviour", "location_type": "Force", "location": {"latitude": "53.408735", "street": {"id": 1713515, "name": "On or near Dutton Road"}, "longitude": "-1.495016"}, "context": "", "outcome_status": null, "persistent_id": "", "id": 128987451, "location_subtype": "", "month": "2025-06"}, {"category": "anti-social-behaviour", "location_type": "Force", "location": {"latitude": "53.413040", "street": {"id": 1718417, "name": "On or near Sports/recreation Area"}, "longitude": "-1.423413"}, "context": "", "outcome_status": null, "persistent_id": "", "id": 128988559, "location_subtype": "", "month": "2025-06"}, {"category": "anti-social-behaviour", "location_type": "Force", "location": {"latitude": "53.324234", "street": {"id": 1714346, "name": "On or near Gervase Avenue"}, "longitude": "-1.484949"}, "context": "", "outcome_status": null, "persistent_id": "", "id": 128984464, "location_subtype": "", "month": "2025-06"}, {"category": "anti-social-behaviour", "location_type": "Force", "location": {"latitude": "53.380414", "street": {"id": 1716005, "name": "On or near Theatre/concert Hall"}, "longitude": "-1.466623"}, "context": "", "outcome_status": null, "persistent_id": "", "id": 128988531, "location_subtype": "", "month": "2025-06"}, {"category": "anti-social-behaviour", "location_type": "Force", "location": {"latitude": "53.356845", "street": {"id": 1716336, "name": "On or near Northcote Avenue"}, "longitude": "-1.462440"}, "context": "", "outcome_status": null, "persistent_id": "", "id": 128988533, "location_subtype": "", "month": "2025-06"}, {"category": "anti-social-behaviour", "location_type": "Force", "location": {"latitude": "53.373392", "street": {"id": 1713676, "name": "On or near Clarkegrove Road"}, "longitude": "-1.495194"}, "context": "", "outcome_status": null, "persistent_id": "", "id": 128987448, "location_subtype": "", "month": "2025-06"}, {"category": "anti-social-behaviour", "location_type": "Force", "location": {"latitude": "53.438950", "street": {"id": 1713445, "name": "On or near Blacksmith Lane"}, "longitude": "-1.498196"}, "context": "", "outcome_status": null, "persistent_id": "", "id": 128987443, "location_subtype": "", "month": "2025-06"}, {"category": "anti-social-behaviour", "location_type": "Force", "location": {"latitude": "53.414765", "street": {"id": 1712272, "name": "On or near Dykewood Drive"}, "longitude": "-1.520898"}, "context": "", "outcome_status": null, "persistent_id": "", "id": 128987439, "location_subtype": "", "month": "2025-06"}, {"category": "anti-social-behaviour", "location_type": "Force", "location": {"latitude": "53.466921", "street": {"id": 1716228, "name": "On or near Coppice Rise"}, "longitude": "-1.462738"}, "context": "", "outcome_status": null, "persistent_id": "", "id": 128988536, "location_subtype": "", "month": "2025-06"}, {"category": "anti-social-behaviour", "location_type": "Force", "location": {"latitude": "53.452086", "street": {"id": 1711268, "name": "On or near Parking Area"}, "longitude": "-1.555880"}, "context": "", "outcome_status": null, "persistent_id": "", "id": 128987438, "location_subtype": "", "month": "2025-06"}, {"category": "anti-social-behaviour", "location_type": "Force", "location": {"latitude": "53.366909", "street": {"id": 1716709, "name": "On or near Park Spring Close"}, "longitude": "-1.457790"}, "context": "", "outcome_status": null, "persistent_id": "", "id": 128988542, "location_subtype": "", "month": "2025-06"}, {"category": "anti-social-behaviour", "location_type": "Force", "location": {"latitude": "53.421407", "street": {"id": 1716950, "name": "On or near Bowfield Road"}, "longitude": "-1.453741"}, "context": "", "outcome_status": null, "persistent_id": "", "id": 128988544, "location_subtype": "", "month": "2025-06"}, {"category": "anti-social-behaviour", "location_type": "Force", "location": {"latitude": "53.372708", "street": {"id": 1711232, "name": "On or near Lodge Lane"}, "longitude": "-1.563499"}, "context": "", "outcome_status": null, "persistent_id": "", "id": 128989576, "location_subtype": "", "month": "2025-06"}, {"category": "anti-social-behaviour", "location_type": "Force", "location": {"latitude": "53.343395", "street": {"id": 1720966, "name": "On or near Police Station"}, "longitude": "-1.363251"}, "context": "", "outcome_status": null, "persistent_id": "", "id": 128989675, "location_subtype": "", "month": "2025-06"}, {"category": "anti-social-behaviour", "location_type": "Force", "location": {"latitude": "53.402644", "street": {"id": 1713181, "name": "On or near Hillsborough Road"}, "longitude": "-1.502338"}, "context": "", "outcome_status": null, "persistent_id": "", "id": 128990624, "location_subtype": "", "month": "2025-06"}, {"category": "anti-social-behaviour", "location_type": "Force", "location": {"latitude": "53.363436", "street": {"id": 1719428, "name": "On or near Stradbroke Close"}, "longitude": "-1.398838"}, "context": "", "outcome_status": null, "persistent_id": "", "id": 128991619, "location_subtype": "", "month": "2025-06"}, {"category": "anti-social-behaviour", "location_type": "Force", "location": {"latitude": "53.343983", "street": {"id": 1717403, "name": "On or near Ironside Road"}, "longitude": "-1.444983"}, "context": "", "outcome_status": null, "persistent_id": "", "id": 128984508, "location_subtype": "", "month": "2025-06"}, {"category": "anti-social-behaviour", "location_type": "Force", "location": {"latitude": "53.374256", "street": {"id": 1714926, "name": "On or near A61"}, "longitude": "-1.478815"}, "context": "", "outcome_status": null, "persistent_id": "", "id": 128984471, "location_subtype": "", "month": "2025-06"}, {"category": "anti-social-behaviour", "location_type": "Force", "location": {"latitude": "53.418299", "street": {"id": 1715600, "name": "On or near Crowder Crescent"}, "longitude": "-1.470257"}, "context": "", "outcome_status": null, "persistent_id": "", "id": 128992594, "location_subtype": "", "month": "2025-06"}, {"category": "anti-social-behaviour", "location_type": "Force", "location": {"latitude": "53.451113", "street": {"id": 1721811, "name": "On or near Broad Street"}, "longitude": "-1.344355"}, "context": "", "outcome_status": null, "persistent_id": "", "id": 128992661, "location_subtype": "", "month": "2025-06"}, {"category": "anti-social-behaviour", "location_type": "Force", "location": {"latitude": "53.379732", "street": {"id": 1715423, "name": "On or near Backfields"}, "longitude": "-1.473021"}, "context": "", "outcome_status": null, "persistent_id": "", "id": 128980429, "location_subtype": "", "month": "2025-06"}, {"category": "anti-social-behaviour", "location_type": "Force", "location": {"latitude": "53.424593", "street": {"id": 1714973, "name": "On or near Buchanan Road"}, "longitude": "-1.476725"}, "context": "", "outcome_status": null, "persistent_id": "", "id": 128984474, "location_subtype": "", "month": "2025-06"}, {"category": "anti-social-behaviour", "location_type": "Force", "location": {"latitude": "53.325585", "street": {"id": 2221992, "name": "On or near Cutler Close"}, "longitude": "-1.326582"}, "context": "", "outcome_status": null, "persistent_id": "", "id": 129073519, "location_subtype": "", "month": "2025-06"}, {"category": "anti-social-behaviour", "location_type": "Force", "location": {"latitude": "53.381470", "street": {"id": 1714999, "name": "On or near Portobello Street"}, "longitude": "-1.477840"}, "context": "", "outcome_status": null, "persistent_id": "", "id": 128984476, "location_subtype": "", "month": "2025-06"}, {"category": "anti-social-behaviour", "location_type": "Force", "location": {"latitude": "53.384102", "street": {"id": 1715453, "name": "On or near White Croft"}, "longitude": "-1.473403"}, "context": "", "outcome_status": null, "persistent_id": "", "id": 128984478, "location_subtype": "", "month": "2025-06"}, {"category": "anti-social-behaviour", "location_type": "Force", "location": {"latitude": "53.381171", "street": {"id": 1715659, "name": "On or near Conference/exhibition Centre"}, "longitude": "-1.471064"}, "context": "", "outcome_status": null, "persistent_id": "", "id": 128984480, "location_subtype": "", "month": "2025-06"}, {"category": "anti-social-behaviour", "location_type": "Force", "location": {"latitude": "53.321078", "street": {"id": 1712143, "name": "On or near West View Close"}, "longitude": "-1.523704"}, "context": "", "outcome_status": null, "persistent_id": "", "id": 128979100, "location_subtype": "", "month": "2025-06"}, {"category": "anti-social-behaviour", "location_type": "Force", "location": {"latitude": "53.412164", "street": {"id": 1719576, "name": "On or near Harrowden Road"}, "longitude": "-1.395413"}, "context": "", "outcome_status": null, "persistent_id": "", "id": 128979203, "location_subtype": "", "month": "2025-06"}, {"category": "anti-social-behaviour", "location_type": "Force", "location": {"latitude": "53.308821", "street": {"id": 2220304, "name": "On or near Ravencar Road"}, "longitude": "-1.372831"}, "context": "", "outcome_status": null, "persistent_id": "", "id": 129073204, "location_subtype": "", "month": "2025-06"}, {"category": "anti-social-behaviour", "location_type": "Force", "location": {"latitude": "53.364299", "street": {"id": 1712931, "name": "On or near Marmion Road"}, "longitude": "-1.506722"}, "context": "", "outcome_status": null, "persistent_id": "", "id": 128981452, "location_subtype": "", "month": "2025-06"}, {"category": "anti-social-behaviour", "location_type": "Force", "location": {"latitude": "53.363197", "street": {"id": 1714578, "name": "On or near Crescent Road"}, "longitude": "-1.482181"}, "context": "", "outcome_status": null, "persistent_id": "", "id": 128981473, "location_subtype": "", "month": "2025-06"}, {"category": "anti-social-behaviour", "location_type": "Force", "location": {"latitude": "53.378230", "street": {"id": 1715670, "name": "On or near Union Street"}, "longitude": "-1.470679"}, "context": "", "outcome_status": null, "persistent_id": "", "id": 128984482, "location_subtype": "", "month": "2025-06"}, {"category": "anti-social-behaviour", "location_type": "Force", "location": {"latitude": "53.382820", "street": {"id": 1715683, "name": "On or near St James Row"}, "longitude": "-1.469961"}, "context": "", "outcome_status": null, "persistent_id": "", "id": 128984484, "location_subtype": "", "month": "2025-06"}, {"category": "anti-social-behaviour", "location_type": "Force", "location": {"latitude": "53.380571", "street": {"id": 1712668, "name": "On or near Lydgate Lane"}, "longitude": "-1.511781"}, "context": "", "outcome_status": null, "persistent_id": "", "id": 128984432, "location_subtype": "", "month": "2025-06"}, {"category": "anti-social-behaviour", "location_type": "Force", "location": {"latitude": "53.382052", "street": {"id": 1717613, "name": "On or near Cricket Inn Crescent"}, "longitude": "-1.441527"}, "context": "", "outcome_status": null, "persistent_id": "", "id": 128984512, "location_subtype": "", "month": "2025-06"}, {"category": "anti-social-behaviour", "location_type": "Force", "location": {"latitude": "53.398246", "street": {"id": 1717498, "name": "On or near Atlas Way"}, "longitude": "-1.442758"}, "context": "", "outcome_status": null, "persistent_id": "", "id": 128984514, "location_subtype": "", "month": "2025-06"}, {"category": "anti-social-behaviour", "location_type": "Force", "location": {"latitude": "53.361184", "street": {"id": 1717666, "name": "On or near Eastern Avenue"}, "longitude": "-1.440447"}, "context": "", "outcome_status": null, "persistent_id": "", "id": 128984516, "location_subtype": "", "month": "2025-06"}, {"category": "anti-social-behaviour", "location_type": "Force", "location": {"latitude": "53.370000", "street": {"id": 1714738, "name": "On or near Mount Street"}, "longitude": "-1.479859"}, "context": "", "outcome_status": null, "persistent_id": "", "id": 128994057, "location_subtype": "", "month": "2025-06"}, {"category": "anti-social-behaviour", "location_type": "Force", "location": {"latitude": "53.353111", "street": {"id": 1714763, "name": "On or near Millmount Road"}, "longitude": "-1.480049"}, "context": "", "outcome_status": null, "persistent_id": "", "id": 128994059, "location_subtype": "", "month": "2025-06"}, {"category": "anti-social-behaviour", "location_type": "Force", "location": {"latitude": "53.321221", "street": {"id": 1714707, "name": "On or near Lowedges Crescent"}, "longitude": "-1.478515"}, "context": "", "outcome_status": null, "persistent_id": "", "id": 128994060, "location_subtype": "", "month": "2025-06"}, {"category": "anti-social-behaviour", "location_type": "Force", "location": {"latitude": "53.365804", "street": {"id": 1714986, "name": "On or near Vincent Road"}, "longitude": "-1.478212"}, "context": "", "outcome_status": null, "persistent_id": "", "id": 128994061, "location_subtype": "", "month": "2025-06"}, {"category": "anti-social-behaviour", "location_type": "Force", "location": {"latitude": "53.376925", "street": {"id": 1715058, "name": "On or near Bowdon Street"}, "longitude": "-1.476543"}, "context": "", "outcome_status": null, "persistent_id": "", "id": 128994062, "location_subtype": "", "month": "2025-06"}, {"category": "anti-social-behaviour", "location_type": "Force", "location": {"latitude": "53.417303", "street": {"id": 1715006, "name": "On or near Southey Place"}, "longitude": "-1.476619"}, "context": "", "outcome_status": null, "persistent_id": "", "id": 128994063, "location_subtype": "", "month": "2025-06"}, {"category": "anti-social-behaviour", "location_type": "Force", "location": {"latitude": "53.380913", "street": {"id": 1715181, "name": "On or near West Street"}, "longitude": "-1.475847"}, "context": "", "outcome_status": null, "persistent_id": "", "id": 128994064, "location_subtype": "", "month": "2025-06"}, {"category": "anti-social-behaviour", "location_type": "Force", "location": {"latitude": "53.378406", "street": {"id": 1715329, "name": "On or near Parking Area"}, "longitude": "-1.473954"}, "context": "", "outcome_status": null, "persistent_id": "", "id": 128994065, "location_subtype": "", "month": "2025-06"}, {"category": "anti-social-behaviour", "location_type": "Force", "location": {"latitude": "53.371189", "street": {"id": 1715541, "name": "On or near Petrol Station"}, "longitude": "-1.472149"}, "context": "", "outcome_status": null, "persistent_id": "", "id": 128994067, "location_subtype": "", "month": "2025-06"}, {"category": "anti-social-behaviour", "location_type": "Force", "location": {"latitude": "53.353938", "street": {"id": 1715641, "name": "On or near Burnside Avenue"}, "longitude": "-1.469868"}, "context": "", "outcome_status": null, "persistent_id": "", "id": 128994068, "location_subtype": "", "month": "2025-06"}, {"category": "anti-social-behaviour", "location_type": "Force", "location": {"latitude": "53.359355", "street": {"id": 1716007, "name": "On or near Cambridge Road"}, "longitude": "-1.466931"}, "context": "", "outcome_status": null, "persistent_id": "", "id": 128994069, "location_subtype": "", "month": "2025-06"}, {"category": "anti-social-behaviour", "location_type": "Force", "location": {"latitude": "53.444049", "street": {"id": 1716175, "name": "On or near Park/open Space"}, "longitude": "-1.463767"}, "context": "", "outcome_status": null, "persistent_id": "", "id": 128994070, "location_subtype": "", "month": "2025-06"}, {"category": "anti-social-behaviour", "location_type": "Force", "location": {"latitude": "53.364578", "street": {"id": 1717643, "name": "On or near Spring Lane"}, "longitude": "-1.441665"}, "context": "", "outcome_status": null, "persistent_id": "", "id": 128994081, "location_subtype": "", "month": "2025-06"}, {"category": "anti-social-behaviour", "location_type": "Force", "location": {"latitude": "53.364578", "street": {"id": 1717643, "name": "On or near Spring Lane"}, "longitude": "-1.441665"}, "context": "", "outcome_status": null, "persistent_id": "", "id": 128994082, "location_subtype": "", "month": "2025-06"}, {"category": "anti-social-behaviour", "location_type": "Force", "location": {"latitude": "53.383806", "street": {"id": 1717512, "name": "On or near Shopping Area"}, "longitude": "-1.443835"}, "context": "", "outcome_status": null, "persistent_id": "", "id": 128994084, "location_subtype": "", "month": "2025-06"}, {"category": "anti-social-behaviour", "location_type": "Force", "location": {"latitude": "53.392656", "street": {"id": 1717961, "name": "On or near Nightclub"}, "longitude": "-1.434223"}, "context": "", "outcome_status": null, "persistent_id": "", "id": 128994086, "location_subtype": "", "month": "2025-06"}, {"category": "anti-social-behaviour", "location_type": "Force", "location": {"latitude": "53.377422", "street": {"id": 1718140, "name": "On or near Sports/recreation Area"}, "longitude": "-1.429393"}, "context": "", "outcome_status": null, "persistent_id": "", "id": 128994087, "location_subtype": "", "month": "2025-06"}, {"category": "anti-social-behaviour", "location_type": "Force", "location": {"latitude": "53.360441", "street": {"id": 1718288, "name": "On or near Pit Lane"}, "longitude": "-1.425957"}, "context": "", "outcome_status": null, "persistent_id": "", "id": 128994088, "location_subtype": "", "month": "2025-06"}, {"category": "anti-social-behaviour", "location_type": "Force", "location": {"latitude": "53.416398", "street": {"id": 1718479, "name": "On or near Julian Way"}, "longitude": "-1.420855"}, "context": "", "outcome_status": null, "persistent_id": "", "id": 128994089, "location_subtype": "", "month": "2025-06"}, {"category": "anti-social-behaviour", "location_type": "Force", "location": {"latitude": "53.411163", "street": {"id": 1720591, "name": "On or near Fernleigh Drive"}, "longitude": "-1.370379"}, "context": "", "outcome_status": null, "persistent_id": "", "id": 128994099, "location_subtype": "", "month": "2025-06"}, {"category": "anti-social-behaviour", "location_type": "Force", "location": {"latitude": "53.382689", "street": {"id": 1720683, "name": "On or near Highfield Lane"}, "longitude": "-1.369100"}, "context": "", "outcome_status": null, "persistent_id": "", "id": 128994100, "location_subtype": "", "month": "2025-06"}, {"category": "anti-social-behaviour", "location_type": "Force", "location": {"latitude": "53.472726", "street": {"id": 1721264, "name": "On or near Harding Avenue"}, "longitude": "-1.356843"}, "context": "", "outcome_status": null, "persistent_id": "", "id": 128994102, "location_subtype": "", "month": "2025-06"}, {"category": "anti-social-behaviour", "location_type": "Force", "location": {"latitude": "53.438803", "street": {"id": 1721326, "name": "On or near A633"}, "longitude": "-1.351936"}, "context": "", "outcome_status": null, "persistent_id": "", "id": 128994103, "location_subtype": "", "month": "2025-06"}, {"category": "anti-social-behaviour", "location_type": "Force", "location": {"latitude": "53.434226", "street": {"id": 1721565, "name": "On or near Parking Area"}, "longitude": "-1.349899"}, "context": "", "outcome_status": null, "persistent_id": "", "id": 128994104, "location_subtype": "", "month": "2025-06"}, {"category": "anti-social-behaviour", "location_type": "Force", "location": {"latitude": "53.427298", "street": {"id": 1721635, "name": "On or near Pinfold Lane"}, "longitude": "-1.348725"}, "context": "", "outcome_status": null, "persistent_id": "", "id": 128994105, "location_subtype": "", "month": "2025-06"}, {"category": "anti-social-behaviour", "location_type": "Force", "location": {"latitude": "53.377369", "street": {"id": 1716970, "name": "On or near B6070"}, "longitude": "-1.453343"}, "context": "", "outcome_status": null, "persistent_id": "", "id": 128980452, "location_subtype": "", "month": "2025-06"}, {"category": "anti-social-behaviour", "location_type": "Force", "location": {"latitude": "53.414701", "street": {"id": 1717457, "name": "On or near Firth Park Avenue"}, "longitude": "-1.443958"}, "context": "", "outcome_status": null, "persistent_id": "", "id": 128980455, "location_subtype": "", "month": "2025-06"}, {"category": "anti-social-behaviour", "location_type": "Force", "location": {"latitude": "53.431235", "street": {"id": 1717636, "name": "On or near Supermarket"}, "longitude": "-1.440852"}, "context": "", "outcome_status": null, "persistent_id": "", "id": 128980460, "location_subtype": "", "month": "2025-06"}, {"category": "anti-social-behaviour", "location_type": "Force", "location": {"latitude": "53.357507", "street": {"id": 1717692, "name": "On or near Berners Place"}, "longitude": "-1.440330"}, "context": "", "outcome_status": null, "persistent_id": "", "id": 128980461, "location_subtype": "", "month": "2025-06"}, {"category": "anti-social-behaviour", "location_type": "Force", "location": {"latitude": "53.367108", "street": {"id": 1717635, "name": "On or near St Aidan's Place"}, "longitude": "-1.440520"}, "context": "", "outcome_status": null, "persistent_id": "", "id": 128980463, "location_subtype": "", "month": "2025-06"}, {"category": "anti-social-behaviour", "location_type": "Force", "location": {"latitude": "53.365028", "street": {"id": 1717878, "name": "On or near Wulfric Close"}, "longitude": "-1.434085"}, "context": "", "outcome_status": null, "persistent_id": "", "id": 128980469, "location_subtype": "", "month": "2025-06"}, {"category": "anti-social-behaviour", "location_type": "Force", "location": {"latitude": "53.349401", "street": {"id": 1718622, "name": "On or near Elstree Drive"}, "longitude": "-1.418233"}, "context": "", "outcome_status": null, "persistent_id": "", "id": 128980473, "location_subtype": "", "month": "2025-06"}, {"category": "anti-social-behaviour", "location_type": "Force", "location": {"latitude": "53.355923", "street": {"id": 1719545, "name": "On or near Haxby Place"}, "longitude": "-1.395578"}, "context": "", "outcome_status": null, "persistent_id": "", "id": 128980479, "location_subtype": "", "month": "2025-06"}, {"category": "anti-social-behaviour", "location_type": "Force", "location": {"latitude": "53.474799", "street": {"id": 1720731, "name": "On or near Stubbin Road"}, "longitude": "-1.367991"}, "context": "", "outcome_status": null, "persistent_id": "", "id": 128980488, "location_subtype": "", "month": "2025-06"}, {"category": "anti-social-behaviour", "location_type": "Force", "location": {"latitude": "53.340011", "street": {"id": 1720794, "name": "On or near Lundwood Grove"}, "longitude": "-1.365765"}, "context": "", "outcome_status": null, "persistent_id": "", "id": 128980493, "location_subtype": "", "month": "2025-06"}, {"category": "anti-social-behaviour", "location_type": "Force", "location": {"latitude": "53.436565", "street": {"id": 1721739, "name": "On or near Petrol Station"}, "longitude": "-1.346852"}, "context": "", "outcome_status": null, "persistent_id": "", "id": 128980496, "location_subtype": "", "month": "2025-06"}, {"category": "anti-social-behaviour", "location_type": "Force", "location": {"latitude": "53.432123", "street": {"id": 1720689, "name": "On or near St John's Avenue"}, "longitude": "-1.370099"}, "context": "", "outcome_status": null, "persistent_id": "", "id": 128952793, "location_subtype": "", "month": "2025-06"}, {"category": "anti-social-behaviour", "location_type": "Force", "location": {"latitude": "53.425016", "street": {"id": 1721219, "name": "On or near The Maltings"}, "longitude": "-1.357052"}, "context": "", "outcome_status": null, "persistent_id": "", "id": 128952802, "location_subtype": "", "month": "2025-06"}, {"category": "anti-social-behaviour", "location_type": "Force", "location": {"latitude": "53.360473", "street": {"id": 1717721, "name": "On or near Errington Avenue"}, "longitude": "-1.440291"}, "context": "", "outcome_status": null, "persistent_id": "", "id": 128984518, "location_subtype": "", "month": "2025-06"}, {"category": "anti-social-behaviour", "location_type": "Force", "location": {"latitude": "53.363903", "street": {"id": 1717982, "name": "On or near A6135"}, "longitude": "-1.433664"}, "context": "", "outcome_status": null, "persistent_id": "", "id": 128984520, "location_subtype": "", "month": "2025-06"}, {"category": "anti-social-behaviour", "location_type": "Force", "location": {"latitude": "53.322805", "street": {"id": 1714638, "name": "On or near Toppham Way"}, "longitude": "-1.480958"}, "context": "", "outcome_status": null, "persistent_id": "", "id": 128981481, "location_subtype": "", "month": "2025-06"}, {"category": "anti-social-behaviour", "location_type": "Force", "location": {"latitude": "53.380410", "street": {"id": 1714786, "name": "On or near Charlotte Lane"}, "longitude": "-1.480093"}, "context": "", "outcome_status": null, "persistent_id": "", "id": 128981483, "location_subtype": "", "month": "2025-06"}, {"category": "anti-social-behaviour", "location_type": "Force", "location": {"latitude": "53.426713", "street": {"id": 1719420, "name": "On or near Thornton Terrace"}, "longitude": "-1.398111"}, "context": "", "outcome_status": null, "persistent_id": "", "id": 128954703, "location_subtype": "", "month": "2025-06"}, {"category": "anti-social-behaviour", "location_type": "Force", "location": {"latitude": "53.429949", "street": {"id": 1721167, "name": "On or near Domine Lane"}, "longitude": "-1.358392"}, "context": "", "outcome_status": null, "persistent_id": "", "id": 128954726, "location_subtype": "", "month": "2025-06"}, {"category": "anti-social-behaviour", "location_type": "Force", "location": {"latitude": "53.430929", "street": {"id": 1721272, "name": "On or near Vicarage Lane"}, "longitude": "-1.355277"}, "context": "", "outcome_status": null, "persistent_id": "", "id": 128954739, "location_subtype": "", "month": "2025-06"}, {"category": "anti-social-behaviour", "location_type": "Force", "location": {"latitude": "53.421596", "street": {"id": 1716826, "name": "On or near Etwall Way"}, "longitude": "-1.453844"}, "context": "", "outcome_status": null, "persistent_id": "", "id": 128977206, "location_subtype": "", "month": "2025-06"}, {"category": "anti-social-behaviour", "location_type": "Force", "location": {"latitude": "53.350975", "street": {"id": 1717459, "name": "On or near Spotswood Close"}, "longitude": "-1.444847"}, "context": "", "outcome_status": null, "persistent_id": "", "id": 128986529, "location_subtype": "", "month": "2025-06"}, {"category": "anti-social-behaviour", "location_type": "Force", "location": {"latitude": "53.361056", "street": {"id": 1719367, "name": "On or near Richmond Place"}, "longitude": "-1.401080"}, "context": "", "outcome_status": null, "persistent_id": "", "id": 128980477, "location_subtype": "", "month": "2025-06"}, {"category": "anti-social-behaviour", "location_type": "Force", "location": {"latitude": "53.417636", "street": {"id": 1717447, "name": "On or near Firth Park Crescent"}, "longitude": "-1.444988"}, "context": "", "outcome_status": null, "persistent_id": "", "id": 128986527, "location_subtype": "", "month": "2025-06"}, {"category": "anti-social-behaviour", "location_type": "Force", "location": {"latitude": "53.426925", "street": {"id": 1716597, "name": "On or near Parking Area"}, "longitude": "-1.457554"}, "context": "", "outcome_status": null, "persistent_id": "", "id": 128986521, "location_subtype": "", "month": "2025-06"}, {"category": "anti-social-behaviour", "location_type": "Force", "location": {"latitude": "53.406323", "street": {"id": 1716673, "name": "On or near Crabtree Close"}, "longitude": "-1.457500"}, "context": "", "outcome_status": null, "persistent_id": "", "id": 128986519, "location_subtype": "", "month": "2025-06"}, {"category": "anti-social-behaviour", "location_type": "Force", "location": {"latitude": "53.440458", "street": {"id": 1715621, "name": "On or near Reneville Close"}, "longitude": "-1.470614"}, "context": "", "outcome_status": null, "persistent_id": "", "id": 128981493, "location_subtype": "", "month": "2025-06"}, {"category": "anti-social-behaviour", "location_type": "Force", "location": {"latitude": "53.461416", "street": {"id": 1715720, "name": "On or near Nether Ley Court"}, "longitude": "-1.469947"}, "context": "", "outcome_status": null, "persistent_id": "", "id": 128981497, "location_subtype": "", "month": "2025-06"}, {"category": "anti-social-behaviour", "location_type": "Force", "location": {"latitude": "53.347663", "street": {"id": 1718660, "name": "On or near Supermarket"}, "longitude": "-1.417889"}, "context": "", "outcome_status": null, "persistent_id": "", "id": 128954690, "location_subtype": "", "month": "2025-06"}, {"category": "anti-social-behaviour", "location_type": "Force", "location": {"latitude": "53.382912", "street": {"id": 1716031, "name": "On or near High Street"}, "longitude": "-1.466381"}, "context": "", "outcome_status": null, "persistent_id": "", "id": 128970904, "location_subtype": "", "month": "2025-06"}, {"category": "anti-social-behaviour", "location_type": "Force", "location": {"latitude": "53.425596", "street": {"id": 1711563, "name": "On or near Towngate Grove"}, "longitude": "-1.541498"}, "context": "", "outcome_status": null, "persistent_id": "", "id": 128981440, "location_subtype": "", "month": "2025-06"}, {"category": "anti-social-behaviour", "location_type": "Force", "location": {"latitude": "53.373784", "street": {"id": 1711492, "name": "On or near Hillcote Mews"}, "longitude": "-1.541078"}, "context": "", "outcome_status": null, "persistent_id": "", "id": 128981442, "location_subtype": "", "month": "2025-06"}, {"category": "anti-social-behaviour", "location_type": "Force", "location": {"latitude": "53.340159", "street": {"id": 1717634, "name": "On or near Raeburn Way"}, "longitude": "-1.442299"}, "context": "", "outcome_status": null, "persistent_id": "", "id": 128952736, "location_subtype": "", "month": "2025-06"}, {"category": "anti-social-behaviour", "location_type": "Force", "location": {"latitude": "53.359208", "street": {"id": 1720922, "name": "On or near Tilford Road"}, "longitude": "-1.365225"}, "context": "", "outcome_status": null, "persistent_id": "", "id": 128952797, "location_subtype": "", "month": "2025-06"}, {"category": "anti-social-behaviour", "location_type": "Force", "location": {"latitude": "53.423725", "street": {"id": 1721246, "name": "On or near Mountenoy Road"}, "longitude": "-1.354393"}, "context": "", "outcome_status": null, "persistent_id": "", "id": 128952810, "location_subtype": "", "month": "2025-06"}, {"category": "anti-social-behaviour", "location_type": "Force", "location": {"latitude": "53.437625", "street": {"id": 1721488, "name": "On or near Russell Street"}, "longitude": "-1.350088"}, "context": "", "outcome_status": null, "persistent_id": "", "id": 128952813, "location_subtype": "", "month": "2025-06"}, {"category": "anti-social-behaviour", "location_type": "Force", "location": {"latitude": "53.322805", "street": {"id": 1714638, "name": "On or near Toppham Way"}, "longitude": "-1.480958"}, "context": "", "outcome_status": null, "persistent_id": "", "id": 128981479, "location_subtype": "", "month": "2025-06"}, {"category": "anti-social-behaviour", "location_type": "Force", "location": {"latitude": "53.418850", "street": {"id": 1721974, "name": "On or near Brunswick Road"}, "longitude": "-1.340759"}, "context": "", "outcome_status": null, "persistent_id": "", "id": 128952822, "location_subtype": "", "month": "2025-06"}, {"category": "anti-social-behaviour", "location_type": "Force", "location": {"latitude": "53.439864", "street": {"id": 1722576, "name": "On or near Mowbray Gardens"}, "longitude": "-1.322805"}, "context": "", "outcome_status": null, "persistent_id": "", "id": 128952826, "location_subtype": "", "month": "2025-06"}, {"category": "anti-social-behaviour", "location_type": "Force", "location": {"latitude": "53.339645", "street": {"id": 1722407, "name": "On or near Meadow Gate Avenue"}, "longitude": "-1.330086"}, "context": "", "outcome_status": null, "persistent_id": "", "id": 128952834, "location_subtype": "", "month": "2025-06"}, {"category": "anti-social-behaviour", "location_type": "Force", "location": {"latitude": "53.426508", "street": {"id": 1721559, "name": "On or near Warwick Street"}, "longitude": "-1.350513"}, "context": "", "outcome_status": null, "persistent_id": "", "id": 128981582, "location_subtype": "", "month": "2025-06"}, {"category": "anti-social-behaviour", "location_type": "Force", "location": {"latitude": "53.431414", "street": {"id": 1722110, "name": "On or near Middle Lane"}, "longitude": "-1.338653"}, "context": "", "outcome_status": null, "persistent_id": "", "id": 128969289, "location_subtype": "", "month": "2025-06"}, {"category": "anti-social-behaviour", "location_type": "Force", "location": {"latitude": "53.426925", "street": {"id": 1716597, "name": "On or near Parking Area"}, "longitude": "-1.457554"}, "context": "", "outcome_status": null, "persistent_id": "", "id": 128986517, "location_subtype": "", "month": "2025-06"}, {"category": "anti-social-behaviour", "location_type": "Force", "location": {"latitude": "53.408708", "street": {"id": 1715364, "name": "On or near Musgrave Place"}, "longitude": "-1.474227"}, "context": "", "outcome_status": null, "persistent_id": "", "id": 128958109, "location_subtype": "", "month": "2025-06"}, {"category": "anti-social-behaviour", "location_type": "Force", "location": {"latitude": "53.341522", "street": {"id": 1715233, "name": "On or near Wellcarr Road"}, "longitude": "-1.475399"}, "context": "", "outcome_status": null, "persistent_id": "", "id": 128958113, "location_subtype": "", "month": "2025-06"}, {"category": "anti-social-behaviour", "location_type": "Force", "location": {"latitude": "53.327724", "street": {"id": 1715868, "name": "On or near Shopping Area"}, "longitude": "-1.467567"}, "context": "", "outcome_status": null, "persistent_id": "", "id": 128958117, "location_subtype": "", "month": "2025-06"}, {"category": "anti-social-behaviour", "location_type": "Force", "location": {"latitude": "53.379702", "street": {"id": 1716052, "name": "On or near Arundel Gate"}, "longitude": "-1.466241"}, "context": "", "outcome_status": null, "persistent_id": "", "id": 128958121, "location_subtype": "", "month": "2025-06"}, {"category": "anti-social-behaviour", "location_type": "Force", "location": {"latitude": "53.332361", "street": {"id": 1716041, "name": "On or near Norton Lane"}, "longitude": "-1.462883"}, "context": "", "outcome_status": null, "persistent_id": "", "id": 128958128, "location_subtype": "", "month": "2025-06"}, {"category": "anti-social-behaviour", "location_type": "Force", "location": {"latitude": "53.382171", "street": {"id": 1716677, "name": "On or near Crown Place"}, "longitude": "-1.457701"}, "context": "", "outcome_status": null, "persistent_id": "", "id": 128958140, "location_subtype": "", "month": "2025-06"}, {"category": "anti-social-behaviour", "location_type": "Force", "location": {"latitude": "53.413627", "street": {"id": 1716586, "name": "On or near Longley Hall Way"}, "longitude": "-1.458580"}, "context": "", "outcome_status": null, "persistent_id": "", "id": 128958144, "location_subtype": "", "month": "2025-06"}, {"category": "anti-social-behaviour", "location_type": "Force", "location": {"latitude": "53.376878", "street": {"id": 1716067, "name": "On or near Theatre/concert Hall"}, "longitude": "-1.465961"}, "context": "", "outcome_status": null, "persistent_id": "", "id": 128986511, "location_subtype": "", "month": "2025-06"}, {"category": "anti-social-behaviour", "location_type": "Force", "location": {"latitude": "53.381809", "street": {"id": 1715708, "name": "On or near Shopping Area"}, "longitude": "-1.468581"}, "context": "", "outcome_status": null, "persistent_id": "", "id": 128986502, "location_subtype": "", "month": "2025-06"}, {"category": "anti-social-behaviour", "location_type": "Force", "location": {"latitude": "53.469636", "street": {"id": 1714158, "name": "On or near Greengate Court"}, "longitude": "-1.487319"}, "context": "", "outcome_status": null, "persistent_id": "", "id": 128986478, "location_subtype": "", "month": "2025-06"}, {"category": "anti-social-behaviour", "location_type": "Force", "location": {"latitude": "53.365675", "street": {"id": 1717962, "name": "On or near Wulfric Place"}, "longitude": "-1.433941"}, "context": "", "outcome_status": null, "persistent_id": "", "id": 128960149, "location_subtype": "", "month": "2025-06"}, {"category": "anti-social-behaviour", "location_type": "Force", "location": {"latitude": "53.346127", "street": {"id": 1718239, "name": "On or near Gleadless Mount"}, "longitude": "-1.426915"}, "context": "", "outcome_status": null, "persistent_id": "", "id": 128960153, "location_subtype": "", "month": "2025-06"}, {"category": "anti-social-behaviour", "location_type": "Force", "location": {"latitude": "53.435074", "street": {"id": 1719474, "name": "On or near Little Common Lane"}, "longitude": "-1.398610"}, "context": "", "outcome_status": null, "persistent_id": "", "id": 128960167, "location_subtype": "", "month": "2025-06"}, {"category": "anti-social-behaviour", "location_type": "Force", "location": {"latitude": "53.371739", "street": {"id": 1719487, "name": "On or near Richmond Park Close"}, "longitude": "-1.398375"}, "context": "", "outcome_status": null, "persistent_id": "", "id": 128960171, "location_subtype": "", "month": "2025-06"}, {"category": "anti-social-behaviour", "location_type": "Force", "location": {"latitude": "53.358078", "street": {"id": 1720033, "name": "On or near Penrose Place"}, "longitude": "-1.384549"}, "context": "", "outcome_status": null, "persistent_id": "", "id": 128960175, "location_subtype": "", "month": "2025-06"}, {"category": "anti-social-behaviour", "location_type": "Force", "location": {"latitude": "53.358867", "street": {"id": 1720672, "name": "On or near Cross Street"}, "longitude": "-1.370549"}, "context": "", "outcome_status": null, "persistent_id": "", "id": 128960179, "location_subtype": "", "month": "2025-06"}, {"category": "anti-social-behaviour", "location_type": "Force", "location": {"latitude": "53.401305", "street": {"id": 1720785, "name": "On or near Whitecroft Crescent"}, "longitude": "-1.367546"}, "context": "", "outcome_status": null, "persistent_id": "", "id": 128960183, "location_subtype": "", "month": "2025-06"}, {"category": "anti-social-behaviour", "location_type": "Force", "location": {"latitude": "53.378355", "street": {"id": 1713827, "name": "On or near Hospital"}, "longitude": "-1.493331"}, "context": "", "outcome_status": null, "persistent_id": "", "id": 128986476, "location_subtype": "", "month": "2025-06"}, {"category": "anti-social-behaviour", "location_type": "Force", "location": {"latitude": "53.471041", "street": {"id": 1713566, "name": "On or near Cottam Road"}, "longitude": "-1.496507"}, "context": "", "outcome_status": null, "persistent_id": "", "id": 128986474, "location_subtype": "", "month": "2025-06"}, {"category": "anti-social-behaviour", "location_type": "Force", "location": {"latitude": "53.343485", "street": {"id": 1713258, "name": "On or near Terminus Road"}, "longitude": "-1.501375"}, "context": "", "outcome_status": null, "persistent_id": "", "id": 128986472, "location_subtype": "", "month": "2025-06"}, {"category": "anti-social-behaviour", "location_type": "Force", "location": {"latitude": "53.392558", "street": {"id": 1711899, "name": "On or near Deer Park Close"}, "longitude": "-1.530966"}, "context": "", "outcome_status": null, "persistent_id": "", "id": 128986468, "location_subtype": "", "month": "2025-06"}, {"category": "anti-social-behaviour", "location_type": "Force", "location": {"latitude": "53.474388", "street": {"id": 1720923, "name": "On or near Wadsworth Drive"}, "longitude": "-1.365135"}, "context": "", "outcome_status": null, "persistent_id": "", "id": 128960187, "location_subtype": "", "month": "2025-06"}, {"category": "anti-social-behaviour", "location_type": "Force", "location": {"latitude": "53.343802", "street": {"id": 1721193, "name": "On or near Shopping Area"}, "longitude": "-1.357027"}, "context": "", "outcome_status": null, "persistent_id": "", "id": 128960191, "location_subtype": "", "month": "2025-06"}, {"category": "anti-social-behaviour", "location_type": "Force", "location": {"latitude": "53.423725", "street": {"id": 1721246, "name": "On or near Mountenoy Road"}, "longitude": "-1.354393"}, "context": "", "outcome_status": null, "persistent_id": "", "id": 128960194, "location_subtype": "", "month": "2025-06"}, {"category": "anti-social-behaviour", "location_type": "Force", "location": {"latitude": "53.350450", "street": {"id": 1721536, "name": "On or near Woodhouse Court"}, "longitude": "-1.348094"}, "context": "", "outcome_status": null, "persistent_id": "", "id": 128960198, "location_subtype": "", "month": "2025-06"}, {"category": "anti-social-behaviour", "location_type": "Force", "location": {"latitude": "53.426928", "street": {"id": 1721806, "name": "On or near Carrington Street"}, "longitude": "-1.345089"}, "context": "", "outcome_status": null, "persistent_id": "", "id": 128960202, "location_subtype": "", "month": "2025-06"}, {"category": "anti-social-behaviour", "location_type": "Force", "location": {"latitude": "53.347671", "street": {"id": 1722192, "name": "On or near Ivy Lane"}, "longitude": "-1.336359"}, "context": "", "outcome_status": null, "persistent_id": "", "id": 128960206, "location_subtype": "", "month": "2025-06"}, {"category": "anti-social-behaviour", "location_type": "Force", "location": {"latitude": "53.383871", "street": {"id": 1719359, "name": "On or near High Hazels Mead"}, "longitude": "-1.401316"}, "context": "", "outcome_status": null, "persistent_id": "", "id": 128962060, "location_subtype": "", "month": "2025-06"}, {"category": "anti-social-behaviour", "location_type": "Force", "location": {"latitude": "53.381028", "street": {"id": 1719383, "name": "On or near Lound Road"}, "longitude": "-1.400815"}, "context": "", "outcome_status": null, "persistent_id": "", "id": 128962067, "location_subtype": "", "month": "2025-06"}, {"category": "anti-social-behaviour", "location_type": "Force", "location": {"latitude": "53.448614", "street": {"id": 1719467, "name": "On or near Clover Green"}, "longitude": "-1.399187"}, "context": "", "outcome_status": null, "persistent_id": "", "id": 128962071, "location_subtype": "", "month": "2025-06"}, {"category": "anti-social-behaviour", "location_type": "Force", "location": {"latitude": "53.429117", "street": {"id": 1719807, "name": "On or near Pembroke Street"}, "longitude": "-1.388279"}, "context": "", "outcome_status": null, "persistent_id": "", "id": 128962076, "location_subtype": "", "month": "2025-06"}, {"category": "anti-social-behaviour", "location_type": "Force", "location": {"latitude": "53.345124", "street": {"id": 1719884, "name": "On or near Spa View Avenue"}, "longitude": "-1.387980"}, "context": "", "outcome_status": null, "persistent_id": "", "id": 128962081, "location_subtype": "", "month": "2025-06"}, {"category": "anti-social-behaviour", "location_type": "Force", "location": {"latitude": "53.359466", "street": {"id": 1720131, "name": "On or near New Cross Way"}, "longitude": "-1.381959"},