[{"category": "anti-social-behaviour", "location_type": "Force", "location": {"latitude": "53.360117", "street": {"id": 1718237, "name": "On or near Parking Area"}, "longitude": "-1.427749"}, "context": "", "outcome_status": null, "persistent_id": "", "id": 124611926, "location_subtype": "", "month": "2024-11"}, {"category": "anti-social-behaviour", "location_type": "Force", "location": {"latitude": "53.341362", "street": {"id": 1717653, "name": "On or near Sports/recreation Area"}, "longitude": "-1.439373"}, "context": "", "outcome_status": null, "persistent_id": "", "id": 124611924, "location_subtype": "", "month": "2024-11"}, {"category": "anti-social-behaviour", "location_type": "Force", "location": {"latitude": "53.422097", "street": {"id": 1717556, "name": "On or near Sports/recreation Area"}, "longitude": "-1.441369"}, "context": "", "outcome_status": null, "persistent_id": "", "id": 124611923, "location_subtype": "", "month": "2024-11"}, {"category": "anti-social-behaviour", "location_type": "Force", "location": {"latitude": "53.341362", "street": {"id": 1717653, "name": "On or near Sports/recreation Area"}, "longitude": "-1.439373"}, "context": "", "outcome_status": null, "persistent_id": "", "id": 124611922, "location_subtype": "", "month": "2024-11"}, {"category": "anti-social-behaviour", "location_type": "Force", "location": {"latitude": "53.350612", "street": {"id": 1717497, "name": "On or near Middle Hay View"}, "longitude": "-1.442163"}, "context": "", "outcome_status": null, "persistent_id": "", "id": 124611921, "location_subtype": "", "month": "2024-11"}, {"category": "anti-social-behaviour", "location_type": "Force", "location": {"latitude": "53.351588", "street": {"id": 1717496, "name": "On or near Middle Hay Close"}, "longitude": "-1.443172"}, "context": "", "outcome_status": null, "persistent_id": "", "id": 124611920, "location_subtype": "", "month": "2024-11"}, {"category": "anti-social-behaviour", "location_type": "Force", "location": {"latitude": "53.430321", "street": {"id": 1717461, "name": "On or near Pear Tree Road"}, "longitude": "-1.445289"}, "context": "", "outcome_status": null, "persistent_id": "", "id": 124611919, "location_subtype": "", "month": "2024-11"}, {"category": "anti-social-behaviour", "location_type": "Force", "location": {"latitude": "53.457510", "street": {"id": 1717252, "name": "On or near Hesley Bar"}, "longitude": "-1.443158"}, "context": "", "outcome_status": null, "persistent_id": "", "id": 124611918, "location_subtype": "", "month": "2024-11"}, {"category": "anti-social-behaviour", "location_type": "Force", "location": {"latitude": "53.342715", "street": {"id": 1717316, "name": "On or near Ironside Close"}, "longitude": "-1.446787"}, "context": "", "outcome_status": null, "persistent_id": "", "id": 124611917, "location_subtype": "", "month": "2024-11"}, {"category": "anti-social-behaviour", "location_type": "Force", "location": {"latitude": "53.416771", "street": {"id": 1717189, "name": "On or near Parking Area"}, "longitude": "-1.448429"}, "context": "", "outcome_status": null, "persistent_id": "", "id": 124611916, "location_subtype": "", "month": "2024-11"}, {"category": "anti-social-behaviour", "location_type": "Force", "location": {"latitude": "53.436128", "street": {"id": 1717232, "name": "On or near Westnall Terrace"}, "longitude": "-1.447502"}, "context": "", "outcome_status": null, "persistent_id": "", "id": 124611915, "location_subtype": "", "month": "2024-11"}, {"category": "anti-social-behaviour", "location_type": "Force", "location": {"latitude": "53.373831", "street": {"id": 1716828, "name": "On or near Granville Road"}, "longitude": "-1.454095"}, "context": "", "outcome_status": null, "persistent_id": "", "id": 124611913, "location_subtype": "", "month": "2024-11"}, {"category": "anti-social-behaviour", "location_type": "Force", "location": {"latitude": "53.406812", "street": {"id": 1717027, "name": "On or near Skinnerthorpe Road"}, "longitude": "-1.452424"}, "context": "", "outcome_status": null, "persistent_id": "", "id": 124611912, "location_subtype": "", "month": "2024-11"}, {"category": "anti-social-behaviour", "location_type": "Force", "location": {"latitude": "53.377369", "street": {"id": 1716970, "name": "On or near B6070"}, "longitude": "-1.453343"}, "context": "", "outcome_status": null, "persistent_id": "", "id": 124611911, "location_subtype": "", "month": "2024-11"}, {"category": "anti-social-behaviour", "location_type": "Force", "location": {"latitude": "53.378645", "street": {"id": 1716833, "name": "On or near Talbot Road"}, "longitude": "-1.455191"}, "context": "", "outcome_status": null, "persistent_id": "", "id": 124611910, "location_subtype": "", "month": "2024-11"}, {"category": "anti-social-behaviour", "location_type": "Force", "location": {"latitude": "53.383425", "street": {"id": 1716763, "name": "On or near Stepney Street"}, "longitude": "-1.456648"}, "context": "", "outcome_status": null, "persistent_id": "", "id": 124611909, "location_subtype": "", "month": "2024-11"}, {"category": "anti-social-behaviour", "location_type": "Force", "location": {"latitude": "53.370539", "street": {"id": 1716631, "name": "On or near Park Grange Croft"}, "longitude": "-1.457428"}, "context": "", "outcome_status": null, "persistent_id": "", "id": 124611908, "location_subtype": "", "month": "2024-11"}, {"category": "anti-social-behaviour", "location_type": "Force", "location": {"latitude": "53.355915", "street": {"id": 1716033, "name": "On or near Canterbury Road"}, "longitude": "-1.465667"}, "context": "", "outcome_status": null, "persistent_id": "", "id": 124611905, "location_subtype": "", "month": "2024-11"}, {"category": "anti-social-behaviour", "location_type": "Force", "location": {"latitude": "53.322100", "street": {"id": 1716250, "name": "On or near Dyche Road"}, "longitude": "-1.463732"}, "context": "", "outcome_status": null, "persistent_id": "", "id": 124611904, "location_subtype": "", "month": "2024-11"}, {"category": "anti-social-behaviour", "location_type": "Force", "location": {"latitude": "53.378326", "street": {"id": 1715913, "name": "On or near Further/higher Educational Building"}, "longitude": "-1.468062"}, "context": "", "outcome_status": null, "persistent_id": "", "id": 124611902, "location_subtype": "", "month": "2024-11"}, {"category": "anti-social-behaviour", "location_type": "Force", "location": {"latitude": "53.377279", "street": {"id": 1716573, "name": "On or near Claywood Drive"}, "longitude": "-1.459101"}, "context": "", "outcome_status": null, "persistent_id": "", "id": 124611907, "location_subtype": "", "month": "2024-11"}, {"category": "anti-social-behaviour", "location_type": "Force", "location": {"latitude": "53.425022", "street": {"id": 1715819, "name": "On or near Lindsay Road"}, "longitude": "-1.465990"}, "context": "", "outcome_status": null, "persistent_id": "", "id": 124611900, "location_subtype": "", "month": "2024-11"}, {"category": "anti-social-behaviour", "location_type": "Force", "location": {"latitude": "53.366391", "street": {"id": 1715268, "name": "On or near London Road"}, "longitude": "-1.474748"}, "context": "", "outcome_status": null, "persistent_id": "", "id": 124611899, "location_subtype": "", "month": "2024-11"}, {"category": "anti-social-behaviour", "location_type": "Force", "location": {"latitude": "53.391415", "street": {"id": 1716133, "name": "On or near Verdon Street"}, "longitude": "-1.464381"}, "context": "", "outcome_status": null, "persistent_id": "", "id": 124611906, "location_subtype": "", "month": "2024-11"}, {"category": "anti-social-behaviour", "location_type": "Force", "location": {"latitude": "53.366844", "street": {"id": 1715215, "name": "On or near Sitwell Place"}, "longitude": "-1.475479"}, "context": "", "outcome_status": null, "persistent_id": "", "id": 124611898, "location_subtype": "", "month": "2024-11"}, {"category": "anti-social-behaviour", "location_type": "Force", "location": {"latitude": "53.340496", "street": {"id": 1714692, "name": "On or near Linburn Road"}, "longitude": "-1.481104"}, "context": "", "outcome_status": null, "persistent_id": "", "id": 124611896, "location_subtype": "", "month": "2024-11"}, {"category": "anti-social-behaviour", "location_type": "Force", "location": {"latitude": "53.426855", "street": {"id": 1714551, "name": "On or near Buchanan Crescent"}, "longitude": "-1.482266"}, "context": "", "outcome_status": null, "persistent_id": "", "id": 124611894, "location_subtype": "", "month": "2024-11"}, {"category": "anti-social-behaviour", "location_type": "Force", "location": {"latitude": "53.379745", "street": {"id": 1713850, "name": "On or near Claremont Crescent"}, "longitude": "-1.492623"}, "context": "", "outcome_status": null, "persistent_id": "", "id": 124611888, "location_subtype": "", "month": "2024-11"}, {"category": "anti-social-behaviour", "location_type": "Force", "location": {"latitude": "53.422584", "street": {"id": 1713776, "name": "On or near Supermarket"}, "longitude": "-1.491846"}, "context": "", "outcome_status": null, "persistent_id": "", "id": 124611887, "location_subtype": "", "month": "2024-11"}, {"category": "anti-social-behaviour", "location_type": "Force", "location": {"latitude": "53.371765", "street": {"id": 1713276, "name": "On or near Betjeman Gardens"}, "longitude": "-1.501511"}, "context": "", "outcome_status": null, "persistent_id": "", "id": 124611885, "location_subtype": "", "month": "2024-11"}, {"category": "anti-social-behaviour", "location_type": "Force", "location": {"latitude": "53.376570", "street": {"id": 1713124, "name": "On or near Ashgate Lane"}, "longitude": "-1.502822"}, "context": "", "outcome_status": null, "persistent_id": "", "id": 124611884, "location_subtype": "", "month": "2024-11"}, {"category": "anti-social-behaviour", "location_type": "Force", "location": {"latitude": "53.381394", "street": {"id": 1712920, "name": "On or near Bute Street"}, "longitude": "-1.506404"}, "context": "", "outcome_status": null, "persistent_id": "", "id": 124611883, "location_subtype": "", "month": "2024-11"}, {"category": "anti-social-behaviour", "location_type": "Force", "location": {"latitude": "53.358256", "street": {"id": 1712698, "name": "On or near Banner Court"}, "longitude": "-1.510518"}, "context": "", "outcome_status": null, "persistent_id": "", "id": 124611882, "location_subtype": "", "month": "2024-11"}, {"category": "anti-social-behaviour", "location_type": "Force", "location": {"latitude": "53.416000", "street": {"id": 1713947, "name": "On or near Lamb Drive"}, "longitude": "-1.491410"}, "context": "", "outcome_status": null, "persistent_id": "", "id": 124611889, "location_subtype": "", "month": "2024-11"}, {"category": "anti-social-behaviour", "location_type": "Force", "location": {"latitude": "53.408732", "street": {"id": 1712496, "name": "On or near Collin Avenue"}, "longitude": "-1.513805"}, "context": "", "outcome_status": null, "persistent_id": "", "id": 124611881, "location_subtype": "", "month": "2024-11"}, {"category": "anti-social-behaviour", "location_type": "Force", "location": {"latitude": "53.320651", "street": {"id": 1716130, "name": "On or near White Thorns View"}, "longitude": "-1.465327"}, "context": "", "outcome_status": null, "persistent_id": "", "id": 124612414, "location_subtype": "", "month": "2024-11"}, {"category": "anti-social-behaviour", "location_type": "Force", "location": {"latitude": "53.383605", "street": {"id": 1721842, "name": "On or near Windle Court"}, "longitude": "-1.343874"}, "context": "", "outcome_status": null, "persistent_id": "", "id": 124614111, "location_subtype": "", "month": "2024-11"}, {"category": "anti-social-behaviour", "location_type": "Force", "location": {"latitude": "53.384416", "street": {"id": 1721743, "name": "On or near Park Avenue"}, "longitude": "-1.345966"}, "context": "", "outcome_status": null, "persistent_id": "", "id": 124614110, "location_subtype": "", "month": "2024-11"}, {"category": "anti-social-behaviour", "location_type": "Force", "location": {"latitude": "53.430669", "street": {"id": 1721230, "name": "On or near Church Street"}, "longitude": "-1.357057"}, "context": "", "outcome_status": null, "persistent_id": "", "id": 124614109, "location_subtype": "", "month": "2024-11"}, {"category": "anti-social-behaviour", "location_type": "Force", "location": {"latitude": "53.450924", "street": {"id": 1719855, "name": "On or near Teesdale Road"}, "longitude": "-1.388403"}, "context": "", "outcome_status": null, "persistent_id": "", "id": 124614102, "location_subtype": "", "month": "2024-11"}, {"category": "anti-social-behaviour", "location_type": "Force", "location": {"latitude": "53.415990", "street": {"id": 1719507, "name": "On or near Newmarch Street"}, "longitude": "-1.396457"}, "context": "", "outcome_status": null, "persistent_id": "", "id": 124614099, "location_subtype": "", "month": "2024-11"}, {"category": "anti-social-behaviour", "location_type": "Force", "location": {"latitude": "53.409931", "street": {"id": 1719629, "name": "On or near Bawtry Road"}, "longitude": "-1.394557"}, "context": "", "outcome_status": null, "persistent_id": "", "id": 124614098, "location_subtype": "", "month": "2024-11"}, {"category": "anti-social-behaviour", "location_type": "Force", "location": {"latitude": "53.411038", "street": {"id": 1719505, "name": "On or near Ingfield Avenue"}, "longitude": "-1.396662"}, "context": "", "outcome_status": null, "persistent_id": "", "id": 124614097, "location_subtype": "", "month": "2024-11"}, {"category": "anti-social-behaviour", "location_type": "Force", "location": {"latitude": "53.414289", "street": {"id": 1719486, "name": "On or near Lifford Street"}, "longitude": "-1.397925"}, "context": "", "outcome_status": null, "persistent_id": "", "id": 124614094, "location_subtype": "", "month": "2024-11"}, {"category": "anti-social-behaviour", "location_type": "Force", "location": {"latitude": "53.413148", "street": {"id": 1719462, "name": "On or near Bawtry Gate"}, "longitude": "-1.399687"}, "context": "", "outcome_status": null, "persistent_id": "", "id": 124614093, "location_subtype": "", "month": "2024-11"}, {"category": "anti-social-behaviour", "location_type": "Force", "location": {"latitude": "53.414296", "street": {"id": 1719464, "name": "On or near Hatherley Road"}, "longitude": "-1.399264"}, "context": "", "outcome_status": null, "persistent_id": "", "id": 124614092, "location_subtype": "", "month": "2024-11"}, {"category": "anti-social-behaviour", "location_type": "Force", "location": {"latitude": "53.389544", "street": {"id": 1718540, "name": "On or near Flaxby Road"}, "longitude": "-1.419836"}, "context": "", "outcome_status": null, "persistent_id": "", "id": 124614090, "location_subtype": "", "month": "2024-11"}, {"category": "anti-social-behaviour", "location_type": "Force", "location": {"latitude": "53.386967", "street": {"id": 1718452, "name": "On or near Ribston Place"}, "longitude": "-1.422367"}, "context": "", "outcome_status": null, "persistent_id": "", "id": 124614087, "location_subtype": "", "month": "2024-11"}, {"category": "anti-social-behaviour", "location_type": "Force", "location": {"latitude": "53.342747", "street": {"id": 1718176, "name": "On or near Briarfield Crescent"}, "longitude": "-1.428763"}, "context": "", "outcome_status": null, "persistent_id": "", "id": 124614083, "location_subtype": "", "month": "2024-11"}, {"category": "anti-social-behaviour", "location_type": "Force", "location": {"latitude": "53.360634", "street": {"id": 1718141, "name": "On or near Parking Area"}, "longitude": "-1.430597"}, "context": "", "outcome_status": null, "persistent_id": "", "id": 124614082, "location_subtype": "", "month": "2024-11"}, {"category": "anti-social-behaviour", "location_type": "Force", "location": {"latitude": "53.360336", "street": {"id": 1717646, "name": "On or near Errington Way"}, "longitude": "-1.441705"}, "context": "", "outcome_status": null, "persistent_id": "", "id": 124614078, "location_subtype": "", "month": "2024-11"}, {"category": "anti-social-behaviour", "location_type": "Force", "location": {"latitude": "53.327724", "street": {"id": 1715868, "name": "On or near Shopping Area"}, "longitude": "-1.467567"}, "context": "", "outcome_status": null, "persistent_id": "", "id": 124614651, "location_subtype": "", "month": "2024-11"}, {"category": "anti-social-behaviour", "location_type": "Force", "location": {"latitude": "53.340235", "street": {"id": 1715774, "name": "On or near St Ives Drive"}, "longitude": "-1.468837"}, "context": "", "outcome_status": null, "persistent_id": "", "id": 124614650, "location_subtype": "", "month": "2024-11"}, {"category": "anti-social-behaviour", "location_type": "Force", "location": {"latitude": "53.373428", "street": {"id": 1715349, "name": "On or near Theatre/concert Hall"}, "longitude": "-1.474286"}, "context": "", "outcome_status": null, "persistent_id": "", "id": 124614646, "location_subtype": "", "month": "2024-11"}, {"category": "anti-social-behaviour", "location_type": "Force", "location": {"latitude": "53.360296", "street": {"id": 1714851, "name": "On or near Hale Street"}, "longitude": "-1.478715"}, "context": "", "outcome_status": null, "persistent_id": "", "id": 124614644, "location_subtype": "", "month": "2024-11"}, {"category": "anti-social-behaviour", "location_type": "Force", "location": {"latitude": "53.389461", "street": {"id": 1714815, "name": "On or near St Philip's Lane"}, "longitude": "-1.479877"}, "context": "", "outcome_status": null, "persistent_id": "", "id": 124614643, "location_subtype": "", "month": "2024-11"}, {"category": "anti-social-behaviour", "location_type": "Force", "location": {"latitude": "53.385651", "street": {"id": 1714770, "name": "On or near Well Meadow Street"}, "longitude": "-1.480119"}, "context": "", "outcome_status": null, "persistent_id": "", "id": 124614642, "location_subtype": "", "month": "2024-11"}, {"category": "anti-social-behaviour", "location_type": "Force", "location": {"latitude": "53.375500", "street": {"id": 1714325, "name": "On or near Wharncliffe Road"}, "longitude": "-1.485864"}, "context": "", "outcome_status": null, "persistent_id": "", "id": 124614635, "location_subtype": "", "month": "2024-11"}, {"category": "anti-social-behaviour", "location_type": "Force", "location": {"latitude": "53.387465", "street": {"id": 1714016, "name": "On or near Albion Street"}, "longitude": "-1.490216"}, "context": "", "outcome_status": null, "persistent_id": "", "id": 124614634, "location_subtype": "", "month": "2024-11"}, {"category": "anti-social-behaviour", "location_type": "Force", "location": {"latitude": "53.375392", "street": {"id": 1717611, "name": "On or near Osprey Gardens"}, "longitude": "-1.441659"}, "context": "", "outcome_status": null, "persistent_id": "", "id": 124614077, "location_subtype": "", "month": "2024-11"}, {"category": "anti-social-behaviour", "location_type": "Force", "location": {"latitude": "53.360336", "street": {"id": 1717646, "name": "On or near Errington Way"}, "longitude": "-1.441705"}, "context": "", "outcome_status": null, "persistent_id": "", "id": 124614076, "location_subtype": "", "month": "2024-11"}, {"category": "anti-social-behaviour", "location_type": "Force", "location": {"latitude": "53.423924", "street": {"id": 1717515, "name": "On or near Winkley Terrace"}, "longitude": "-1.444018"}, "context": "", "outcome_status": null, "persistent_id": "", "id": 124614075, "location_subtype": "", "month": "2024-11"}, {"category": "anti-social-behaviour", "location_type": "Force", "location": {"latitude": "53.372362", "street": {"id": 1717415, "name": "On or near Essex Road"}, "longitude": "-1.445351"}, "context": "", "outcome_status": null, "persistent_id": "", "id": 124614074, "location_subtype": "", "month": "2024-11"}, {"category": "anti-social-behaviour", "location_type": "Force", "location": {"latitude": "53.412724", "street": {"id": 1717294, "name": "On or near Vivian Road"}, "longitude": "-1.445879"}, "context": "", "outcome_status": null, "persistent_id": "", "id": 124614073, "location_subtype": "", "month": "2024-11"}, {"category": "anti-social-behaviour", "location_type": "Force", "location": {"latitude": "53.456616", "street": {"id": 1716599, "name": "On or near Wellbourne Close"}, "longitude": "-1.457883"}, "context": "", "outcome_status": null, "persistent_id": "", "id": 124614067, "location_subtype": "", "month": "2024-11"}, {"category": "anti-social-behaviour", "location_type": "Force", "location": {"latitude": "53.381892", "street": {"id": 1716577, "name": "On or near Anson Street"}, "longitude": "-1.459464"}, "context": "", "outcome_status": null, "persistent_id": "", "id": 124614066, "location_subtype": "", "month": "2024-11"}, {"category": "anti-social-behaviour", "location_type": "Force", "location": {"latitude": "53.381892", "street": {"id": 1716577, "name": "On or near Anson Street"}, "longitude": "-1.459464"}, "context": "", "outcome_status": null, "persistent_id": "", "id": 124614065, "location_subtype": "", "month": "2024-11"}, {"category": "anti-social-behaviour", "location_type": "Force", "location": {"latitude": "53.354807", "street": {"id": 1717154, "name": "On or near Plowright Close"}, "longitude": "-1.449335"}, "context": "", "outcome_status": null, "persistent_id": "", "id": 124614070, "location_subtype": "", "month": "2024-11"}, {"category": "anti-social-behaviour", "location_type": "Force", "location": {"latitude": "53.322100", "street": {"id": 1716250, "name": "On or near Dyche Road"}, "longitude": "-1.463732"}, "context": "", "outcome_status": null, "persistent_id": "", "id": 124614062, "location_subtype": "", "month": "2024-11"}, {"category": "anti-social-behaviour", "location_type": "Force", "location": {"latitude": "53.434131", "street": {"id": 1715929, "name": "On or near Wheata Drive"}, "longitude": "-1.466809"}, "context": "", "outcome_status": null, "persistent_id": "", "id": 124614061, "location_subtype": "", "month": "2024-11"}, {"category": "anti-social-behaviour", "location_type": "Force", "location": {"latitude": "53.352659", "street": {"id": 1715151, "name": "On or near Cliffe View Road"}, "longitude": "-1.475217"}, "context": "", "outcome_status": null, "persistent_id": "", "id": 124614054, "location_subtype": "", "month": "2024-11"}, {"category": "anti-social-behaviour", "location_type": "Force", "location": {"latitude": "53.359046", "street": {"id": 1715327, "name": "On or near Parking Area"}, "longitude": "-1.474388"}, "context": "", "outcome_status": null, "persistent_id": "", "id": 124614053, "location_subtype": "", "month": "2024-11"}, {"category": "anti-social-behaviour", "location_type": "Force", "location": {"latitude": "53.375992", "street": {"id": 1715234, "name": "On or near Parking Area"}, "longitude": "-1.474825"}, "context": "", "outcome_status": null, "persistent_id": "", "id": 124614052, "location_subtype": "", "month": "2024-11"}, {"category": "anti-social-behaviour", "location_type": "Force", "location": {"latitude": "53.423692", "street": {"id": 1715162, "name": "On or near Falstaff Road"}, "longitude": "-1.476300"}, "context": "", "outcome_status": null, "persistent_id": "", "id": 124614051, "location_subtype": "", "month": "2024-11"}, {"category": "anti-social-behaviour", "location_type": "Force", "location": {"latitude": "53.396040", "street": {"id": 1714831, "name": "On or near Douglas Road"}, "longitude": "-1.477722"}, "context": "", "outcome_status": null, "persistent_id": "", "id": 124614050, "location_subtype": "", "month": "2024-11"}, {"category": "anti-social-behaviour", "location_type": "Force", "location": {"latitude": "53.376564", "street": {"id": 1714977, "name": "On or near Thomas Street"}, "longitude": "-1.478185"}, "context": "", "outcome_status": null, "persistent_id": "", "id": 124614047, "location_subtype": "", "month": "2024-11"}, {"category": "anti-social-behaviour", "location_type": "Force", "location": {"latitude": "53.371310", "street": {"id": 1714858, "name": "On or near Cliff Street"}, "longitude": "-1.479257"}, "context": "", "outcome_status": null, "persistent_id": "", "id": 124614044, "location_subtype": "", "month": "2024-11"}, {"category": "anti-social-behaviour", "location_type": "Force", "location": {"latitude": "53.368933", "street": {"id": 1714399, "name": "On or near Pearl Street"}, "longitude": "-1.484456"}, "context": "", "outcome_status": null, "persistent_id": "", "id": 124614040, "location_subtype": "", "month": "2024-11"}, {"category": "anti-social-behaviour", "location_type": "Force", "location": {"latitude": "53.360216", "street": {"id": 1714098, "name": "On or near Bank Close"}, "longitude": "-1.487145"}, "context": "", "outcome_status": null, "persistent_id": "", "id": 124614035, "location_subtype": "", "month": "2024-11"}, {"category": "anti-social-behaviour", "location_type": "Force", "location": {"latitude": "53.390581", "street": {"id": 1712746, "name": "On or near Sports/recreation Area"}, "longitude": "-1.509260"}, "context": "", "outcome_status": null, "persistent_id": "", "id": 124614026, "location_subtype": "", "month": "2024-11"}, {"category": "anti-social-behaviour", "location_type": "Force", "location": {"latitude": "53.413181", "street": {"id": 1713136, "name": "On or near Leppings Lane"}, "longitude": "-1.502952"}, "context": "", "outcome_status": null, "persistent_id": "", "id": 124614028, "location_subtype": "", "month": "2024-11"}, {"category": "anti-social-behaviour", "location_type": "Force", "location": {"latitude": "53.311965", "street": {"id": 1711668, "name": "On or near Totley Hall Drive"}, "longitude": "-1.537943"}, "context": "", "outcome_status": null, "persistent_id": "", "id": 124614023, "location_subtype": "", "month": "2024-11"}, {"category": "anti-social-behaviour", "location_type": "Force", "location": {"latitude": "53.327227", "street": {"id": 1711566, "name": "On or near Supermarket"}, "longitude": "-1.540091"}, "context": "", "outcome_status": null, "persistent_id": "", "id": 124614022, "location_subtype": "", "month": "2024-11"}, {"category": "anti-social-behaviour", "location_type": "Force", "location": {"latitude": "53.425240", "street": {"id": 1711516, "name": "On or near Parking Area"}, "longitude": "-1.542390"}, "context": "", "outcome_status": null, "persistent_id": "", "id": 124614021, "location_subtype": "", "month": "2024-11"}, {"category": "anti-social-behaviour", "location_type": "Force", "location": {"latitude": "53.475136", "street": {"id": 1710866, "name": "On or near Chestnut Avenue"}, "longitude": "-1.600372"}, "context": "", "outcome_status": null, "persistent_id": "", "id": 124614020, "location_subtype": "", "month": "2024-11"}, {"category": "anti-social-behaviour", "location_type": "Force", "location": {"latitude": "53.335603", "street": {"id": 1714157, "name": "On or near Abbey Brook Close"}, "longitude": "-1.486659"}, "context": "", "outcome_status": null, "persistent_id": "", "id": 124623522, "location_subtype": "", "month": "2024-11"}, {"category": "anti-social-behaviour", "location_type": "Force", "location": {"latitude": "53.379319", "street": {"id": 1714895, "name": "On or near Parking Area"}, "longitude": "-1.479279"}, "context": "", "outcome_status": null, "persistent_id": "", "id": 124623523, "location_subtype": "", "month": "2024-11"}, {"category": "anti-social-behaviour", "location_type": "Force", "location": {"latitude": "53.375992", "street": {"id": 1715234, "name": "On or near Parking Area"}, "longitude": "-1.474825"}, "context": "", "outcome_status": null, "persistent_id": "", "id": 124623524, "location_subtype": "", "month": "2024-11"}, {"category": "anti-social-behaviour", "location_type": "Force", "location": {"latitude": "53.360033", "street": {"id": 1715561, "name": "On or near Wellhead Road"}, "longitude": "-1.471881"}, "context": "", "outcome_status": null, "persistent_id": "", "id": 124623525, "location_subtype": "", "month": "2024-11"}, {"category": "anti-social-behaviour", "location_type": "Force", "location": {"latitude": "53.421349", "street": {"id": 1716159, "name": "On or near Emerson Drive"}, "longitude": "-1.464697"}, "context": "", "outcome_status": null, "persistent_id": "", "id": 124623526, "location_subtype": "", "month": "2024-11"}, {"category": "anti-social-behaviour", "location_type": "Force", "location": {"latitude": "53.393563", "street": {"id": 1712510, "name": "On or near Robertson Drive"}, "longitude": "-1.512745"}, "context": "", "outcome_status": null, "persistent_id": "", "id": 124624060, "location_subtype": "", "month": "2024-11"}, {"category": "anti-social-behaviour", "location_type": "Force", "location": {"latitude": "53.385339", "street": {"id": 1712824, "name": "On or near Supermarket"}, "longitude": "-1.507955"}, "context": "", "outcome_status": null, "persistent_id": "", "id": 124624061, "location_subtype": "", "month": "2024-11"}, {"category": "anti-social-behaviour", "location_type": "Force", "location": {"latitude": "53.388018", "street": {"id": 1715280, "name": "On or near Ebenezer Street"}, "longitude": "-1.474723"}, "context": "", "outcome_status": null, "persistent_id": "", "id": 124624072, "location_subtype": "", "month": "2024-11"}, {"category": "anti-social-behaviour", "location_type": "Force", "location": {"latitude": "53.427754", "street": {"id": 1713862, "name": "On or near Halifax Road"}, "longitude": "-1.492789"}, "context": "", "outcome_status": null, "persistent_id": "", "id": 124624062, "location_subtype": "", "month": "2024-11"}, {"category": "anti-social-behaviour", "location_type": "Force", "location": {"latitude": "53.442247", "street": {"id": 1713803, "name": "On or near Nether Avenue"}, "longitude": "-1.493445"}, "context": "", "outcome_status": null, "persistent_id": "", "id": 124624063, "location_subtype": "", "month": "2024-11"}, {"category": "anti-social-behaviour", "location_type": "Force", "location": {"latitude": "53.375140", "street": {"id": 1714516, "name": "On or near Exeter Way"}, "longitude": "-1.483554"}, "context": "", "outcome_status": null, "persistent_id": "", "id": 124624067, "location_subtype": "", "month": "2024-11"}, {"category": "anti-social-behaviour", "location_type": "Force", "location": {"latitude": "53.431971", "street": {"id": 1715022, "name": "On or near Yarlside Close"}, "longitude": "-1.476439"}, "context": "", "outcome_status": null, "persistent_id": "", "id": 124624069, "location_subtype": "", "month": "2024-11"}, {"category": "anti-social-behaviour", "location_type": "Force", "location": {"latitude": "53.412650", "street": {"id": 1722747, "name": "On or near Worry Goose Lane"}, "longitude": "-1.320319"}, "context": "", "outcome_status": null, "persistent_id": "", "id": 124613511, "location_subtype": "", "month": "2024-11"}, {"category": "anti-social-behaviour", "location_type": "Force", "location": {"latitude": "53.331468", "street": {"id": 1722215, "name": "On or near Long Acre View"}, "longitude": "-1.335454"}, "context": "", "outcome_status": null, "persistent_id": "", "id": 124613508, "location_subtype": "", "month": "2024-11"}, {"category": "anti-social-behaviour", "location_type": "Force", "location": {"latitude": "53.350451", "street": {"id": 1722189, "name": "On or near Rothervale Close"}, "longitude": "-1.336812"}, "context": "", "outcome_status": null, "persistent_id": "", "id": 124613507, "location_subtype": "", "month": "2024-11"}, {"category": "anti-social-behaviour", "location_type": "Force", "location": {"latitude": "53.327038", "street": {"id": 1721796, "name": "On or near Station Road"}, "longitude": "-1.345493"}, "context": "", "outcome_status": null, "persistent_id": "", "id": 124613506, "location_subtype": "", "month": "2024-11"}, {"category": "anti-social-behaviour", "location_type": "Force", "location": {"latitude": "53.429232", "street": {"id": 1721762, "name": "On or near Parkfield Road"}, "longitude": "-1.344015"}, "context": "", "outcome_status": null, "persistent_id": "", "id": 124613505, "location_subtype": "", "month": "2024-11"}, {"category": "anti-social-behaviour", "location_type": "Force", "location": {"latitude": "53.343802", "street": {"id": 1721193, "name": "On or near Shopping Area"}, "longitude": "-1.357027"}, "context": "", "outcome_status": null, "persistent_id": "", "id": 124613503, "location_subtype": "", "month": "2024-11"}, {"category": "anti-social-behaviour", "location_type": "Force", "location": {"latitude": "53.425883", "street": {"id": 1721218, "name": "On or near Chapel Lane"}, "longitude": "-1.357881"}, "context": "", "outcome_status": null, "persistent_id": "", "id": 124613501, "location_subtype": "", "month": "2024-11"}, {"category": "anti-social-behaviour", "location_type": "Force", "location": {"latitude": "53.424776", "street": {"id": 1714491, "name": "On or near Lytton Road"}, "longitude": "-1.483660"}, "context": "", "outcome_status": null, "persistent_id": "", "id": 124613476, "location_subtype": "", "month": "2024-11"}, {"category": "anti-social-behaviour", "location_type": "Force", "location": {"latitude": "53.321376", "street": {"id": 1714331, "name": "On or near Lowedges Close"}, "longitude": "-1.485104"}, "context": "", "outcome_status": null, "persistent_id": "", "id": 124613475, "location_subtype": "", "month": "2024-11"}, {"category": "anti-social-behaviour", "location_type": "Force", "location": {"latitude": "53.321554", "street": {"id": 1714026, "name": "On or near Becket Road"}, "longitude": "-1.488870"}, "context": "", "outcome_status": null, "persistent_id": "", "id": 124613474, "location_subtype": "", "month": "2024-11"}, {"category": "anti-social-behaviour", "location_type": "Force", "location": {"latitude": "53.413328", "street": {"id": 1713914, "name": "On or near Scraith Wood Drive"}, "longitude": "-1.488779"}, "context": "", "outcome_status": null, "persistent_id": "", "id": 124613472, "location_subtype": "", "month": "2024-11"}, {"category": "anti-social-behaviour", "location_type": "Force", "location": {"latitude": "53.387465", "street": {"id": 1714016, "name": "On or near Albion Street"}, "longitude": "-1.490216"}, "context": "", "outcome_status": null, "persistent_id": "", "id": 124613471, "location_subtype": "", "month": "2024-11"}, {"category": "anti-social-behaviour", "location_type": "Force", "location": {"latitude": "53.405977", "street": {"id": 1713555, "name": "On or near Burnell Road"}, "longitude": "-1.497501"}, "context": "", "outcome_status": null, "persistent_id": "", "id": 124613470, "location_subtype": "", "month": "2024-11"}, {"category": "anti-social-behaviour", "location_type": "Force", "location": {"latitude": "53.385339", "street": {"id": 1712824, "name": "On or near Supermarket"}, "longitude": "-1.507955"}, "context": "", "outcome_status": null, "persistent_id": "", "id": 124613469, "location_subtype": "", "month": "2024-11"}, {"category": "anti-social-behaviour", "location_type": "Force", "location": {"latitude": "53.418909", "street": {"id": 1712567, "name": "On or near Winn Grove"}, "longitude": "-1.512064"}, "context": "", "outcome_status": null, "persistent_id": "", "id": 124613468, "location_subtype": "", "month": "2024-11"}, {"category": "anti-social-behaviour", "location_type": "Force", "location": {"latitude": "53.381526", "street": {"id": 1712364, "name": "On or near Headland Road"}, "longitude": "-1.516791"}, "context": "", "outcome_status": null, "persistent_id": "", "id": 124613467, "location_subtype": "", "month": "2024-11"}, {"category": "anti-social-behaviour", "location_type": "Force", "location": {"latitude": "53.392146", "street": {"id": 1712238, "name": "On or near Hollins Drive"}, "longitude": "-1.520024"}, "context": "", "outcome_status": null, "persistent_id": "", "id": 124613466, "location_subtype": "", "month": "2024-11"}, {"category": "anti-social-behaviour", "location_type": "Force", "location": {"latitude": "53.311965", "street": {"id": 1711668, "name": "On or near Totley Hall Drive"}, "longitude": "-1.537943"}, "context": "", "outcome_status": null, "persistent_id": "", "id": 124613465, "location_subtype": "", "month": "2024-11"}, {"category": "anti-social-behaviour", "location_type": "Force", "location": {"latitude": "53.482763", "street": {"id": 1710889, "name": "On or near Supermarket"}, "longitude": "-1.596442"}, "context": "", "outcome_status": null, "persistent_id": "", "id": 124613463, "location_subtype": "", "month": "2024-11"}, {"category": "anti-social-behaviour", "location_type": "Force", "location": {"latitude": "53.377788", "street": {"id": 1718861, "name": "On or near Littledale Road"}, "longitude": "-1.414479"}, "context": "", "outcome_status": null, "persistent_id": "", "id": 124612955, "location_subtype": "", "month": "2024-11"}, {"category": "anti-social-behaviour", "location_type": "Force", "location": {"latitude": "53.404675", "street": {"id": 1717867, "name": "On or near Petrol Station"}, "longitude": "-1.435424"}, "context": "", "outcome_status": null, "persistent_id": "", "id": 124612954, "location_subtype": "", "month": "2024-11"}, {"category": "anti-social-behaviour", "location_type": "Force", "location": {"latitude": "53.359606", "street": {"id": 1717755, "name": "On or near Supermarket"}, "longitude": "-1.437493"}, "context": "", "outcome_status": null, "persistent_id": "", "id": 124612953, "location_subtype": "", "month": "2024-11"}, {"category": "anti-social-behaviour", "location_type": "Force", "location": {"latitude": "53.344505", "street": {"id": 1717683, "name": "On or near Morland Bank"}, "longitude": "-1.439509"}, "context": "", "outcome_status": null, "persistent_id": "", "id": 124612952, "location_subtype": "", "month": "2024-11"}, {"category": "anti-social-behaviour", "location_type": "Force", "location": {"latitude": "53.367108", "street": {"id": 1717635, "name": "On or near St Aidan's Place"}, "longitude": "-1.440520"}, "context": "", "outcome_status": null, "persistent_id": "", "id": 124612951, "location_subtype": "", "month": "2024-11"}, {"category": "anti-social-behaviour", "location_type": "Force", "location": {"latitude": "53.376494", "street": {"id": 1717678, "name": "On or near Maltravers Close"}, "longitude": "-1.440818"}, "context": "", "outcome_status": null, "persistent_id": "", "id": 124612950, "location_subtype": "", "month": "2024-11"}, {"category": "anti-social-behaviour", "location_type": "Force", "location": {"latitude": "53.377937", "street": {"id": 1717278, "name": "On or near Bassett Place"}, "longitude": "-1.445744"}, "context": "", "outcome_status": null, "persistent_id": "", "id": 124612949, "location_subtype": "", "month": "2024-11"}, {"category": "anti-social-behaviour", "location_type": "Force", "location": {"latitude": "53.374972", "street": {"id": 1717340, "name": "On or near Skye Edge Road"}, "longitude": "-1.446129"}, "context": "", "outcome_status": null, "persistent_id": "", "id": 124612948, "location_subtype": "", "month": "2024-11"}, {"category": "anti-social-behaviour", "location_type": "Force", "location": {"latitude": "53.457510", "street": {"id": 1717252, "name": "On or near Hesley Bar"}, "longitude": "-1.443158"}, "context": "", "outcome_status": null, "persistent_id": "", "id": 124612947, "location_subtype": "", "month": "2024-11"}, {"category": "anti-social-behaviour", "location_type": "Force", "location": {"latitude": "53.357203", "street": {"id": 1717236, "name": "On or near Daresbury Place"}, "longitude": "-1.446539"}, "context": "", "outcome_status": null, "persistent_id": "", "id": 124612946, "location_subtype": "", "month": "2024-11"}, {"category": "anti-social-behaviour", "location_type": "Force", "location": {"latitude": "53.414881", "street": {"id": 1717159, "name": "On or near Vickers Drive"}, "longitude": "-1.449868"}, "context": "", "outcome_status": null, "persistent_id": "", "id": 124612944, "location_subtype": "", "month": "2024-11"}, {"category": "anti-social-behaviour", "location_type": "Force", "location": {"latitude": "53.406812", "street": {"id": 1717027, "name": "On or near Skinnerthorpe Road"}, "longitude": "-1.452424"}, "context": "", "outcome_status": null, "persistent_id": "", "id": 124612943, "location_subtype": "", "month": "2024-11"}, {"category": "anti-social-behaviour", "location_type": "Force", "location": {"latitude": "53.426925", "street": {"id": 1716597, "name": "On or near Parking Area"}, "longitude": "-1.457554"}, "context": "", "outcome_status": null, "persistent_id": "", "id": 124612942, "location_subtype": "", "month": "2024-11"}, {"category": "anti-social-behaviour", "location_type": "Force", "location": {"latitude": "53.365554", "street": {"id": 1716554, "name": "On or near Park Spring Way"}, "longitude": "-1.458393"}, "context": "", "outcome_status": null, "persistent_id": "", "id": 124612941, "location_subtype": "", "month": "2024-11"}, {"category": "anti-social-behaviour", "location_type": "Force", "location": {"latitude": "53.371546", "street": {"id": 1716523, "name": "On or near Norfolk Park Drive"}, "longitude": "-1.459429"}, "context": "", "outcome_status": null, "persistent_id": "", "id": 124612940, "location_subtype": "", "month": "2024-11"}, {"category": "anti-social-behaviour", "location_type": "Force", "location": {"latitude": "53.382289", "street": {"id": 1716088, "name": "On or near Parking Area"}, "longitude": "-1.465818"}, "context": "", "outcome_status": null, "persistent_id": "", "id": 124612939, "location_subtype": "", "month": "2024-11"}, {"category": "anti-social-behaviour", "location_type": "Force", "location": {"latitude": "53.339451", "street": {"id": 1715331, "name": "On or near Bole Hill"}, "longitude": "-1.472466"}, "context": "", "outcome_status": null, "persistent_id": "", "id": 124612938, "location_subtype": "", "month": "2024-11"}, {"category": "anti-social-behaviour", "location_type": "Force", "location": {"latitude": "53.402860", "street": {"id": 1715223, "name": "On or near Sports/recreation Area"}, "longitude": "-1.474001"}, "context": "", "outcome_status": null, "persistent_id": "", "id": 124612937, "location_subtype": "", "month": "2024-11"}, {"category": "anti-social-behaviour", "location_type": "Force", "location": {"latitude": "53.372388", "street": {"id": 1715225, "name": "On or near Supermarket"}, "longitude": "-1.475080"}, "context": "", "outcome_status": null, "persistent_id": "", "id": 124612936, "location_subtype": "", "month": "2024-11"}, {"category": "anti-social-behaviour", "location_type": "Force", "location": {"latitude": "53.357097", "street": {"id": 1715089, "name": "On or near Little London Place"}, "longitude": "-1.476755"}, "context": "", "outcome_status": null, "persistent_id": "", "id": 124612935, "location_subtype": "", "month": "2024-11"}, {"category": "anti-social-behaviour", "location_type": "Force", "location": {"latitude": "53.371362", "street": {"id": 1714937, "name": "On or near Leverton Gardens"}, "longitude": "-1.478850"}, "context": "", "outcome_status": null, "persistent_id": "", "id": 124612934, "location_subtype": "", "month": "2024-11"}, {"category": "anti-social-behaviour", "location_type": "Force", "location": {"latitude": "53.467572", "street": {"id": 1715044, "name": "On or near Griffiths Road"}, "longitude": "-1.477869"}, "context": "", "outcome_status": null, "persistent_id": "", "id": 124612933, "location_subtype": "", "month": "2024-11"}, {"category": "anti-social-behaviour", "location_type": "Force", "location": {"latitude": "53.384735", "street": {"id": 1714739, "name": "On or near Brownell Street"}, "longitude": "-1.480401"}, "context": "", "outcome_status": null, "persistent_id": "", "id": 124612932, "location_subtype": "", "month": "2024-11"}, {"category": "anti-social-behaviour", "location_type": "Force", "location": {"latitude": "53.423524", "street": {"id": 1714686, "name": "On or near Adlington Crescent"}, "longitude": "-1.481087"}, "context": "", "outcome_status": null, "persistent_id": "", "id": 124612931, "location_subtype": "", "month": "2024-11"}, {"category": "anti-social-behaviour", "location_type": "Force", "location": {"latitude": "53.361938", "street": {"id": 1714266, "name": "On or near Montgomery Road"}, "longitude": "-1.486178"}, "context": "", "outcome_status": null, "persistent_id": "", "id": 124612929, "location_subtype": "", "month": "2024-11"}, {"category": "anti-social-behaviour", "location_type": "Force", "location": {"latitude": "53.424735", "street": {"id": 1714093, "name": "On or near Doe Royd Crescent"}, "longitude": "-1.488913"}, "context": "", "outcome_status": null, "persistent_id": "", "id": 124612927, "location_subtype": "", "month": "2024-11"}, {"category": "anti-social-behaviour", "location_type": "Force", "location": {"latitude": "53.320133", "street": {"id": 1714008, "name": "On or near Gresley Road"}, "longitude": "-1.488661"}, "context": "", "outcome_status": null, "persistent_id": "", "id": 124612925, "location_subtype": "", "month": "2024-11"}, {"category": "anti-social-behaviour", "location_type": "Force", "location": {"latitude": "53.477650", "street": {"id": 1713831, "name": "On or near Greaves Lane"}, "longitude": "-1.492873"}, "context": "", "outcome_status": null, "persistent_id": "", "id": 124612924, "location_subtype": "", "month": "2024-11"}, {"category": "anti-social-behaviour", "location_type": "Force", "location": {"latitude": "53.440556", "street": {"id": 1713288, "name": "On or near Sports/recreation Area"}, "longitude": "-1.499258"}, "context": "", "outcome_status": null, "persistent_id": "", "id": 124612922, "location_subtype": "", "month": "2024-11"}, {"category": "anti-social-behaviour", "location_type": "Force", "location": {"latitude": "53.385339", "street": {"id": 1712824, "name": "On or near Supermarket"}, "longitude": "-1.507955"}, "context": "", "outcome_status": null, "persistent_id": "", "id": 124612921, "location_subtype": "", "month": "2024-11"}, {"category": "anti-social-behaviour", "location_type": "Force", "location": {"latitude": "53.394300", "street": {"id": 1718675, "name": "On or near Henson Street"}, "longitude": "-1.418133"}, "context": "", "outcome_status": null, "persistent_id": "", "id": 124624517, "location_subtype": "", "month": "2024-11"}, {"category": "anti-social-behaviour", "location_type": "Force", "location": {"latitude": "53.347663", "street": {"id": 1718660, "name": "On or near Supermarket"}, "longitude": "-1.417889"}, "context": "", "outcome_status": null, "persistent_id": "", "id": 124624518, "location_subtype": "", "month": "2024-11"}, {"category": "anti-social-behaviour", "location_type": "Force", "location": {"latitude": "53.347188", "street": {"id": 1718785, "name": "On or near Jaunty Avenue"}, "longitude": "-1.415845"}, "context": "", "outcome_status": null, "persistent_id": "", "id": 124624519, "location_subtype": "", "month": "2024-11"}, {"category": "anti-social-behaviour", "location_type": "Force", "location": {"latitude": "53.451924", "street": {"id": 1719845, "name": "On or near Wensleydale Road"}, "longitude": "-1.385362"}, "context": "", "outcome_status": null, "persistent_id": "", "id": 124624520, "location_subtype": "", "month": "2024-11"}, {"category": "anti-social-behaviour", "location_type": "Force", "location": {"latitude": "53.432099", "street": {"id": 1720829, "name": "On or near College Road"}, "longitude": "-1.365449"}, "context": "", "outcome_status": null, "persistent_id": "", "id": 124624523, "location_subtype": "", "month": "2024-11"}, {"category": "anti-social-behaviour", "location_type": "Force", "location": {"latitude": "53.427770", "street": {"id": 1721558, "name": "On or near Clifton Terrace"}, "longitude": "-1.349515"}, "context": "", "outcome_status": null, "persistent_id": "", "id": 124624524, "location_subtype": "", "month": "2024-11"}, {"category": "anti-social-behaviour", "location_type": "Force", "location": {"latitude": "53.451113", "street": {"id": 1721811, "name": "On or near Broad Street"}, "longitude": "-1.344355"}, "context": "", "outcome_status": null, "persistent_id": "", "id": 124624525, "location_subtype": "", "month": "2024-11"}, {"category": "anti-social-behaviour", "location_type": "Force", "location": {"latitude": "53.416515", "street": {"id": 1722248, "name": "On or near Beaconsfield Road"}, "longitude": "-1.334521"}, "context": "", "outcome_status": null, "persistent_id": "", "id": 124612972, "location_subtype": "", "month": "2024-11"}, {"category": "anti-social-behaviour", "location_type": "Force", "location": {"latitude": "53.426928", "street": {"id": 1721806, "name": "On or near Carrington Street"}, "longitude": "-1.345089"}, "context": "", "outcome_status": null, "persistent_id": "", "id": 124612971, "location_subtype": "", "month": "2024-11"}, {"category": "anti-social-behaviour", "location_type": "Force", "location": {"latitude": "53.429659", "street": {"id": 1721606, "name": "On or near Summerfield"}, "longitude": "-1.349652"}, "context": "", "outcome_status": null, "persistent_id": "", "id": 124612970, "location_subtype": "", "month": "2024-11"}, {"category": "anti-social-behaviour", "location_type": "Force", "location": {"latitude": "53.431195", "street": {"id": 1721189, "name": "On or near Corporation Street"}, "longitude": "-1.357892"}, "context": "", "outcome_status": null, "persistent_id": "", "id": 124612969, "location_subtype": "", "month": "2024-11"}, {"category": "anti-social-behaviour", "location_type": "Force", "location": {"latitude": "53.434599", "street": {"id": 1722266, "name": "On or near Cambridge Place"}, "longitude": "-1.334329"}, "context": "", "outcome_status": null, "persistent_id": "", "id": 124624526, "location_subtype": "", "month": "2024-11"}, {"category": "anti-social-behaviour", "location_type": "Force", "location": {"latitude": "53.350451", "street": {"id": 1722189, "name": "On or near Rothervale Close"}, "longitude": "-1.336812"}, "context": "", "outcome_status": null, "persistent_id": "", "id": 124624527, "location_subtype": "", "month": "2024-11"}, {"category": "anti-social-behaviour", "location_type": "Force", "location": {"latitude": "53.408028", "street": {"id": 1722568, "name": "On or near Dewhill Avenue"}, "longitude": "-1.324620"}, "context": "", "outcome_status": null, "persistent_id": "", "id": 124624528, "location_subtype": "", "month": "2024-11"}, {"category": "anti-social-behaviour", "location_type": "Force", "location": {"latitude": "53.476176", "street": {"id": 1710874, "name": "On or near Cedar Close"}, "longitude": "-1.599398"}, "context": "", "outcome_status": null, "persistent_id": "", "id": 124624950, "location_subtype": "", "month": "2024-11"}, {"category": "anti-social-behaviour", "location_type": "Force", "location": {"latitude": "53.385339", "street": {"id": 1712824, "name": "On or near Supermarket"}, "longitude": "-1.507955"}, "context": "", "outcome_status": null, "persistent_id": "", "id": 124624951, "location_subtype": "", "month": "2024-11"}, {"category": "anti-social-behaviour", "location_type": "Force", "location": {"latitude": "53.455322", "street": {"id": 1721821, "name": "On or near Bear Tree Close"}, "longitude": "-1.344833"}, "context": "", "outcome_status": null, "persistent_id": "", "id": 124612452, "location_subtype": "", "month": "2024-11"}, {"category": "anti-social-behaviour", "location_type": "Force", "location": {"latitude": "53.436497", "street": {"id": 1721702, "name": "On or near Denman Street"}, "longitude": "-1.347591"}, "context": "", "outcome_status": null, "persistent_id": "", "id": 124612451, "location_subtype": "", "month": "2024-11"}, {"category": "anti-social-behaviour", "location_type": "Force", "location": {"latitude": "53.331340", "street": {"id": 1721447, "name": "On or near Cowley Gardens"}, "longitude": "-1.351373"}, "context": "", "outcome_status": null, "persistent_id": "", "id": 124612450, "location_subtype": "", "month": "2024-11"}, {"category": "anti-social-behaviour", "location_type": "Force", "location": {"latitude": "53.432354", "street": {"id": 1721358, "name": "On or near Shopping Area"}, "longitude": "-1.354367"}, "context": "", "outcome_status": null, "persistent_id": "", "id": 124612448, "location_subtype": "", "month": "2024-11"}, {"category": "anti-social-behaviour", "location_type": "Force", "location": {"latitude": "53.386399", "street": {"id": 1713917, "name": "On or near Tay Street"}, "longitude": "-1.491071"}, "context": "", "outcome_status": null, "persistent_id": "", "id": 124624952, "location_subtype": "", "month": "2024-11"}, {"category": "anti-social-behaviour", "location_type": "Force", "location": {"latitude": "53.424735", "street": {"id": 1714093, "name": "On or near Doe Royd Crescent"}, "longitude": "-1.488913"}, "context": "", "outcome_status": null, "persistent_id": "", "id": 124624953, "location_subtype": "", "month": "2024-11"}, {"category": "anti-social-behaviour", "location_type": "Force", "location": {"latitude": "53.343755", "street": {"id": 1715116, "name": "On or near Chantrey Road"}, "longitude": "-1.476258"}, "context": "", "outcome_status": null, "persistent_id": "", "id": 124612409, "location_subtype": "", "month": "2024-11"}, {"category": "anti-social-behaviour", "location_type": "Force", "location": {"latitude": "53.366391", "street": {"id": 1715268, "name": "On or near London Road"}, "longitude": "-1.474748"}, "context": "", "outcome_status": null, "persistent_id": "", "id": 124612410, "location_subtype": "", "month": "2024-11"}, {"category": "anti-social-behaviour", "location_type": "Force", "location": {"latitude": "53.346273", "street": {"id": 1718726, "name": "On or near Jaunty Drive"}, "longitude": "-1.416263"}, "context": "", "outcome_status": null, "persistent_id": "", "id": 124611929, "location_subtype": "", "month": "2024-11"}, {"category": "anti-social-behaviour", "location_type": "Force", "location": {"latitude": "53.347663", "street": {"id": 1718660, "name": "On or near Supermarket"}, "longitude": "-1.417889"}, "context": "", "outcome_status": null, "persistent_id": "", "id": 124611928, "location_subtype": "", "month": "2024-11"}, {"category": "anti-social-behaviour", "location_type": "Force", "location": {"latitude": "53.388264", "street": {"id": 1717948, "name": "On or near Stadium Way"}, "longitude": "-1.432198"}, "context": "", "outcome_status": null, "persistent_id": "", "id": 124611925, "location_subtype": "", "month": "2024-11"}, {"category": "anti-social-behaviour", "location_type": "Force", "location": {"latitude": "53.356429", "street": {"id": 1715528, "name": "On or near Molloy Street"}, "longitude": "-1.471956"}, "context": "", "outcome_status": null, "persistent_id": "", "id": 124612411, "location_subtype": "", "month": "2024-11"}, {"category": "anti-social-behaviour", "location_type": "Force", "location": {"latitude": "53.377755", "street": {"id": 1715554, "name": "On or near Furnival Gate"}, "longitude": "-1.471061"}, "context": "", "outcome_status": null, "persistent_id": "", "id": 124612412, "location_subtype": "", "month": "2024-11"}, {"category": "anti-social-behaviour", "location_type": "Force", "location": {"latitude": "53.466921", "street": {"id": 1716228, "name": "On or near Coppice Rise"}, "longitude": "-1.462738"}, "context": "", "outcome_status": null, "persistent_id": "", "id": 124612416, "location_subtype": "", "month": "2024-11"}, {"category": "anti-social-behaviour", "location_type": "Force", "location": {"latitude": "53.338901", "street": {"id": 1716036, "name": "On or near Parking Area"}, "longitude": "-1.464002"}, "context": "", "outcome_status": null, "persistent_id": "", "id": 124612417, "location_subtype": "", "month": "2024-11"}, {"category": "anti-social-behaviour", "location_type": "Force", "location": {"latitude": "53.365554", "street": {"id": 1716554, "name": "On or near Park Spring Way"}, "longitude": "-1.458393"}, "context": "", "outcome_status": null, "persistent_id": "", "id": 124612418, "location_subtype": "", "month": "2024-11"}, {"category": "anti-social-behaviour", "location_type": "Force", "location": {"latitude": "53.355404", "street": {"id": 1717196, "name": "On or near Parking Area"}, "longitude": "-1.448125"}, "context": "", "outcome_status": null, "persistent_id": "", "id": 124612419, "location_subtype": "", "month": "2024-11"}, {"category": "anti-social-behaviour", "location_type": "Force", "location": {"latitude": "53.346054", "street": {"id": 1717327, "name": "On or near Gaunt Way"}, "longitude": "-1.445842"}, "context": "", "outcome_status": null, "persistent_id": "", "id": 124612421, "location_subtype": "", "month": "2024-11"}, {"category": "anti-social-behaviour", "location_type": "Force", "location": {"latitude": "53.407385", "street": {"id": 1717508, "name": "On or near Petrol Station"}, "longitude": "-1.442808"}, "context": "", "outcome_status": null, "persistent_id": "", "id": 124612422, "location_subtype": "", "month": "2024-11"}, {"category": "anti-social-behaviour", "location_type": "Force", "location": {"latitude": "53.312048", "street": {"id": 1711717, "name": "On or near Sunnyvale Road"}, "longitude": "-1.536186"}, "context": "", "outcome_status": null, "persistent_id": "", "id": 124615139, "location_subtype": "", "month": "2024-11"}, {"category": "anti-social-behaviour", "location_type": "Force", "location": {"latitude": "53.392341", "street": {"id": 1711800, "name": "On or near Supermarket"}, "longitude": "-1.532984"}, "context": "", "outcome_status": null, "persistent_id": "", "id": 124615140, "location_subtype": "", "month": "2024-11"}, {"category": "anti-social-behaviour", "location_type": "Force", "location": {"latitude": "53.314245", "street": {"id": 1711877, "name": "On or near Sports/recreation Area"}, "longitude": "-1.530723"}, "context": "", "outcome_status": null, "persistent_id": "", "id": 124615141, "location_subtype": "", "month": "2024-11"}, {"category": "anti-social-behaviour", "location_type": "Force", "location": {"latitude": "53.405834", "street": {"id": 1712449, "name": "On or near Owlings Road"}, "longitude": "-1.515132"}, "context": "", "outcome_status": null, "persistent_id": "", "id": 124615142, "location_subtype": "", "month": "2024-11"}, {"category": "anti-social-behaviour", "location_type": "Force", "location": {"latitude": "53.385339", "street": {"id": 1712824, "name": "On or near Supermarket"}, "longitude": "-1.507955"}, "context": "", "outcome_status": null, "persistent_id": "", "id": 124615143, "location_subtype": "", "month": "2024-11"}, {"category": "anti-social-behaviour", "location_type": "Force", "location": {"latitude": "53.396815", "street": {"id": 1712785, "name": "On or near Storrs Hall Road"}, "longitude": "-1.507745"}, "context": "", "outcome_status": null, "persistent_id": "", "id": 124615144, "location_subtype": "", "month": "2024-11"}, {"category": "anti-social-behaviour", "location_type": "Force", "location": {"latitude": "53.421455", "street": {"id": 1713384, "name": "On or near Baxter Close"}, "longitude": "-1.499666"}, "context": "", "outcome_status": null, "persistent_id": "", "id": 124615145, "location_subtype": "", "month": "2024-11"}, {"category": "anti-social-behaviour", "location_type": "Force", "location": {"latitude": "53.351787", "street": {"id": 1714182, "name": "On or near Plymouth Road"}, "longitude": "-1.487577"}, "context": "", "outcome_status": null, "persistent_id": "", "id": 124615146, "location_subtype": "", "month": "2024-11"}, {"category": "anti-social-behaviour", "location_type": "Force", "location": {"latitude": "53.377057", "street": {"id": 1714745, "name": "On or near Broom Green"}, "longitude": "-1.479998"}, "context": "", "outcome_status": null, "persistent_id": "", "id": 124615148, "location_subtype": "", "month": "2024-11"}, {"category": "anti-social-behaviour", "location_type": "Force", "location": {"latitude": "53.378717", "street": {"id": 1715016, "name": "On or near Eldon Street"}, "longitude": "-1.477317"}, "context": "", "outcome_status": null, "persistent_id": "", "id": 124615150, "location_subtype": "", "month": "2024-11"}, {"category": "anti-social-behaviour", "location_type": "Force", "location": {"latitude": "53.341144", "street": {"id": 1721291, "name": "On or near Purbeck Court"}, "longitude": "-1.355910"}, "context": "", "outcome_status": null, "persistent_id": "", "id": 124615178, "location_subtype": "", "month": "2024-11"}, {"category": "anti-social-behaviour", "location_type": "Force", "location": {"latitude": "53.331036", "street": {"id": 1721562, "name": "On or near Westfield Centre"}, "longitude": "-1.349996"}, "context": "", "outcome_status": null, "persistent_id": "", "id": 124615179, "location_subtype": "", "month": "2024-11"}, {"category": "anti-social-behaviour", "location_type": "Force", "location": {"latitude": "53.447991", "street": {"id": 1721756, "name": "On or near Rail Mill Way"}, "longitude": "-1.343831"}, "context": "", "outcome_status": null, "persistent_id": "", "id": 124615180, "location_subtype": "", "month": "2024-11"}, {"category": "anti-social-behaviour", "location_type": "Force", "location": {"latitude": "53.451113", "street": {"id": 1721811, "name": "On or near Broad Street"}, "longitude": "-1.344355"}, "context": "", "outcome_status": null, "persistent_id": "", "id": 124615181, "location_subtype": "", "month": "2024-11"}, {"category": "anti-social-behaviour", "location_type": "Force", "location": {"latitude": "53.338556", "street": {"id": 1722245, "name": "On or near Wychwood Glen"}, "longitude": "-1.334758"}, "context": "", "outcome_status": null, "persistent_id": "", "id": 124615182, "location_subtype": "", "month": "2024-11"}, {"category": "anti-social-behaviour", "location_type": "Force", "location": {"latitude": "53.419764", "street": {"id": 1722347, "name": "On or near Beechwood Road"}, "longitude": "-1.332168"}, "context": "", "outcome_status": null, "persistent_id": "", "id": 124615183, "location_subtype": "", "month": "2024-11"}, {"category": "anti-social-behaviour", "location_type": "Force", "location": {"latitude": "53.464269", "street": {"id": 1722451, "name": "On or near Supermarket"}, "longitude": "-1.329147"}, "context": "", "outcome_status": null, "persistent_id": "", "id": 124615184, "location_subtype": "", "month": "2024-11"}, {"category": "anti-social-behaviour", "location_type": "Force", "location": {"latitude": "53.446472", "street": {"id": 1718739, "name": "On or near Elderberry Close"}, "longitude": "-1.414876"}, "context": "", "outcome_status": null, "persistent_id": "", "id": 124615650, "location_subtype": "", "month": "2024-11"}, {"category": "anti-social-behaviour", "location_type": "Force", "location": {"latitude": "53.414119", "street": {"id": 1719025, "name": "On or near Shopping Area"}, "longitude": "-1.410731"}, "context": "", "outcome_status": null, "persistent_id": "", "id": 124615652, "location_subtype": "", "month": "2024-11"}, {"category": "anti-social-behaviour", "location_type": "Force", "location": {"latitude": "53.370193", "street": {"id": 1719055, "name": "On or near Danebrook Close"}, "longitude": "-1.411112"}, "context": "", "outcome_status": null, "persistent_id": "", "id": 124615653, "location_subtype": "", "month": "2024-11"}, {"category": "anti-social-behaviour", "location_type": "Force", "location": {"latitude": "53.446966", "street": {"id": 1718938, "name": "On or near Hesley Grange"}, "longitude": "-1.412957"}, "context": "", "outcome_status": null, "persistent_id": "", "id": 124615651, "location_subtype": "", "month": "2024-11"}, {"category": "anti-social-behaviour", "location_type": "Force", "location": {"latitude": "53.362402", "street": {"id": 1719185, "name": "On or near Hastilar Road South"}, "longitude": "-1.407913"}, "context": "", "outcome_status": null, "persistent_id": "", "id": 124615655, "location_subtype": "", "month": "2024-11"}, {"category": "anti-social-behaviour", "location_type": "Force", "location": {"latitude": "53.373281", "street": {"id": 1719466, "name": "On or near Richmond Park View"}, "longitude": "-1.399285"}, "context": "", "outcome_status": null, "persistent_id": "", "id": 124615657, "location_subtype": "", "month": "2024-11"}, {"category": "anti-social-behaviour", "location_type": "Force", "location": {"latitude": "53.361074", "street": {"id": 1719564, "name": "On or near Stradbroke Drive"}, "longitude": "-1.395730"}, "context": "", "outcome_status": null, "persistent_id": "", "id": 124615658, "location_subtype": "", "month": "2024-11"}, {"category": "anti-social-behaviour", "location_type": "Force", "location": {"latitude": "53.374735", "street": {"id": 1719530, "name": "On or near Richmond Park Crescent"}, "longitude": "-1.397190"}, "context": "", "outcome_status": null, "persistent_id": "", "id": 124615659, "location_subtype": "", "month": "2024-11"}, {"category": "anti-social-behaviour", "location_type": "Force", "location": {"latitude": "53.447442", "street": {"id": 1719692, "name": "On or near Crane Road"}, "longitude": "-1.393045"}, "context": "", "outcome_status": null, "persistent_id": "", "id": 124615660, "location_subtype": "", "month": "2024-11"}, {"category": "anti-social-behaviour", "location_type": "Force", "location": {"latitude": "53.432123", "street": {"id": 1720689, "name": "On or near St John's Avenue"}, "longitude": "-1.370099"}, "context": "", "outcome_status": null, "persistent_id": "", "id": 124615667, "location_subtype": "", "month": "2024-11"}, {"category": "anti-social-behaviour", "location_type": "Force", "location": {"latitude": "53.436021", "street": {"id": 1720064, "name": "On or near Bradgate Close"}, "longitude": "-1.383198"}, "context": "", "outcome_status": null, "persistent_id": "", "id": 124615662, "location_subtype": "", "month": "2024-11"}, {"category": "anti-social-behaviour", "location_type": "Force", "location": {"latitude": "53.371205", "street": {"id": 1720026, "name": "On or near Ballifield Way"}, "longitude": "-1.380016"}, "context": "", "outcome_status": null, "persistent_id": "", "id": 124615663, "location_subtype": "", "month": "2024-11"}, {"category": "anti-social-behaviour", "location_type": "Force", "location": {"latitude": "53.370479", "street": {"id": 1720554, "name": "On or near Ballifield Crescent"}, "longitude": "-1.373579"}, "context": "", "outcome_status": null, "persistent_id": "", "id": 124615666, "location_subtype": "", "month": "2024-11"}, {"category": "anti-social-behaviour", "location_type": "Force", "location": {"latitude": "53.404791", "street": {"id": 1720844, "name": "On or near Field View"}, "longitude": "-1.367239"}, "context": "", "outcome_status": null, "persistent_id": "", "id": 124615668, "location_subtype": "", "month": "2024-11"}, {"category": "anti-social-behaviour", "location_type": "Force", "location": {"latitude": "53.343802", "street": {"id": 1721193, "name": "On or near Shopping Area"}, "longitude": "-1.357027"}, "context": "", "outcome_status": null, "persistent_id": "", "id": 124615670, "location_subtype": "", "month": "2024-11"}, {"category": "anti-social-behaviour", "location_type": "Force", "location": {"latitude": "53.338917", "street": {"id": 1721307, "name": "On or near Clayton Crescent"}, "longitude": "-1.352940"}, "context": "", "outcome_status": null, "persistent_id": "", "id": 124615671, "location_subtype": "", "month": "2024-11"}, {"category": "anti-social-behaviour", "location_type": "Force", "location": {"latitude": "53.462691", "street": {"id": 1721929, "name": "On or near Blyth Avenue"}, "longitude": "-1.342912"}, "context": "", "outcome_status": null, "persistent_id": "", "id": 124615672, "location_subtype": "", "month": "2024-11"}, {"category": "anti-social-behaviour", "location_type": "Force", "location": {"latitude": "53.415108", "street": {"id": 1713281, "name": "On or near Petrol Station"}, "longitude": "-1.501621"}, "context": "", "outcome_status": null, "persistent_id": "", "id": 124622665, "location_subtype": "", "month": "2024-11"}, {"category": "anti-social-behaviour", "location_type": "Force", "location": {"latitude": "53.469417", "street": {"id": 1713653, "name": "On or near Briary Avenue"}, "longitude": "-1.495080"}, "context": "", "outcome_status": null, "persistent_id": "", "id": 124622666, "location_subtype": "", "month": "2024-11"}, {"category": "anti-social-behaviour", "location_type": "Force", "location": {"latitude": "53.371813", "street": {"id": 1714506, "name": "On or near Summerfield Street"}, "longitude": "-1.483384"}, "context": "", "outcome_status": null, "persistent_id": "", "id": 124622668, "location_subtype": "", "month": "2024-11"}, {"category": "anti-social-behaviour", "location_type": "Force", "location": {"latitude": "53.336216", "street": {"id": 1714376, "name": "On or near Sports/recreation Area"}, "longitude": "-1.484568"}, "context": "", "outcome_status": null, "persistent_id": "", "id": 124622669, "location_subtype": "", "month": "2024-11"}, {"category": "anti-social-behaviour", "location_type": "Force", "location": {"latitude": "53.418100", "street": {"id": 1714492, "name": "On or near Galsworthy Avenue"}, "longitude": "-1.482161"}, "context": "", "outcome_status": null, "persistent_id": "", "id": 124622670, "location_subtype": "", "month": "2024-11"}, {"category": "anti-social-behaviour", "location_type": "Force", "location": {"latitude": "53.420892", "street": {"id": 1714653, "name": "On or near Kyle Crescent"}, "longitude": "-1.481540"}, "context": "", "outcome_status": null, "persistent_id": "", "id": 124622671, "location_subtype": "", "month": "2024-11"}, {"category": "anti-social-behaviour", "location_type": "Force", "location": {"latitude": "53.369691", "street": {"id": 1714927, "name": "On or near Club Garden Road"}, "longitude": "-1.479096"}, "context": "", "outcome_status": null, "persistent_id": "", "id": 124622673, "location_subtype": "", "month": "2024-11"}, {"category": "anti-social-behaviour", "location_type": "Force", "location": {"latitude": "53.431576", "street": {"id": 1714744, "name": "On or near Margetson Crescent"}, "longitude": "-1.478596"}, "context": "", "outcome_status": null, "persistent_id": "", "id": 124622674, "location_subtype": "", "month": "2024-11"}, {"category": "anti-social-behaviour", "location_type": "Force", "location": {"latitude": "53.379070", "street": {"id": 1715237, "name": "On or near Parking Area"}, "longitude": "-1.475750"}, "context": "", "outcome_status": null, "persistent_id": "", "id": 124622675, "location_subtype": "", "month": "2024-11"}, {"category": "anti-social-behaviour", "location_type": "Force", "location": {"latitude": "53.387086", "street": {"id": 1715248, "name": "On or near Blue Boy Street"}, "longitude": "-1.475230"}, "context": "", "outcome_status": null, "persistent_id": "", "id": 124622676, "location_subtype": "", "month": "2024-11"}, {"category": "anti-social-behaviour", "location_type": "Force", "location": {"latitude": "53.384198", "street": {"id": 1715684, "name": "On or near Paradise Lane"}, "longitude": "-1.470560"}, "context": "", "outcome_status": null, "persistent_id": "", "id": 124622677, "location_subtype": "", "month": "2024-11"}, {"category": "anti-social-behaviour", "location_type": "Force", "location": {"latitude": "53.384198", "street": {"id": 1715684, "name": "On or near Paradise Lane"}, "longitude": "-1.470560"}, "context": "", "outcome_status": null, "persistent_id": "", "id": 124622678, "location_subtype": "", "month": "2024-11"}, {"category": "anti-social-behaviour", "location_type": "Force", "location": {"latitude": "53.384393", "street": {"id": 1715737, "name": "On or near Paradise Street"}, "longitude": "-1.470016"}, "context": "", "outcome_status": null, "persistent_id": "", "id": 124622679, "location_subtype": "", "month": "2024-11"}, {"category": "anti-social-behaviour", "location_type": "Force", "location": {"latitude": "53.383162", "street": {"id": 1715909, "name": "On or near York Street"}, "longitude": "-1.468182"}, "context": "", "outcome_status": null, "persistent_id": "", "id": 124622680, "location_subtype": "", "month": "2024-11"}, {"category": "anti-social-behaviour", "location_type": "Force", "location": {"latitude": "53.383629", "street": {"id": 1716093, "name": "On or near Angel Street"}, "longitude": "-1.465952"}, "context": "", "outcome_status": null, "persistent_id": "", "id": 124622681, "location_subtype": "", "month": "2024-11"}, {"category": "anti-social-behaviour", "location_type": "Force", "location": {"latitude": "53.323624", "street": {"id": 1715753, "name": "On or near Dyche Lane"}, "longitude": "-1.466941"}, "context": "", "outcome_status": null, "persistent_id": "", "id": 124622682, "location_subtype": "", "month": "2024-11"}, {"category": "anti-social-behaviour", "location_type": "Force", "location": {"latitude": "53.359623", "street": {"id": 1716223, "name": "On or near Farish Place"}, "longitude": "-1.464554"}, "context": "", "outcome_status": null, "persistent_id": "", "id": 124622683, "location_subtype": "", "month": "2024-11"}, {"category": "anti-social-behaviour", "location_type": "Force", "location": {"latitude": "53.359232", "street": {"id": 1716263, "name": "On or near Supermarket"}, "longitude": "-1.463556"}, "context": "", "outcome_status": null, "persistent_id": "", "id": 124622684, "location_subtype": "", "month": "2024-11"}, {"category": "anti-social-behaviour", "location_type": "Force", "location": {"latitude": "53.414124", "street": {"id": 1716235, "name": "On or near Longley Farm View"}, "longitude": "-1.461327"}, "context": "", "outcome_status": null, "persistent_id": "", "id": 124622685, "location_subtype": "", "month": "2024-11"}, {"category": "anti-social-behaviour", "location_type": "Force", "location": {"latitude": "53.365554", "street": {"id": 1716554, "name": "On or near Park Spring Way"}, "longitude": "-1.458393"}, "context": "", "outcome_status": null, "persistent_id": "", "id": 124622687, "location_subtype": "", "month": "2024-11"}, {"category": "anti-social-behaviour", "location_type": "Force", "location": {"latitude": "53.340363", "street": {"id": 1717168, "name": "On or near Supermarket"}, "longitude": "-1.449663"}, "context": "", "outcome_status": null, "persistent_id": "", "id": 124622688, "location_subtype": "", "month": "2024-11"}, {"category": "anti-social-behaviour", "location_type": "Force", "location": {"latitude": "53.409800", "street": {"id": 1717234, "name": "On or near Bolsover Road East"}, "longitude": "-1.447346"}, "context": "", "outcome_status": null, "persistent_id": "", "id": 124622689, "location_subtype": "", "month": "2024-11"}, {"category": "anti-social-behaviour", "location_type": "Force", "location": {"latitude": "53.398246", "street": {"id": 1717498, "name": "On or near Atlas Way"}, "longitude": "-1.442758"}, "context": "", "outcome_status": null, "persistent_id": "", "id": 124622690, "location_subtype": "", "month": "2024-11"}, {"category": "anti-social-behaviour", "location_type": "Force", "location": {"latitude": "53.417892", "street": {"id": 1717861, "name": "On or near Wincobank Close"}, "longitude": "-1.436167"}, "context": "", "outcome_status": null, "persistent_id": "", "id": 124622693, "location_subtype": "", "month": "2024-11"}, {"category": "anti-social-behaviour", "location_type": "Force", "location": {"latitude": "53.363080", "street": {"id": 1716269, "name": "On or near Madehurst View"}, "longitude": "-1.461851"}, "context": "", "outcome_status": null, "persistent_id": "", "id": 124623527, "location_subtype": "", "month": "2024-11"}, {"category": "anti-social-behaviour", "location_type": "Force", "location": {"latitude": "53.418911", "street": {"id": 1716873, "name": "On or near Ribble Way"}, "longitude": "-1.454375"}, "context": "", "outcome_status": null, "persistent_id": "", "id": 124623529, "location_subtype": "", "month": "2024-11"}, {"category": "anti-social-behaviour", "location_type": "Force", "location": {"latitude": "53.408700", "street": {"id": 1717220, "name": "On or near Selby Road"}, "longitude": "-1.448639"}, "context": "", "outcome_status": null, "persistent_id": "", "id": 124623532, "location_subtype": "", "month": "2024-11"}, {"category": "anti-social-behaviour", "location_type": "Force", "location": {"latitude": "53.479638", "street": {"id": 1717350, "name": "On or near Cricket View Road"}, "longitude": "-1.446666"}, "context": "", "outcome_status": null, "persistent_id": "", "id": 124623534, "location_subtype": "", "month": "2024-11"}, {"category": "anti-social-behaviour", "location_type": "Force", "location": {"latitude": "53.453725", "street": {"id": 1718096, "name": "On or near Upper Wortley Road"}, "longitude": "-1.431507"}, "context": "", "outcome_status": null, "persistent_id": "", "id": 124623535, "location_subtype": "", "month": "2024-11"}, {"category": "anti-social-behaviour", "location_type": "Force", "location": {"latitude": "53.393408", "street": {"id": 1717995, "name": "On or near Baltic Lane"}, "longitude": "-1.432686"}, "context": "", "outcome_status": null, "persistent_id": "", "id": 124623536, "location_subtype": "", "month": "2024-11"}, {"category": "anti-social-behaviour", "location_type": "Force", "location": {"latitude": "53.444093", "street": {"id": 1713324, "name": "On or near The Frostings"}, "longitude": "-1.500875"}, "context": "", "outcome_status": null, "persistent_id": "", "id": 126731949, "location_subtype": "", "month": "2024-11"}, {"category": "anti-social-behaviour", "location_type": "Force", "location": {"latitude": "53.356307", "street": {"id": 1718215, "name": "On or near Ridgeway Drive"}, "longitude": "-1.428025"}, "context": "", "outcome_status": null, "persistent_id": "", "id": 124623537, "location_subtype": "", "month": "2024-11"}, {"category": "anti-social-behaviour", "location_type": "Force", "location": {"latitude": "53.423394", "street": {"id": 1718490, "name": "On or near Woodgrove Road"}, "longitude": "-1.421332"}, "context": "", "outcome_status": null, "persistent_id": "", "id": 124623538, "location_subtype": "", "month": "2024-11"}, {"category": "anti-social-behaviour", "location_type": "Force", "location": {"latitude": "53.346215", "street": {"id": 1718634, "name": "On or near Lister Way"}, "longitude": "-1.419223"}, "context": "", "outcome_status": null, "persistent_id": "", "id": 124623539, "location_subtype": "", "month": "2024-11"}, {"category": "anti-social-behaviour", "location_type": "Force", "location": {"latitude": "53.432243", "street": {"id": 1719751, "name": "On or near Dycott Road"}, "longitude": "-1.391410"}, "context": "", "outcome_status": null, "persistent_id": "", "id": 124623541, "location_subtype": "", "month": "2024-11"}, {"category": "anti-social-behaviour", "location_type": "Force", "location": {"latitude": "53.356580", "street": {"id": 1720087, "name": "On or near B6064"}, "longitude": "-1.383428"}, "context": "", "outcome_status": null, "persistent_id": "", "id": 124623544, "location_subtype": "", "month": "2024-11"}, {"category": "anti-social-behaviour", "location_type": "Force", "location": {"latitude": "53.438135", "street": {"id": 1721694, "name": "On or near Jennings Close"}, "longitude": "-1.347957"}, "context": "", "outcome_status": null, "persistent_id": "", "id": 124623550, "location_subtype": "", "month": "2024-11"}, {"category": "anti-social-behaviour", "location_type": "Force", "location": {"latitude": "53.437378", "street": {"id": 1721663, "name": "On or near Hatherley Road"}, "longitude": "-1.347638"}, "context": "", "outcome_status": null, "persistent_id": "", "id": 124623551, "location_subtype": "", "month": "2024-11"}, {"category": "anti-social-behaviour", "location_type": "Force", "location": {"latitude": "53.420905", "street": {"id": 1722363, "name": "On or near Durham Place"}, "longitude": "-1.330390"}, "context": "", "outcome_status": null, "persistent_id": "", "id": 124625455, "location_subtype": "", "month": "2024-11"}, {"category": "anti-social-behaviour", "location_type": "Force", "location": {"latitude": "53.438513", "street": {"id": 1721871, "name": "On or near Bethel Road"}, "longitude": "-1.343149"}, "context": "", "outcome_status": null, "persistent_id": "", "id": 124625454, "location_subtype": "", "month": "2024-11"}, {"category": "anti-social-behaviour", "location_type": "Force", "location": {"latitude": "53.437183", "street": {"id": 1721597, "name": "On or near Selborne Street"}, "longitude": "-1.349733"}, "context": "", "outcome_status": null, "persistent_id": "", "id": 124625453, "location_subtype": "", "month": "2024-11"}, {"category": "anti-social-behaviour", "location_type": "Force", "location": {"latitude": "53.398463", "street": {"id": 1721245, "name": "On or near Rose Close"}, "longitude": "-1.357001"}, "context": "", "outcome_status": null, "persistent_id": "", "id": 124625452, "location_subtype": "", "month": "2024-11"}, {"category": "anti-social-behaviour", "location_type": "Force", "location": {"latitude": "53.431910", "street": {"id": 1721188, "name": "On or near Bridgegate"}, "longitude": "-1.357098"}, "context": "", "outcome_status": null, "persistent_id": "", "id": 124625451, "location_subtype": "", "month": "2024-11"}, {"category": "anti-social-behaviour", "location_type": "Force", "location": {"latitude": "53.451415", "street": {"id": 1720526, "name": "On or near Wagon Road"}, "longitude": "-1.373865"}, "context": "", "outcome_status": null, "persistent_id": "", "id": 124625450, "location_subtype": "", "month": "2024-11"}, {"category": "anti-social-behaviour", "location_type": "Force", "location": {"latitude": "53.343995", "street": {"id": 1719809, "name": "On or near Fern View Close"}, "longitude": "-1.390309"}, "context": "", "outcome_status": null, "persistent_id": "", "id": 124625449, "location_subtype": "", "month": "2024-11"}, {"category": "anti-social-behaviour", "location_type": "Force", "location": {"latitude": "53.362385", "street": {"id": 1719250, "name": "On or near Fishponds View"}, "longitude": "-1.406185"}, "context": "", "outcome_status": null, "persistent_id": "", "id": 124625448, "location_subtype": "", "month": "2024-11"}, {"category": "anti-social-behaviour", "location_type": "Force", "location": {"latitude": "53.361742", "street": {"id": 1719241, "name": "On or near Supermarket"}, "longitude": "-1.405933"}, "context": "", "outcome_status": null, "persistent_id": "", "id": 124625447, "location_subtype": "", "month": "2024-11"}, {"category": "anti-social-behaviour", "location_type": "Force", "location": {"latitude": "53.354772", "street": {"id": 1719192, "name": "On or near Wadsworth Avenue"}, "longitude": "-1.408094"}, "context": "", "outcome_status": null, "persistent_id": "", "id": 124625446, "location_subtype": "", "month": "2024-11"}, {"category": "anti-social-behaviour", "location_type": "Force", "location": {"latitude": "53.409027", "street": {"id": 1717507, "name": "On or near Hinde Street"}, "longitude": "-1.443520"}, "context": "", "outcome_status": null, "persistent_id": "", "id": 124625444, "location_subtype": "", "month": "2024-11"}, {"category": "anti-social-behaviour", "location_type": "Force", "location": {"latitude": "53.355020", "street": {"id": 1716996, "name": "On or near Callow Mount"}, "longitude": "-1.452682"}, "context": "", "outcome_status": null, "persistent_id": "", "id": 124625443, "location_subtype": "", "month": "2024-11"}, {"category": "anti-social-behaviour", "location_type": "Force", "location": {"latitude": "53.324100", "street": {"id": 1716382, "name": "On or near Hazlebarrow Close"}, "longitude": "-1.460704"}, "context": "", "outcome_status": null, "persistent_id": "", "id": 124625442, "location_subtype": "", "month": "2024-11"}, {"category": "anti-social-behaviour", "location_type": "Force", "location": {"latitude": "53.375042", "street": {"id": 1716349, "name": "On or near Granville Street"}, "longitude": "-1.461444"}, "context": "", "outcome_status": null, "persistent_id": "", "id": 124625441, "location_subtype": "", "month": "2024-11"}, {"category": "anti-social-behaviour", "location_type": "Force", "location": {"latitude": "53.382133", "street": {"id": 1715928, "name": "On or near George Street"}, "longitude": "-1.467068"}, "context": "", "outcome_status": null, "persistent_id": "", "id": 124625440, "location_subtype": "", "month": "2024-11"}, {"category": "anti-social-behaviour", "location_type": "Force", "location": {"latitude": "53.327724", "street": {"id": 1715868, "name": "On or near Shopping Area"}, "longitude": "-1.467567"}, "context": "", "outcome_status": null, "persistent_id": "", "id": 124625439, "location_subtype": "", "month": "2024-11"}, {"category": "anti-social-behaviour", "location_type": "Force", "location": {"latitude": "53.377160", "street": {"id": 1715850, "name": "On or near Froggatt Lane"}, "longitude": "-1.468783"}, "context": "", "outcome_status": null, "persistent_id": "", "id": 124625438, "location_subtype": "", "month": "2024-11"}, {"category": "anti-social-behaviour", "location_type": "Force", "location": {"latitude": "53.380604", "street": {"id": 1715626, "name": "On or near Barker's Pool"}, "longitude": "-1.471025"}, "context": "", "outcome_status": null, "persistent_id": "", "id": 124625437, "location_subtype": "", "month": "2024-11"}, {"category": "anti-social-behaviour", "location_type": "Force", "location": {"latitude": "53.384448", "street": {"id": 1715532, "name": "On or near Tenter Street"}, "longitude": "-1.472286"}, "context": "", "outcome_status": null, "persistent_id": "", "id": 124625436, "location_subtype": "", "month": "2024-11"}, {"category": "anti-social-behaviour", "location_type": "Force", "location": {"latitude": "53.382880", "street": {"id": 1715390, "name": "On or near Townhead Street"}, "longitude": "-1.473403"}, "context": "", "outcome_status": null, "persistent_id": "", "id": 124625435, "location_subtype": "", "month": "2024-11"}, {"category": "anti-social-behaviour", "location_type": "Force", "location": {"latitude": "53.321308", "street": {"id": 1715107, "name": "On or near Lowedges Place"}, "longitude": "-1.475662"}, "context": "", "outcome_status": null, "persistent_id": "", "id": 124625433, "location_subtype": "", "month": "2024-11"}, {"category": "anti-social-behaviour", "location_type": "Force", "location": {"latitude": "53.387414", "street": {"id": 1714055, "name": "On or near Oxford Street"}, "longitude": "-1.488818"}, "context": "", "outcome_status": null, "persistent_id": "", "id": 124625429, "location_subtype": "", "month": "2024-11"}, {"category": "anti-social-behaviour", "location_type": "Force", "location": {"latitude": "53.416000", "street": {"id": 1713947, "name": "On or near Lamb Drive"}, "longitude": "-1.491410"}, "context": "", "outcome_status": null, "persistent_id": "", "id": 124625427, "location_subtype": "", "month": "2024-11"}, {"category": "anti-social-behaviour", "location_type": "Force", "location": {"latitude": "53.384517", "street": {"id": 1713265, "name": "On or near Ramsey Road"}, "longitude": "-1.501001"}, "context": "", "outcome_status": null, "persistent_id": "", "id": 124625426, "location_subtype": "", "month": "2024-11"}, {"category": "anti-social-behaviour", "location_type": "Force", "location": {"latitude": "53.335739", "street": {"id": 1713112, "name": "On or near Folds Drive"}, "longitude": "-1.504063"}, "context": "", "outcome_status": null, "persistent_id": "", "id": 124625425, "location_subtype": "", "month": "2024-11"}, {"category": "anti-social-behaviour", "location_type": "Force", "location": {"latitude": "53.385339", "street": {"id": 1712824, "name": "On or near Supermarket"}, "longitude": "-1.507955"}, "context": "", "outcome_status": null, "persistent_id": "", "id": 124625424, "location_subtype": "", "month": "2024-11"}, {"category": "anti-social-behaviour", "location_type": "Force", "location": {"latitude": "53.436689", "street": {"id": 1711709, "name": "On or near River View Road"}, "longitude": "-1.534891"}, "context": "", "outcome_status": null, "persistent_id": "", "id": 124625423, "location_subtype": "", "month": "2024-11"}, {"category": "anti-social-behaviour", "location_type": "Force", "location": {"latitude": "53.471442", "street": {"id": 1721916, "name": "On or near Homestead Drive"}, "longitude": "-1.342189"}, "context": "", "outcome_status": null, "persistent_id": "", "id": 124623552, "location_subtype": "", "month": "2024-11"}, {"category": "anti-social-behaviour", "location_type": "Force", "location": {"latitude": "53.451131", "street": {"id": 1722071, "name": "On or near Durham Way"}, "longitude": "-1.337955"}, "context": "", "outcome_status": null, "persistent_id": "", "id": 124623553, "location_subtype": "", "month": "2024-11"}, {"category": "anti-social-behaviour", "location_type": "Force", "location": {"latitude": "53.337394", "street": {"id": 1722370, "name": "On or near Farmoor Gardens"}, "longitude": "-1.329415"}, "context": "", "outcome_status": null, "persistent_id": "", "id": 124623554, "location_subtype": "", "month": "2024-11"}, {"category": "anti-social-behaviour", "location_type": "Force", "location": {"latitude": "53.478570", "street": {"id": 1711189, "name": "On or near Mill Lane"}, "longitude": "-1.566935"}, "context": "", "outcome_status": null, "persistent_id": "", "id": 124623109, "location_subtype": "", "month": "2024-11"}, {"category": "anti-social-behaviour", "location_type": "Force", "location": {"latitude": "53.385475", "street": {"id": 1712726, "name": "On or near Stannington View Road"}, "longitude": "-1.510852"}, "context": "", "outcome_status": null, "persistent_id": "", "id": 124623110, "location_subtype": "", "month": "2024-11"}, {"category": "anti-social-behaviour", "location_type": "Force", "location": {"latitude": "53.378093", "street": {"id": 1712808, "name": "On or near Tapton House Road"}, "longitude": "-1.508081"}, "context": "", "outcome_status": null, "persistent_id": "", "id": 124623111, "location_subtype": "", "month": "2024-11"}, {"category": "anti-social-behaviour", "location_type": "Force", "location": {"latitude": "53.409279", "street": {"id": 1713026, "name": "On or near Shepperson Road"}, "longitude": "-1.504833"}, "context": "", "outcome_status": null, "persistent_id": "", "id": 124623112, "location_subtype": "", "month": "2024-11"}, {"category": "anti-social-behaviour", "location_type": "Force", "location": {"latitude": "53.427444", "street": {"id": 1713115, "name": "On or near Fox Hill Crescent"}, "longitude": "-1.502515"}, "context": "", "outcome_status": null, "persistent_id": "", "id": 124623113, "location_subtype": "", "month": "2024-11"}, {"category": "anti-social-behaviour", "location_type": "Force", "location": {"latitude": "53.418295", "street": {"id": 1713866, "name": "On or near Avisford Road"}, "longitude": "-1.492029"}, "context": "", "outcome_status": null, "persistent_id": "", "id": 124623114, "location_subtype": "", "month": "2024-11"}, {"category": "anti-social-behaviour", "location_type": "Force", "location": {"latitude": "53.419188", "street": {"id": 1714348, "name": "On or near Dryden Way"}, "longitude": "-1.484390"}, "context": "", "outcome_status": null, "persistent_id": "", "id": 124623115, "location_subtype": "", "month": "2024-11"}, {"category": "anti-social-behaviour", "location_type": "Force", "location": {"latitude": "53.430951", "street": {"id": 1714690, "name": "On or near Margetson Drive"}, "longitude": "-1.481493"}, "context": "", "outcome_status": null, "persistent_id": "", "id": 124623116, "location_subtype": "", "month": "2024-11"}, {"category": "anti-social-behaviour", "location_type": "Force", "location": {"latitude": "53.323624", "street": {"id": 1715753, "name": "On or near Dyche Lane"}, "longitude": "-1.466941"}, "context": "", "outcome_status": null, "persistent_id": "", "id": 124623118, "location_subtype": "", "month": "2024-11"}, {"category": "anti-social-behaviour", "location_type": "Force", "location": {"latitude": "53.387172", "street": {"id": 1716259, "name": "On or near Wicker"}, "longitude": "-1.462359"}, "context": "", "outcome_status": null, "persistent_id": "", "id": 124623119, "location_subtype": "", "month": "2024-11"}, {"category": "anti-social-behaviour", "location_type": "Force", "location": {"latitude": "53.389639", "street": {"id": 1716737, "name": "On or near Supermarket"}, "longitude": "-1.457193"}, "context": "", "outcome_status": null, "persistent_id": "", "id": 124623121, "location_subtype": "", "month": "2024-11"}, {"category": "anti-social-behaviour", "location_type": "Force", "location": {"latitude": "53.453758", "street": {"id": 1716783, "name": "On or near Smithy Wood Drive"}, "longitude": "-1.453989"}, "context": "", "outcome_status": null, "persistent_id": "", "id": 124623122, "location_subtype": "", "month": "2024-11"}, {"category": "anti-social-behaviour", "location_type": "Force", "location": {"latitude": "53.373102", "street": {"id": 1718687, "name": "On or near Prince Of Wales Road"}, "longitude": "-1.417715"}, "context": "", "outcome_status": null, "persistent_id": "", "id": 124623125, "location_subtype": "", "month": "2024-11"}, {"category": "anti-social-behaviour", "location_type": "Force", "location": {"latitude": "53.418940", "street": {"id": 1722594, "name": "On or near Wickersley Road"}, "longitude": "-1.323108"}, "context": "", "outcome_status": null, "persistent_id": "", "id": 124614679, "location_subtype": "", "month": "2024-11"}, {"category": "anti-social-behaviour", "location_type": "Force", "location": {"latitude": "53.433181", "street": {"id": 1722221, "name": "On or near Lord Street"}, "longitude": "-1.334772"}, "context": "", "outcome_status": null, "persistent_id": "", "id": 124614677, "location_subtype": "", "month": "2024-11"}, {"category": "anti-social-behaviour", "location_type": "Force", "location": {"latitude": "53.433917", "street": {"id": 1722070, "name": "On or near Danum Drive"}, "longitude": "-1.339502"}, "context": "", "outcome_status": null, "persistent_id": "", "id": 124614676, "location_subtype": "", "month": "2024-11"}, {"category": "anti-social-behaviour", "location_type": "Force", "location": {"latitude": "53.436565", "street": {"id": 1721739, "name": "On or near Petrol Station"}, "longitude": "-1.346852"}, "context": "", "outcome_status": null, "persistent_id": "", "id": 124614674, "location_subtype": "", "month": "2024-11"}, {"category": "anti-social-behaviour", "location_type": "Force", "location": {"latitude": "53.435435", "street": {"id": 1720409, "name": "On or near Henley Rise"}, "longitude": "-1.375996"}, "context": "", "outcome_status": null, "persistent_id": "", "id": 124614669, "location_subtype": "", "month": "2024-11"}, {"category": "anti-social-behaviour", "location_type": "Force", "location": {"latitude": "53.382187", "street": {"id": 1719621, "name": "On or near Parking Area"}, "longitude": "-1.391914"}, "context": "", "outcome_status": null, "persistent_id": "", "id": 124614667, "location_subtype": "", "month": "2024-11"}, {"category": "anti-social-behaviour", "location_type": "Force", "location": {"latitude": "53.414122", "street": {"id": 1719387, "name": "On or near Town Street"}, "longitude": "-1.400455"}, "context": "", "outcome_status": null, "persistent_id": "", "id": 124614666, "location_subtype": "", "month": "2024-11"}, {"category": "anti-social-behaviour", "location_type": "Force", "location": {"latitude": "53.422556", "street": {"id": 1719121, "name": "On or near Meadow Bank Road"}, "longitude": "-1.408116"}, "context": "", "outcome_status": null, "persistent_id": "", "id": 124614665, "location_subtype": "", "month": "2024-11"}, {"category": "anti-social-behaviour", "location_type": "Force", "location": {"latitude": "53.420552", "street": {"id": 1718521, "name": "On or near Prestwich Street"}, "longitude": "-1.421040"}, "context": "", "outcome_status": null, "persistent_id": "", "id": 124614664, "location_subtype": "", "month": "2024-11"}, {"category": "anti-social-behaviour", "location_type": "Force", "location": {"latitude": "53.396759", "street": {"id": 1718513, "name": "On or near Sports/recreation Area"}, "longitude": "-1.417442"}, "context": "", "outcome_status": null, "persistent_id": "", "id": 124614663, "location_subtype": "", "month": "2024-11"}, {"category": "anti-social-behaviour", "location_type": "Force", "location": {"latitude": "53.398246", "street": {"id": 1717498, "name": "On or near Atlas Way"}, "longitude": "-1.442758"}, "context": "", "outcome_status": null, "persistent_id": "", "id": 124614662, "location_subtype": "", "month": "2024-11"}, {"category": "anti-social-behaviour", "location_type": "Force", "location": {"latitude": "53.408293", "street": {"id": 1717345, "name": "On or near Page Hall Road"}, "longitude": "-1.446057"}, "context": "", "outcome_status": null, "persistent_id": "", "id": 124614661, "location_subtype": "", "month": "2024-11"}, {"category": "anti-social-behaviour", "location_type": "Force", "location": {"latitude": "53.451555", "street": {"id": 1711326, "name": "On or near Wharncliffe Avenue"}, "longitude": "-1.553371"}, "context": "", "outcome_status": null, "persistent_id": "", "id": 124614629, "location_subtype": "", "month": "2024-11"}, {"category": "anti-social-behaviour", "location_type": "Force", "location": {"latitude": "53.347663", "street": {"id": 1718660, "name": "On or near Supermarket"}, "longitude": "-1.417889"}, "context": "", "outcome_status": null, "persistent_id": "", "id": 124623126, "location_subtype": "", "month": "2024-11"}, {"category": "anti-social-behaviour", "location_type": "Force", "location": {"latitude": "53.377788", "street": {"id": 1718861, "name": "On or near Littledale Road"}, "longitude": "-1.414479"}, "context": "", "outcome_status": null, "persistent_id": "", "id": 124623127, "location_subtype": "", "month": "2024-11"}, {"category": "anti-social-behaviour", "location_type": "Force", "location": {"latitude": "53.345675", "street": {"id": 1719617, "name": "On or near East Glade Place"}, "longitude": "-1.395422"}, "context": "", "outcome_status": null, "persistent_id": "", "id": 124623128, "location_subtype": "", "month": "2024-11"}, {"category": "anti-social-behaviour", "location_type": "Force", "location": {"latitude": "53.335603", "street": {"id": 1714157, "name": "On or near Abbey Brook Close"}, "longitude": "-1.486659"}, "context": "", "outcome_status": null, "persistent_id": "", "id": 124623521, "location_subtype": "", "month": "2024-11"}, {"category": "anti-social-behaviour", "location_type": "Force", "location": {"latitude": "53.419764", "street": {"id": 1722347, "name": "On or near Beechwood Road"}, "longitude": "-1.332168"}, "context": "", "outcome_status": null, "persistent_id": "", "id": 124614114, "location_subtype": "", "month": "2024-11"}, {"category": "anti-social-behaviour", "location_type": "Force", "location": {"latitude": "53.337961", "street": {"id": 1722218, "name": "On or near Hartland Court"}, "longitude": "-1.335939"}, "context": "", "outcome_status": null, "persistent_id": "", "id": 124614113, "location_subtype": "", "month": "2024-11"}, {"category": "anti-social-behaviour", "location_type": "Force", "location": {"latitude": "53.451293", "street": {"id": 1722075, "name": "On or near Aldwarke Road"}, "longitude": "-1.339594"}, "context": "", "outcome_status": null, "persistent_id": "", "id": 124614112, "location_subtype": "", "month": "2024-11"}, {"category": "anti-social-behaviour", "location_type": "Force", "location": {"latitude": "53.433833", "street": {"id": 1721396, "name": "On or near Supermarket"}, "longitude": "-1.353592"}, "context": "", "outcome_status": null, "persistent_id": "", "id": 124611942, "location_subtype": "", "month": "2024-11"}, {"category": "anti-social-behaviour", "location_type": "Force", "location": {"latitude": "53.431910", "street": {"id": 1721188, "name": "On or near Bridgegate"}, "longitude": "-1.357098"},